[
  {
    "name": "בחר הכל",
    "name_en": "Select All",
    "zone": "",
    "zone_en": "",
    "time": "all",
    "time_en": "",
    "countdown": 0,
    "lat": 0,
    "lng": 0,
    "value": "all"
  },
  {
    "name": "אבו סנאן",
    "name_en": "Abu Snan",
    "zone": "גליל עליון",
    "zone_en": "Upper Galilee",
    "time": "30 שניות",
    "time_en": "30 seconds",
    "countdown": 30,
    "lat": 32.95803,
    "lng": 35.171969,
    "value": "אבו סנאן"
  },
  {
    "name": "אבו קרינאת",
    "name_en": "Abu Qrenat",
    "zone": "דרום הנגב",
    "zone_en": "South Negev",
    "time": "דקה וחצי",
    "time_en": "A minute and a half",
    "countdown": 90,
    "lat": 31.103115,
    "lng": 34.952003,
    "value": "אבו קרינאת"
  },
  {
    "name": "אבו תלול",
    "name_en": "Abu Talul",
    "zone": "דרום הנגב",
    "zone_en": "South Negev",
    "time": "דקה וחצי",
    "time_en": "A minute and a half",
    "countdown": 90,
    "lat": 31.142612,
    "lng": 34.913514,
    "value": "אבו תלול"
  },
  {
    "name": "אבו-גוש",
    "name_en": "Abu Ghosh",
    "zone": "שפלת יהודה",
    "zone_en": "Shfelat Yehuda",
    "time": "דקה וחצי",
    "time_en": "A minute and a half",
    "countdown": 90,
    "lat": 31.806293,
    "lng": 35.109193,
    "value": "אבו-גוש"
  },
  {
    "name": "אבטליון",
    "name_en": "Avtalion",
    "zone": "מרכז הגליל",
    "zone_en": "Center Galilee",
    "time": "דקה",
    "time_en": "A minute",
    "countdown": 60,
    "lat": 32.835781,
    "lng": 35.350442,
    "value": "אבטליון"
  },
  {
    "name": "אביאל",
    "name_en": "Aviel",
    "zone": "מנשה",
    "zone_en": "Menashe",
    "time": "דקה וחצי",
    "time_en": "A minute and a half",
    "countdown": 90,
    "lat": 32.531346,
    "lng": 34.993493,
    "value": "אביאל"
  },
  {
    "name": "אביבים",
    "name_en": "Avivim",
    "zone": "קו העימות",
    "zone_en": "Confrontation Line",
    "time": "מיידי",
    "time_en": "Immediately",
    "countdown": 0,
    "lat": 33.089381,
    "lng": 35.470338,
    "value": "אביבים"
  },
  {
    "name": "אביגדור",
    "name_en": "Avigdor",
    "zone": "לכיש",
    "zone_en": "Lachish",
    "time": "45 שניות",
    "time_en": "45 seconds",
    "countdown": 45,
    "lat": 32.0670111,
    "lng": 34.7900389,
    "value": "אביגדור"
  },
  {
    "name": "אביחיל",
    "name_en": "Avihail",
    "zone": "שרון",
    "zone_en": "Sharon",
    "time": "דקה וחצי",
    "time_en": "A minute and a half",
    "countdown": 90,
    "lat": 32.350708,
    "lng": 34.871229,
    "value": "אביחיל"
  },
  {
    "name": "אביעזר",
    "name_en": "Aviezer",
    "zone": "שפלת יהודה",
    "zone_en": "Shfelat Yehuda",
    "time": "דקה וחצי",
    "time_en": "A minute and a half",
    "countdown": 90,
    "lat": 31.681996,
    "lng": 35.018821,
    "value": "אביעזר"
  },
  {
    "name": "אבירים",
    "name_en": "Abirim",
    "zone": "קו העימות",
    "zone_en": "Confrontation Line",
    "time": "מיידי",
    "time_en": "Immediately",
    "countdown": 0,
    "lat": 33.038086,
    "lng": 35.286044,
    "value": "אבירים"
  },
  {
    "name": "אבן יהודה",
    "name_en": "Even Yehuda",
    "zone": "שרון",
    "zone_en": "Sharon",
    "time": "דקה וחצי",
    "time_en": "A minute and a half",
    "countdown": 90,
    "lat": 32.276648,
    "lng": 34.885087,
    "value": "אבן יהודה"
  },
  {
    "name": "אבן מנחם",
    "name_en": "Even Menachem",
    "zone": "קו העימות",
    "zone_en": "Confrontation Line",
    "time": "מיידי",
    "time_en": "Immediately",
    "countdown": 0,
    "lat": 33.075143,
    "lng": 35.295219,
    "value": "אבן מנחם"
  },
  {
    "name": "אבן ספיר",
    "name_en": "Even Sapir",
    "zone": "ירושלים",
    "zone_en": "Jerusalem",
    "time": "דקה וחצי",
    "time_en": "A minute and a half",
    "countdown": 90,
    "lat": 31.7625,
    "lng": 35.134991,
    "value": "אבן ספיר"
  },
  {
    "name": "אבן שמואל",
    "name_en": "Even Shmuel",
    "zone": "לכיש",
    "zone_en": "Lachish",
    "time": "30 שניות",
    "time_en": "30 seconds",
    "countdown": 30,
    "lat": 31.576429,
    "lng": 34.762963,
    "value": "אבן שמואל"
  },
  {
    "name": "אבני איתן",
    "name_en": "Avnei Eitan",
    "zone": "גולן דרום",
    "zone_en": "South Golan",
    "time": "מיידי",
    "time_en": "Immediately",
    "countdown": 0,
    "lat": 32.824808,
    "lng": 35.765777,
    "value": "אבני איתן"
  },
  {
    "name": "אבני חפץ",
    "name_en": "Avnei Hefetz",
    "zone": "שומרון",
    "zone_en": "Shomron",
    "time": "דקה וחצי",
    "time_en": "A minute and a half",
    "countdown": 90,
    "lat": 32.284628,
    "lng": 35.074551,
    "value": "אבני חפץ"
  },
  {
    "name": "אבנת",
    "name_en": "Avnat",
    "zone": "ים המלח",
    "zone_en": "Dead Sea",
    "time": "דקה וחצי",
    "time_en": "A minute and a half",
    "countdown": 90,
    "lat": 31.679039,
    "lng": 35.436945,
    "value": "אבנת"
  },
  {
    "name": "אבשלום",
    "name_en": "Avshalom",
    "zone": "עוטף עזה",
    "zone_en": "Gaza Envelope",
    "time": "15 שניות",
    "time_en": "15 seconds",
    "countdown": 15,
    "lat": 31.195397,
    "lng": 34.3312,
    "value": "אבשלום"
  },
  {
    "name": "אדורה",
    "name_en": "Adora",
    "zone": "יהודה",
    "zone_en": "Yehuda",
    "time": "דקה וחצי",
    "time_en": "A minute and a half",
    "countdown": 90,
    "lat": 31.552219,
    "lng": 35.017634,
    "value": "אדורה"
  },
  {
    "name": "אדוריים",
    "name_en": "Adorayim",
    "zone": "יהודה",
    "zone_en": "Yehuda",
    "time": "דקה וחצי",
    "time_en": "A minute and a half",
    "countdown": 90,
    "lat": 31.609538,
    "lng": 34.751944,
    "value": "אדוריים"
  },
  {
    "name": "אדמית",
    "name_en": "Idmit",
    "zone": "קו העימות",
    "zone_en": "Confrontation Line",
    "time": "מיידי",
    "time_en": "Immediately",
    "countdown": 0,
    "lat": 33.078842,
    "lng": 35.20951,
    "value": "אדמית"
  },
  {
    "name": "אדרת",
    "name_en": "Aderet",
    "zone": "שפלת יהודה",
    "zone_en": "Shfelat Yehuda",
    "time": "דקה וחצי",
    "time_en": "A minute and a half",
    "countdown": 90,
    "lat": 31.659715,
    "lng": 34.99444,
    "value": "אדרת"
  },
  {
    "name": "אודים",
    "name_en": "Udim",
    "zone": "שרון",
    "zone_en": "Sharon",
    "time": "דקה וחצי",
    "time_en": "A minute and a half",
    "countdown": 90,
    "lat": 32.266865,
    "lng": 34.846995,
    "value": "אודים"
  },
  {
    "name": "אודם",
    "name_en": "Odem",
    "zone": "גולן צפון",
    "zone_en": "North Golan",
    "time": "מיידי",
    "time_en": "Immediately",
    "countdown": 0,
    "lat": 33.1933716,
    "lng": 35.7495651,
    "value": "אודם"
  },
  {
    "name": "אום אל פחם",
    "name_en": "Umm Al-Fahm",
    "zone": "ואדי ערה",
    "zone_en": "Wadi Ara",
    "time": "דקה וחצי",
    "time_en": "A minute and a half",
    "countdown": 90,
    "lat": 32.517127,
    "lng": 35.148529,
    "value": "אום אל פחם"
  },
  {
    "name": "אום אל קוטוף",
    "name_en": "Umm Al-Qutuf",
    "zone": "ואדי ערה",
    "zone_en": "Wadi Ara",
    "time": "דקה וחצי",
    "time_en": "A minute and a half",
    "countdown": 90,
    "lat": 32.468084,
    "lng": 35.059149,
    "value": "אום אל קוטוף"
  },
  {
    "name": "אום אל-גנם",
    "name_en": "Umm Al-Ghanam",
    "zone": "העמקים",
    "zone_en": "HaAmakim",
    "time": "דקה",
    "time_en": "A minute",
    "countdown": 60,
    "lat": 32.684167,
    "lng": 35.396944,
    "value": "אום אל-גנם"
  },
  {
    "name": "אום בטין",
    "name_en": "Umm Batin",
    "zone": "מרכז הנגב",
    "zone_en": "Center Negev",
    "time": "דקה וחצי",
    "time_en": "A minute and a half",
    "countdown": 90,
    "lat": 31.27674369999999,
    "lng": 34.8829215,
    "value": "אום בטין"
  },
  {
    "name": "אופקים",
    "name_en": "Ofakim",
    "zone": "מערב הנגב",
    "zone_en": "West Negev",
    "time": "45 שניות",
    "time_en": "45 seconds",
    "countdown": 45,
    "lat": 31.311337,
    "lng": 34.622824,
    "value": "אופקים"
  },
  {
    "name": "אור הגנוז",
    "name_en": "Or HaGanuz",
    "zone": "גליל עליון",
    "zone_en": "Upper Galilee",
    "time": "30 שניות",
    "time_en": "30 seconds",
    "countdown": 30,
    "lat": 33.005183,
    "lng": 35.446736,
    "value": "אור הגנוז"
  },
  {
    "name": "אור הנר",
    "name_en": "Or HaNer",
    "zone": "עוטף עזה",
    "zone_en": "Gaza Envelope",
    "time": "15 שניות",
    "time_en": "15 seconds",
    "countdown": 15,
    "lat": 31.556197,
    "lng": 34.602305,
    "value": "אור הנר"
  },
  {
    "name": "אור יהודה",
    "name_en": "Or Yehuda",
    "zone": "דן",
    "zone_en": "Dan",
    "time": "דקה וחצי",
    "time_en": "A minute and a half",
    "countdown": 90,
    "lat": 32.029748,
    "lng": 34.856173,
    "value": "אור יהודה"
  },
  {
    "name": "אור עקיבא",
    "name_en": "Or Akiva",
    "zone": "מנשה",
    "zone_en": "Menashe",
    "time": "דקה וחצי",
    "time_en": "A minute and a half",
    "countdown": 90,
    "lat": 32.509965,
    "lng": 34.920394,
    "value": "אור עקיבא"
  },
  {
    "name": "אורה",
    "name_en": "Ora",
    "zone": "ירושלים",
    "zone_en": "Jerusalem",
    "time": "דקה וחצי",
    "time_en": "A minute and a half",
    "countdown": 90,
    "lat": 31.752109,
    "lng": 35.150165,
    "value": "אורה"
  },
  {
    "name": "אורון תעשייה ומסחר",
    "name_en": "Oron Industrial Zone",
    "zone": "דרום הנגב",
    "zone_en": "South Negev",
    "time": "דקה וחצי",
    "time_en": "A minute and a half",
    "countdown": 90,
    "lat": 31.046051,
    "lng": 34.851612,
    "value": "אורון תעשייה ומסחר"
  },
  {
    "name": "אורות",
    "name_en": "Orot",
    "zone": "לכיש",
    "zone_en": "Lachish",
    "time": "45 שניות",
    "time_en": "45 seconds",
    "countdown": 45,
    "lat": 31.741667,
    "lng": 34.734444,
    "value": "אורות"
  },
  {
    "name": "אורטל",
    "name_en": "Ortal",
    "zone": "גולן צפון",
    "zone_en": "North Golan",
    "time": "מיידי",
    "time_en": "Immediately",
    "countdown": 0,
    "lat": 33.086236,
    "lng": 35.758661,
    "value": "אורטל"
  },
  {
    "name": "אורים",
    "name_en": "Urim",
    "zone": "מערב הנגב",
    "zone_en": "West Negev",
    "time": "30 שניות",
    "time_en": "30 seconds",
    "countdown": 30,
    "lat": 31.304094,
    "lng": 34.524868,
    "value": "אורים"
  },
  {
    "name": "אורנים",
    "name_en": "Oranim",
    "zone": "העמקים",
    "zone_en": "HaAmakim",
    "time": "דקה",
    "time_en": "A minute",
    "countdown": 60,
    "lat": 32.711224,
    "lng": 35.109579,
    "value": "אורנים"
  },
  {
    "name": "אורנית",
    "name_en": "Oranit",
    "zone": "שרון",
    "zone_en": "Sharon",
    "time": "דקה וחצי",
    "time_en": "A minute and a half",
    "countdown": 90,
    "lat": 32.131924,
    "lng": 34.99081,
    "value": "אורנית"
  },
  {
    "name": "אושה",
    "name_en": "Usha",
    "zone": "המפרץ",
    "zone_en": "HaMifratz",
    "time": "דקה",
    "time_en": "A minute",
    "countdown": 60,
    "lat": 32.796458,
    "lng": 35.114584,
    "value": "אושה"
  },
  {
    "name": "אזור",
    "name_en": "Azor",
    "zone": "דן",
    "zone_en": "Dan",
    "time": "דקה וחצי",
    "time_en": "A minute and a half",
    "countdown": 90,
    "lat": 32.029558,
    "lng": 34.799648,
    "value": "אזור"
  },
  {
    "name": "אזור תעשייה אכזיב מילואות",
    "name_en": "Achziv Miluot Industrial Zone",
    "zone": "קו העימות",
    "zone_en": "Confrontation Line",
    "time": "מיידי",
    "time_en": "Immediately",
    "countdown": 0,
    "lat": 33.068374,
    "lng": 35.110211,
    "value": "אזור תעשייה אכזיב מילואות"
  },
  {
    "name": "אזור תעשייה אלון התבור",
    "name_en": "Industrial Area Alon Hatovor",
    "zone": "העמקים",
    "zone_en": "HaAmakim",
    "time": "דקה",
    "time_en": "A minute",
    "countdown": 60,
    "lat": 32.476743,
    "lng": 34.9457209,
    "value": "אזור תעשייה אלון התבור"
  },
  {
    "name": "אזור תעשייה אפק ולב הארץ",
    "name_en": "Afek And Lev Ha\\\"aretz Industrial Zone",
    "zone": "ירקון",
    "zone_en": "Yarkon",
    "time": "דקה וחצי",
    "time_en": "A minute and a half",
    "countdown": 90,
    "lat": 32.838316,
    "lng": 35.12778,
    "value": "אזור תעשייה אפק ולב הארץ"
  },
  {
    "name": "אזור תעשייה באר טוביה",
    "name_en": "Industrial Area Be'er Tovia",
    "zone": "לכיש",
    "zone_en": "Lachish",
    "time": "45 שניות",
    "time_en": "45 seconds",
    "countdown": 45,
    "lat": 31.7234649,
    "lng": 34.7513313,
    "value": "אזור תעשייה באר טוביה"
  },
  {
    "name": "אזור תעשייה בני יהודה",
    "name_en": "Bnei Yehuda Industrial Zone",
    "zone": "גולן דרום",
    "zone_en": "South Golan",
    "time": "מיידי",
    "time_en": "Immediately",
    "countdown": 0,
    "lat": 32.802322,
    "lng": 35.715587,
    "value": "אזור תעשייה בני יהודה"
  },
  {
    "name": "אזור תעשייה בר-לב",
    "name_en": "Bar Lev Industrial Zone",
    "zone": "גליל עליון",
    "zone_en": "Upper Galilee",
    "time": "דקה",
    "time_en": "A minute",
    "countdown": 60,
    "lat": 32.906261,
    "lng": 35.194836,
    "value": "אזור תעשייה בר-לב"
  },
  {
    "name": "אזור תעשייה בראון",
    "name_en": "Bar On Industrial Zone",
    "zone": "שומרון",
    "zone_en": "Shomron",
    "time": "דקה וחצי",
    "time_en": "A minute and a half",
    "countdown": 90,
    "lat": 32.248791,
    "lng": 35.168086,
    "value": "אזור תעשייה בראון"
  },
  {
    "name": "אזור תעשייה ברוש",
    "name_en": "Brosh Industrial Zone",
    "zone": "שפלת יהודה",
    "zone_en": "Shfelat Yehuda",
    "time": "דקה וחצי",
    "time_en": "A minute and a half",
    "countdown": 90,
    "lat": 31.733143,
    "lng": 34.959383,
    "value": "אזור תעשייה ברוש"
  },
  {
    "name": "אזור תעשייה דימונה",
    "name_en": "Dimona Industrial Zone",
    "zone": "דרום הנגב",
    "zone_en": "South Negev",
    "time": "דקה וחצי",
    "time_en": "A minute and a half",
    "countdown": 90,
    "lat": 31.064588,
    "lng": 35.018796,
    "value": "אזור תעשייה דימונה"
  },
  {
    "name": "אזור תעשייה הדרומי אשקלון",
    "name_en": "Ashkelon Southern Industrial Zone",
    "zone": "מערב לכיש",
    "zone_en": "West Lachish",
    "time": "30 שניות",
    "time_en": "30 seconds",
    "countdown": 30,
    "lat": 31.636089,
    "lng": 34.554535,
    "value": "אזור תעשייה הדרומי אשקלון"
  },
  {
    "name": "אזור תעשייה הר טוב - צרעה",
    "name_en": "Har Tuv - Tzora Industrial Zone",
    "zone": "שפלת יהודה",
    "zone_en": "Shfelat Yehuda",
    "time": "דקה וחצי",
    "time_en": "A minute and a half",
    "countdown": 90,
    "lat": 31.772753,
    "lng": 34.99809,
    "value": "אזור תעשייה הר טוב - צרעה"
  },
  {
    "name": "אזור תעשייה חבל מודיעין",
    "name_en": "Industrial Area Hevel Modi'in",
    "zone": "ירקון",
    "zone_en": "Yarkon",
    "time": "דקה וחצי",
    "time_en": "A minute and a half",
    "countdown": 90,
    "lat": 32.007819,
    "lng": 34.9606546,
    "value": "אזור תעשייה חבל מודיעין"
  },
  {
    "name": "אזור תעשייה חצור הגלילית",
    "name_en": "Hatzor HaGlilit Industrial Zone",
    "zone": "גליל עליון",
    "zone_en": "Upper Galilee",
    "time": "30 שניות",
    "time_en": "30 seconds",
    "countdown": 30,
    "lat": 32.984227,
    "lng": 35.552146,
    "value": "אזור תעשייה חצור הגלילית"
  },
  {
    "name": "אזור תעשייה טירה",
    "name_en": "Tira Industrial Area",
    "zone": "שרון",
    "zone_en": "Sharon",
    "time": "דקה וחצי",
    "time_en": "A minute and a half",
    "countdown": 90,
    "lat": 32.235466,
    "lng": 34.950506,
    "value": "אזור תעשייה טירה"
  },
  {
    "name": "אזור תעשייה יקנעם עילית",
    "name_en": "Yokneam Illit Industrial Zone",
    "zone": "ואדי ערה",
    "zone_en": "Wadi Ara",
    "time": "דקה וחצי",
    "time_en": "A minute and a half",
    "countdown": 90,
    "lat": 32.661865,
    "lng": 35.105388,
    "value": "אזור תעשייה יקנעם עילית"
  },
  {
    "name": "אזור תעשייה כנות",
    "name_en": "Kannot Industrial Zone",
    "zone": "לכיש",
    "zone_en": "Lachish",
    "time": "דקה",
    "time_en": "A minute",
    "countdown": 60,
    "lat": 31.801344,
    "lng": 34.759136,
    "value": "אזור תעשייה כנות"
  },
  {
    "name": "אזור תעשייה כרמיאל",
    "name_en": "Carmiel Industrial Zone",
    "zone": "גליל עליון",
    "zone_en": "Upper Galilee",
    "time": "30 שניות",
    "time_en": "30 seconds",
    "countdown": 30,
    "lat": 32.926254,
    "lng": 35.319066,
    "value": "אזור תעשייה כרמיאל"
  },
  {
    "name": "אזור תעשייה מבוא כרמל",
    "name_en": "Mevo Carmel Industrial Zone",
    "zone": "ואדי ערה",
    "zone_en": "Wadi Ara",
    "time": "דקה וחצי",
    "time_en": "A minute and a half",
    "countdown": 90,
    "lat": 32.620691,
    "lng": 35.077981,
    "value": "אזור תעשייה מבוא כרמל"
  },
  {
    "name": "אזור תעשייה מבואות הגלבוע",
    "name_en": "Mevuot HaGilboa Industrial Zone",
    "zone": "העמקים",
    "zone_en": "HaAmakim",
    "time": "דקה",
    "time_en": "A minute",
    "countdown": 60,
    "lat": 32.5671596,
    "lng": 35.2675939,
    "value": "אזור תעשייה מבואות הגלבוע"
  },
  {
    "name": "אזור תעשייה מישור אדומים",
    "name_en": "Industrial Area Mishor Edomim",
    "zone": "יהודה",
    "zone_en": "Yehuda",
    "time": "דקה וחצי",
    "time_en": "A minute and a half",
    "countdown": 90,
    "lat": 31.79011599999999,
    "lng": 35.3315771,
    "value": "אזור תעשייה מישור אדומים"
  },
  {
    "name": "אזור תעשייה מיתרים",
    "name_en": "Meitarim Industrial Zone",
    "zone": "יהודה",
    "zone_en": "Yehuda",
    "time": "דקה וחצי",
    "time_en": "A minute and a half",
    "countdown": 90,
    "lat": 31.372583,
    "lng": 35.005544,
    "value": "אזור תעשייה מיתרים"
  },
  {
    "name": "אזור תעשייה נ.ע.מ",
    "name_en": "NAM Industrial Zone",
    "zone": "מערב הנגב",
    "zone_en": "West Negev",
    "time": "30 שניות",
    "time_en": "30 seconds",
    "countdown": 30,
    "lat": 31.046051,
    "lng": 34.851612,
    "value": "אזור תעשייה נ.ע.מ"
  },
  {
    "name": "אזור תעשייה ניר עציון",
    "name_en": "Nir Etzion Industrial Area",
    "zone": "הכרמל",
    "zone_en": "HaCarmel",
    "time": "דקה",
    "time_en": "A minute",
    "countdown": 60,
    "lat": 32.7018516,
    "lng": 34.9729945,
    "value": "אזור תעשייה ניר עציון"
  },
  {
    "name": "אזור תעשייה נשר - רמלה",
    "name_en": "Nesher Industrial Zone (Ramla)",
    "zone": "השפלה",
    "zone_en": "HaShfela",
    "time": "דקה וחצי",
    "time_en": "A minute and a half",
    "countdown": 90,
    "lat": 31.917901,
    "lng": 34.891979,
    "value": "אזור תעשייה נשר - רמלה"
  },
  {
    "name": "אזור תעשייה עד הלום",
    "name_en": "Ad Halom Industrial Zone",
    "zone": "לכיש",
    "zone_en": "Lachish",
    "time": "45 שניות",
    "time_en": "45 seconds",
    "countdown": 45,
    "lat": 31.7580925,
    "lng": 34.6558844,
    "value": "אזור תעשייה עד הלום"
  },
  {
    "name": "אזור תעשייה עידן הנגב",
    "name_en": "Idan HaNegev Industrial Zone",
    "zone": "מרכז הנגב",
    "zone_en": "Center Negev",
    "time": "45 שניות",
    "time_en": "45 seconds",
    "countdown": 45,
    "lat": 31.380784,
    "lng": 34.785966,
    "value": "אזור תעשייה עידן הנגב"
  },
  {
    "name": "אזור תעשייה עמק חפר",
    "name_en": "Emek Heffer Industrial Zone",
    "zone": "שרון",
    "zone_en": "Sharon",
    "time": "דקה וחצי",
    "time_en": "A minute and a half",
    "countdown": 90,
    "lat": 32.4048824,
    "lng": 34.8967208,
    "value": "אזור תעשייה עמק חפר"
  },
  {
    "name": "אזור תעשייה צ.ח.ר",
    "name_en": "Tzahar Industrial Zone",
    "zone": "גליל עליון",
    "zone_en": "Upper Galilee",
    "time": "30 שניות",
    "time_en": "30 seconds",
    "countdown": 30,
    "lat": 32.9705521,
    "lng": 35.5646455,
    "value": "אזור תעשייה צ.ח.ר"
  },
  {
    "name": "אזור תעשייה צבאים",
    "name_en": "Zvaim Industrial Zone",
    "zone": "בקעת בית שאן",
    "zone_en": "Beit She'an Valley",
    "time": "דקה",
    "time_en": "A minute",
    "countdown": 60,
    "lat": 32.494533,
    "lng": 35.511283,
    "value": "אזור תעשייה צבאים"
  },
  {
    "name": "אזור תעשייה ציפורית",
    "name_en": "Industrial Area Tziporit",
    "zone": "העמקים",
    "zone_en": "HaAmakim",
    "time": "דקה",
    "time_en": "A minute",
    "countdown": 60,
    "lat": 32.760576,
    "lng": 35.317877,
    "value": "אזור תעשייה ציפורית"
  },
  {
    "name": "אזור תעשייה צמח",
    "name_en": "Tzemach Industrial Zone",
    "zone": "גליל תחתון",
    "zone_en": "Lower Galilee",
    "time": "30 שניות",
    "time_en": "30 seconds",
    "countdown": 30,
    "lat": 32.70327,
    "lng": 35.586875,
    "value": "אזור תעשייה צמח"
  },
  {
    "name": "אזור תעשייה צפוני אשקלון",
    "name_en": "Ashkelon Northern Industrial Zone",
    "zone": "מערב לכיש",
    "zone_en": "West Lachish",
    "time": "30 שניות",
    "time_en": "30 seconds",
    "countdown": 30,
    "lat": 31.664701,
    "lng": 34.59809,
    "value": "אזור תעשייה צפוני אשקלון"
  },
  {
    "name": "אזור תעשייה קדמת גליל",
    "name_en": "Kidmat Galil Industrial Zone",
    "zone": "גליל תחתון",
    "zone_en": "Lower Galilee",
    "time": "דקה",
    "time_en": "A minute",
    "countdown": 60,
    "lat": 32.785384,
    "lng": 35.4630677,
    "value": "אזור תעשייה קדמת גליל"
  },
  {
    "name": "אזור תעשייה קיסריה",
    "name_en": "Caesarea Industrial Zone",
    "zone": "מנשה",
    "zone_en": "Menashe",
    "time": "דקה וחצי",
    "time_en": "A minute and a half",
    "countdown": 90,
    "lat": 32.486546,
    "lng": 34.94641,
    "value": "אזור תעשייה קיסריה"
  },
  {
    "name": "אזור תעשייה קריית גת",
    "name_en": "Industrial Area Kiryat Gat",
    "zone": "לכיש",
    "zone_en": "Lachish",
    "time": "45 שניות",
    "time_en": "45 seconds",
    "countdown": 45,
    "lat": 31.606178,
    "lng": 34.783263,
    "value": "אזור תעשייה קריית גת"
  },
  {
    "name": "אזור תעשייה רגבים",
    "name_en": "Regavim Industrial Zone",
    "zone": "מנשה",
    "zone_en": "Menashe",
    "time": "דקה וחצי",
    "time_en": "A minute and a half",
    "countdown": 90,
    "lat": 32.525285,
    "lng": 35.034019,
    "value": "אזור תעשייה רגבים"
  },
  {
    "name": "אזור תעשייה רותם",
    "name_en": "Rotem Industrial Zone",
    "zone": "דרום הנגב",
    "zone_en": "South Negev",
    "time": "דקה וחצי",
    "time_en": "A minute and a half",
    "countdown": 90,
    "lat": 31.024872,
    "lng": 35.091937,
    "value": "אזור תעשייה רותם"
  },
  {
    "name": "אזור תעשייה רמת דלתון",
    "name_en": "Ramat Dalton Industrial Zone",
    "zone": "קו העימות",
    "zone_en": "Confrontation Line",
    "time": "מיידי",
    "time_en": "Immediately",
    "countdown": 0,
    "lat": 33.027853,
    "lng": 35.47685,
    "value": "אזור תעשייה רמת דלתון"
  },
  {
    "name": "אזור תעשייה שחורת",
    "name_en": "Shchoret Industrial Zone",
    "zone": "אילת",
    "zone_en": "Eilat",
    "time": "30 שניות",
    "time_en": "30 seconds",
    "countdown": 30,
    "lat": 29.597881,
    "lng": 34.9718911,
    "value": "אזור תעשייה שחורת"
  },
  {
    "name": "אזור תעשייה שער בנימין",
    "name_en": "Sha'ar Binyamin Industrial Zone",
    "zone": "שומרון",
    "zone_en": "Shomron",
    "time": "דקה וחצי",
    "time_en": "A minute and a half",
    "countdown": 90,
    "lat": 31.865575,
    "lng": 35.261645,
    "value": "אזור תעשייה שער בנימין",
    "shelters": 1
  },
  {
    "name": "אזור תעשייה שער נעמן",
    "name_en": "Sha'ar Na'aman Industrial Zone",
    "zone": "גליל עליון",
    "zone_en": "Upper Galilee",
    "time": "דקה",
    "time_en": "A minute",
    "countdown": 60,
    "lat": 32.893398,
    "lng": 35.091562,
    "value": "אזור תעשייה שער נעמן"
  },
  {
    "name": "אזור תעשייה תימורים",
    "name_en": "Timorimg Industrial Zone",
    "zone": "לכיש",
    "zone_en": "Lachish",
    "time": "45 שניות",
    "time_en": "45 seconds",
    "countdown": 45,
    "lat": 31.719015,
    "lng": 34.7637071,
    "value": "אזור תעשייה תימורים"
  },
  {
    "name": "אזור תעשייה תרדיון",
    "name_en": "Teradion Industrial Zone",
    "zone": "מרכז הגליל",
    "zone_en": "Center Galilee",
    "time": "דקה",
    "time_en": "A minute",
    "countdown": 60,
    "lat": 32.867686,
    "lng": 35.273122,
    "value": "אזור תעשייה תרדיון"
  },
  {
    "name": "אחווה",
    "name_en": "Achva",
    "zone": "לכיש",
    "zone_en": "Lachish",
    "time": "45 שניות",
    "time_en": "45 seconds",
    "countdown": 45,
    "lat": 31.742893,
    "lng": 34.767848,
    "value": "אחווה"
  },
  {
    "name": "אחוזם",
    "name_en": "Ahuzam",
    "zone": "לכיש",
    "zone_en": "Lachish",
    "time": "30 שניות",
    "time_en": "30 seconds",
    "countdown": 30,
    "lat": 31.552682,
    "lng": 34.770151,
    "value": "אחוזם"
  },
  {
    "name": "אחוזת ברק",
    "name_en": "Ahuzat Barak",
    "zone": "העמקים",
    "zone_en": "HaAmakim",
    "time": "דקה",
    "time_en": "A minute",
    "countdown": 60,
    "lat": 32.643101,
    "lng": 35.338893,
    "value": "אחוזת ברק"
  },
  {
    "name": "אחיה",
    "name_en": "Achita",
    "zone": "שומרון",
    "zone_en": "Shomron",
    "time": "דקה וחצי",
    "time_en": "A minute and a half",
    "countdown": 90,
    "lat": 32.076593,
    "lng": 34.8321587,
    "value": "אחיה"
  },
  {
    "name": "אחיהוד",
    "name_en": "Achihud",
    "zone": "גליל עליון",
    "zone_en": "Upper Galilee",
    "time": "דקה",
    "time_en": "A minute",
    "countdown": 60,
    "lat": 32.907405,
    "lng": 35.171715,
    "value": "אחיהוד"
  },
  {
    "name": "אחיטוב",
    "name_en": "Ahituv",
    "zone": "שרון",
    "zone_en": "Sharon",
    "time": "דקה וחצי",
    "time_en": "A minute and a half",
    "countdown": 90,
    "lat": 32.387701,
    "lng": 34.990826,
    "value": "אחיטוב"
  },
  {
    "name": "אחיסמך",
    "name_en": "Ahisemech",
    "zone": "השפלה",
    "zone_en": "HaShfela",
    "time": "דקה וחצי",
    "time_en": "A minute and a half",
    "countdown": 90,
    "lat": 31.931906,
    "lng": 34.908576,
    "value": "אחיסמך"
  },
  {
    "name": "אחיעזר",
    "name_en": "Achiezer",
    "zone": "השפלה",
    "zone_en": "HaShfela",
    "time": "דקה וחצי",
    "time_en": "A minute and a half",
    "countdown": 90,
    "lat": 31.981671,
    "lng": 34.871821,
    "value": "אחיעזר"
  },
  {
    "name": "איבטין",
    "name_en": "Ibtin",
    "zone": "המפרץ",
    "zone_en": "HaMifratz",
    "time": "דקה",
    "time_en": "A minute",
    "countdown": 60,
    "lat": 32.759963,
    "lng": 35.114601,
    "value": "איבטין"
  },
  {
    "name": "אייל",
    "name_en": "Eyal",
    "zone": "שרון",
    "zone_en": "Sharon",
    "time": "דקה וחצי",
    "time_en": "A minute and a half",
    "countdown": 90,
    "lat": 32.210711,
    "lng": 34.978259,
    "value": "אייל"
  },
  {
    "name": "איילת השחר",
    "name_en": "Ayelet HaShachar",
    "zone": "גליל עליון",
    "zone_en": "Upper Galilee",
    "time": "30 שניות",
    "time_en": "30 seconds",
    "countdown": 30,
    "lat": 33.021115,
    "lng": 35.576732,
    "value": "איילת השחר"
  },
  {
    "name": "אילון",
    "name_en": "Eilon",
    "zone": "קו העימות",
    "zone_en": "Confrontation Line",
    "time": "מיידי",
    "time_en": "Immediately",
    "countdown": 0,
    "lat": 33.062526,
    "lng": 35.219162,
    "value": "אילון"
  },
  {
    "name": "אילות",
    "name_en": "Eilot",
    "zone": "אילת",
    "zone_en": "Eilat",
    "time": "30 שניות",
    "time_en": "30 seconds",
    "countdown": 30,
    "lat": 29.580548,
    "lng": 34.963023,
    "value": "אילות"
  },
  {
    "name": "אילניה",
    "name_en": "Ilania",
    "zone": "העמקים",
    "zone_en": "HaAmakim",
    "time": "דקה",
    "time_en": "A minute",
    "countdown": 60,
    "lat": 32.753908,
    "lng": 35.408188,
    "value": "אילניה"
  },
  {
    "name": "אילת",
    "name_en": "Eilat",
    "zone": "אילת",
    "zone_en": "Eilat",
    "time": "30 שניות",
    "time_en": "30 seconds",
    "countdown": 30,
    "lat": 29.557669,
    "lng": 34.951925,
    "value": "אילת"
  },
  {
    "name": "אירוס",
    "name_en": "Irus",
    "zone": "השפלה",
    "zone_en": "HaShfela",
    "time": "דקה וחצי",
    "time_en": "A minute and a half",
    "countdown": 90,
    "lat": 31.928595,
    "lng": 34.776605,
    "value": "אירוס"
  },
  {
    "name": "איתמר",
    "name_en": "Itamar",
    "zone": "שומרון",
    "zone_en": "Shomron",
    "time": "דקה וחצי",
    "time_en": "A minute and a half",
    "countdown": 90,
    "lat": 32.173869,
    "lng": 35.308029,
    "value": "איתמר"
  },
  {
    "name": "איתן",
    "name_en": "Eitan",
    "zone": "לכיש",
    "zone_en": "Lachish",
    "time": "30 שניות",
    "time_en": "30 seconds",
    "countdown": 30,
    "lat": 31.572213,
    "lng": 34.747909,
    "value": "איתן"
  },
  {
    "name": "אכסאל",
    "name_en": "Iksal",
    "zone": "העמקים",
    "zone_en": "HaAmakim",
    "time": "דקה",
    "time_en": "A minute",
    "countdown": 60,
    "lat": 32.682085,
    "lng": 35.320743,
    "value": "אכסאל"
  },
  {
    "name": "אל סייד",
    "name_en": "El-Sid",
    "zone": "מרכז הנגב",
    "zone_en": "Center Negev",
    "time": "דקה וחצי",
    "time_en": "A minute and a half",
    "countdown": 90,
    "lat": 31.281719,
    "lng": 34.916298,
    "value": "אל סייד"
  },
  {
    "name": "אל עזי",
    "name_en": "Al Azi",
    "zone": "לכיש",
    "zone_en": "Lachish",
    "time": "45 שניות",
    "time_en": "45 seconds",
    "countdown": 45,
    "lat": 31.718868,
    "lng": 34.814254,
    "value": "אל עזי"
  },
  {
    "name": "אל עמארני, אל מסק",
    "name_en": "El-Amrana, El-Mask",
    "zone": "ערבה",
    "zone_en": "Arava",
    "time": "דקה וחצי",
    "time_en": "A minute and a half",
    "countdown": 90,
    "lat": 31.046051,
    "lng": 34.851612,
    "value": "אל עמארני, אל מסק"
  },
  {
    "name": "אל עריאן",
    "name_en": "Al Arian",
    "zone": "ואדי ערה",
    "zone_en": "Wadi Ara",
    "time": "דקה וחצי",
    "time_en": "A minute and a half",
    "countdown": 90,
    "lat": 32.498076,
    "lng": 35.125094,
    "value": "אל עריאן"
  },
  {
    "name": "אל פורעה",
    "name_en": "El Pura",
    "zone": "דרום הנגב",
    "zone_en": "South Negev",
    "time": "דקה וחצי",
    "time_en": "A minute and a half",
    "countdown": 90,
    "lat": 31.2479345,
    "lng": 35.1566903,
    "value": "אל פורעה"
  },
  {
    "name": "אל רום",
    "name_en": "El Rom",
    "zone": "גולן צפון",
    "zone_en": "North Golan",
    "time": "מיידי",
    "time_en": "Immediately",
    "countdown": 0,
    "lat": 33.180519,
    "lng": 35.770095,
    "value": "אל רום"
  },
  {
    "name": "אל-ח'וואלד מערב",
    "name_en": "Al Khawaled - West",
    "zone": "העמקים",
    "zone_en": "HaAmakim",
    "time": "דקה",
    "time_en": "A minute",
    "countdown": 60,
    "lat": 32.758894,
    "lng": 35.158374,
    "value": "אל-ח'וואלד מערב"
  },
  {
    "name": "אלומה",
    "name_en": "Aluma",
    "zone": "לכיש",
    "zone_en": "Lachish",
    "time": "45 שניות",
    "time_en": "45 seconds",
    "countdown": 45,
    "lat": 31.652041,
    "lng": 34.742872,
    "value": "אלומה"
  },
  {
    "name": "אלומות",
    "name_en": "Alumot",
    "zone": "גליל תחתון",
    "zone_en": "Lower Galilee",
    "time": "דקה",
    "time_en": "A minute",
    "countdown": 60,
    "lat": 32.706628,
    "lng": 35.546088,
    "value": "אלומות"
  },
  {
    "name": "אלון",
    "name_en": "Alon",
    "zone": "יהודה",
    "zone_en": "Yehuda",
    "time": "דקה וחצי",
    "time_en": "A minute and a half",
    "countdown": 90,
    "lat": 31.833354,
    "lng": 35.353557,
    "value": "אלון"
  },
  {
    "name": "אלון הגליל",
    "name_en": "Alon HaGalil",
    "zone": "העמקים",
    "zone_en": "HaAmakim",
    "time": "דקה",
    "time_en": "A minute",
    "countdown": 60,
    "lat": 32.756874,
    "lng": 35.220294,
    "value": "אלון הגליל"
  },
  {
    "name": "אלון מורה",
    "name_en": "Elon Moreh",
    "zone": "שומרון",
    "zone_en": "Shomron",
    "time": "דקה וחצי",
    "time_en": "A minute and a half",
    "countdown": 90,
    "lat": 32.234418,
    "lng": 35.331201,
    "value": "אלון מורה"
  },
  {
    "name": "אלון שבות",
    "name_en": "Alon Shvut",
    "zone": "יהודה",
    "zone_en": "Yehuda",
    "time": "דקה וחצי",
    "time_en": "A minute and a half",
    "countdown": 90,
    "lat": 31.654871,
    "lng": 35.125256,
    "value": "אלון שבות"
  },
  {
    "name": "אלוני אבא",
    "name_en": "Alonei Abba",
    "zone": "העמקים",
    "zone_en": "HaAmakim",
    "time": "דקה",
    "time_en": "A minute",
    "countdown": 60,
    "lat": 32.730945,
    "lng": 35.172028,
    "value": "אלוני אבא"
  },
  {
    "name": "אלוני הבשן",
    "name_en": "Alonei HaBashan",
    "zone": "גולן דרום",
    "zone_en": "South Golan",
    "time": "מיידי",
    "time_en": "Immediately",
    "countdown": 0,
    "lat": 33.044087,
    "lng": 35.838507,
    "value": "אלוני הבשן"
  },
  {
    "name": "אלוני יצחק",
    "name_en": "Alonei Itzhak",
    "zone": "מנשה",
    "zone_en": "Menashe",
    "time": "דקה וחצי",
    "time_en": "A minute and a half",
    "countdown": 90,
    "lat": 32.509997,
    "lng": 35.0052,
    "value": "אלוני יצחק"
  },
  {
    "name": "אלונים",
    "name_en": "Alonim",
    "zone": "העמקים",
    "zone_en": "HaAmakim",
    "time": "דקה",
    "time_en": "A minute",
    "countdown": 60,
    "lat": 32.721459,
    "lng": 35.143399,
    "value": "אלונים"
  },
  {
    "name": "אלי עד",
    "name_en": "Eliad",
    "zone": "גולן דרום",
    "zone_en": "South Golan",
    "time": "מיידי",
    "time_en": "Immediately",
    "countdown": 0,
    "lat": 32.806583,
    "lng": 35.736575,
    "value": "אלי עד"
  },
  {
    "name": "אליאב",
    "name_en": "Eliav",
    "zone": "יהודה",
    "zone_en": "Yehuda",
    "time": "דקה",
    "time_en": "A minute",
    "countdown": 60,
    "lat": 31.530203,
    "lng": 34.928414,
    "value": "אליאב"
  },
  {
    "name": "אליכין",
    "name_en": "Elyachin",
    "zone": "שרון",
    "zone_en": "Sharon",
    "time": "דקה וחצי",
    "time_en": "A minute and a half",
    "countdown": 90,
    "lat": 32.407659,
    "lng": 34.925028,
    "value": "אליכין"
  },
  {
    "name": "אליפז ומכרות תמנע",
    "name_en": "Elipaz And Timna Mines",
    "zone": "ערבה",
    "zone_en": "Arava",
    "time": "3 דקות",
    "time_en": "3 minutes",
    "countdown": 180,
    "lat": 29.7882452,
    "lng": 35.0031576,
    "value": "אליפז ומכרות תמנע"
  },
  {
    "name": "אליפלט",
    "name_en": "Elifelet",
    "zone": "גליל עליון",
    "zone_en": "Upper Galilee",
    "time": "30 שניות",
    "time_en": "30 seconds",
    "countdown": 30,
    "lat": 32.947834,
    "lng": 35.548516,
    "value": "אליפלט"
  },
  {
    "name": "אליקים",
    "name_en": "Elyakim",
    "zone": "ואדי ערה",
    "zone_en": "Wadi Ara",
    "time": "דקה וחצי",
    "time_en": "A minute and a half",
    "countdown": 90,
    "lat": 32.633345,
    "lng": 35.067613,
    "value": "אליקים"
  },
  {
    "name": "אלישיב",
    "name_en": "Elyashiv",
    "zone": "שרון",
    "zone_en": "Sharon",
    "time": "דקה וחצי",
    "time_en": "A minute and a half",
    "countdown": 90,
    "lat": 32.380196,
    "lng": 34.909945,
    "value": "אלישיב"
  },
  {
    "name": "אלישמע",
    "name_en": "Elishema",
    "zone": "שרון",
    "zone_en": "Sharon",
    "time": "דקה וחצי",
    "time_en": "A minute and a half",
    "countdown": 90,
    "lat": 32.154778,
    "lng": 34.930461,
    "value": "אלישמע"
  },
  {
    "name": "אלמגור",
    "name_en": "Almagor",
    "zone": "גולן דרום",
    "zone_en": "South Golan",
    "time": "30 שניות",
    "time_en": "30 seconds",
    "countdown": 30,
    "lat": 32.912709,
    "lng": 35.60231,
    "value": "אלמגור"
  },
  {
    "name": "אלמוג",
    "name_en": "Almog",
    "zone": "ים המלח",
    "zone_en": "Dead Sea",
    "time": "דקה וחצי",
    "time_en": "A minute and a half",
    "countdown": 90,
    "lat": 31.790034,
    "lng": 35.461968,
    "value": "אלמוג"
  },
  {
    "name": "אלעד",
    "name_en": "Elad",
    "zone": "ירקון",
    "zone_en": "Yarkon",
    "time": "דקה וחצי",
    "time_en": "A minute and a half",
    "countdown": 90,
    "lat": 32.04953,
    "lng": 34.95075,
    "value": "אלעד"
  },
  {
    "name": "אלעזר",
    "name_en": "Elazar",
    "zone": "יהודה",
    "zone_en": "Yehuda",
    "time": "דקה וחצי",
    "time_en": "A minute and a half",
    "countdown": 90,
    "lat": 31.659676,
    "lng": 35.143074,
    "value": "אלעזר"
  },
  {
    "name": "אלפי מנשה",
    "name_en": "Alfei Menashe",
    "zone": "שרון",
    "zone_en": "Sharon",
    "time": "דקה וחצי",
    "time_en": "A minute and a half",
    "countdown": 90,
    "lat": 32.170631,
    "lng": 35.014858,
    "value": "אלפי מנשה"
  },
  {
    "name": "אלקוש",
    "name_en": "Alkosh",
    "zone": "קו העימות",
    "zone_en": "Confrontation Line",
    "time": "מיידי",
    "time_en": "Immediately",
    "countdown": 0,
    "lat": 33.034294,
    "lng": 35.326348,
    "value": "אלקוש"
  },
  {
    "name": "אלקנה",
    "name_en": "Elkana",
    "zone": "שרון",
    "zone_en": "Sharon",
    "time": "דקה וחצי",
    "time_en": "A minute and a half",
    "countdown": 90,
    "lat": 32.110566,
    "lng": 35.032054,
    "value": "אלקנה"
  },
  {
    "name": "אמונים",
    "name_en": "Emunim",
    "zone": "לכיש",
    "zone_en": "Lachish",
    "time": "45 שניות",
    "time_en": "45 seconds",
    "countdown": 45,
    "lat": 31.743885,
    "lng": 34.674492,
    "value": "אמונים"
  },
  {
    "name": "אמירים",
    "name_en": "Amirim",
    "zone": "גליל עליון",
    "zone_en": "Upper Galilee",
    "time": "30 שניות",
    "time_en": "30 seconds",
    "countdown": 30,
    "lat": 32.937351,
    "lng": 35.450365,
    "value": "אמירים"
  },
  {
    "name": "אמנון",
    "name_en": "Amnon",
    "zone": "גליל עליון",
    "zone_en": "Upper Galilee",
    "time": "30 שניות",
    "time_en": "30 seconds",
    "countdown": 30,
    "lat": 32.904989,
    "lng": 35.571136,
    "value": "אמנון"
  },
  {
    "name": "אמץ",
    "name_en": "Amatz",
    "zone": "שרון",
    "zone_en": "Sharon",
    "time": "דקה וחצי",
    "time_en": "A minute and a half",
    "countdown": 90,
    "lat": 32.369216,
    "lng": 34.993129,
    "value": "אמץ"
  },
  {
    "name": "אמציה",
    "name_en": "Amatzia",
    "zone": "יהודה",
    "zone_en": "Yehuda",
    "time": "דקה",
    "time_en": "A minute",
    "countdown": 60,
    "lat": 31.531176,
    "lng": 34.914463,
    "value": "אמציה"
  },
  {
    "name": "אניעם",
    "name_en": "Aniam",
    "zone": "גולן דרום",
    "zone_en": "South Golan",
    "time": "15 שניות",
    "time_en": "15 seconds",
    "countdown": 15,
    "lat": 32.956638,
    "lng": 35.739718,
    "value": "אניעם"
  },
  {
    "name": "אעבלין",
    "name_en": "Ibillin",
    "zone": "מרכז הגליל",
    "zone_en": "Center Galilee",
    "time": "דקה",
    "time_en": "A minute",
    "countdown": 60,
    "lat": 32.821799,
    "lng": 35.19012,
    "value": "אעבלין"
  },
  {
    "name": "אפיק",
    "name_en": "Afik",
    "zone": "גולן דרום",
    "zone_en": "South Golan",
    "time": "מיידי",
    "time_en": "Immediately",
    "countdown": 0,
    "lat": 32.779428,
    "lng": 35.702994,
    "value": "אפיק"
  },
  {
    "name": "אפיקים",
    "name_en": "Afikim",
    "zone": "גליל תחתון",
    "zone_en": "Lower Galilee",
    "time": "דקה",
    "time_en": "A minute",
    "countdown": 60,
    "lat": 32.680564,
    "lng": 35.57773,
    "value": "אפיקים"
  },
  {
    "name": "אפק",
    "name_en": "Afek",
    "zone": "גליל עליון",
    "zone_en": "Upper Galilee",
    "time": "דקה",
    "time_en": "A minute",
    "countdown": 60,
    "lat": 32.838316,
    "lng": 35.12778,
    "value": "אפק"
  },
  {
    "name": "אפרת",
    "name_en": "Efrat",
    "zone": "יהודה",
    "zone_en": "Yehuda",
    "time": "דקה וחצי",
    "time_en": "A minute and a half",
    "countdown": 90,
    "lat": 31.653589,
    "lng": 35.149934,
    "value": "אפרת",
    "shelters": 1
  },
  {
    "name": "ארבל",
    "name_en": "Arbel",
    "zone": "גליל תחתון",
    "zone_en": "Lower Galilee",
    "time": "דקה",
    "time_en": "A minute",
    "countdown": 60,
    "lat": 32.8241667,
    "lng": 35.4986111,
    "value": "ארבל"
  },
  {
    "name": "ארגמן",
    "name_en": "Argaman",
    "zone": "בקעה",
    "zone_en": "Bika'a",
    "time": "דקה וחצי",
    "time_en": "A minute and a half",
    "countdown": 90,
    "lat": 32.17334,
    "lng": 35.522285,
    "value": "ארגמן"
  },
  {
    "name": "ארז",
    "name_en": "Erez",
    "zone": "עוטף עזה",
    "zone_en": "Gaza Envelope",
    "time": "15 שניות",
    "time_en": "15 seconds",
    "countdown": 15,
    "lat": 31.55984,
    "lng": 34.564889,
    "value": "ארז",
    "shelters": 2
  },
  {
    "name": "אריאל",
    "name_en": "Ariel",
    "zone": "שומרון",
    "zone_en": "Shomron",
    "time": "דקה וחצי",
    "time_en": "A minute and a half",
    "countdown": 90,
    "lat": 32.104637,
    "lng": 35.174514,
    "value": "אריאל"
  },
  {
    "name": "ארסוף",
    "name_en": "Arsuf",
    "zone": "שרון",
    "zone_en": "Sharon",
    "time": "דקה וחצי",
    "time_en": "A minute and a half",
    "countdown": 90,
    "lat": 32.212841,
    "lng": 34.815977,
    "value": "ארסוף"
  },
  {
    "name": "אשבול",
    "name_en": "Eshbol",
    "zone": "מערב הנגב",
    "zone_en": "West Negev",
    "time": "30 שניות",
    "time_en": "30 seconds",
    "countdown": 30,
    "lat": 31.445516,
    "lng": 34.666654,
    "value": "אשבול"
  },
  {
    "name": "אשבל",
    "name_en": "Eshbal",
    "zone": "מרכז הגליל",
    "zone_en": "Center Galilee",
    "time": "דקה",
    "time_en": "A minute",
    "countdown": 60,
    "lat": 32.876984,
    "lng": 35.30601,
    "value": "אשבל"
  },
  {
    "name": "אשדוד - א,ב,ד,ה",
    "name_en": "Ashdod - Alef, Bet, Dalet, Heh",
    "zone": "לכיש",
    "zone_en": "Lachish",
    "time": "45 שניות",
    "time_en": "45 seconds",
    "countdown": 45,
    "lat": 31.804381,
    "lng": 34.655314,
    "value": "אשדוד - א,ב,ד,ה"
  },
  {
    "name": "אשדוד - אזור תעשייה צפוני ונ",
    "name_en": "Ashdod - Northern Industrial Zone And Port",
    "zone": "לכיש",
    "zone_en": "Lachish",
    "time": "45 שניות",
    "time_en": "45 seconds",
    "countdown": 45,
    "lat": 31.8322214,
    "lng": 34.6759104,
    "value": "אשדוד - אזור תעשייה צפוני ונ"
  },
  {
    "name": "אשדוד - ג,ו,ז",
    "name_en": "Ashdod - Gimmel, Vav, Zain",
    "zone": "לכיש",
    "zone_en": "Lachish",
    "time": "45 שניות",
    "time_en": "45 seconds",
    "countdown": 45,
    "lat": 31.804381,
    "lng": 34.655314,
    "value": "אשדוד - ג,ו,ז"
  },
  {
    "name": "אשדוד - ח,ט,י,יג,יד,טז",
    "name_en": "Ashdod - Het, Tet, Yod, Yod Gimmel, Yod Dalet, Te*",
    "zone": "לכיש",
    "zone_en": "Lachish",
    "time": "45 שניות",
    "time_en": "45 seconds",
    "countdown": 45,
    "lat": 31.804381,
    "lng": 34.655314,
    "value": "אשדוד - ח,ט,י,יג,יד,טז"
  },
  {
    "name": "אשדוד -יא,יב,טו,יז,מרינה,סיט",
    "name_en": "Ashdod - Yod Alef, Yod Bet, Tet Vav, Yod Zain, Marina, City",
    "zone": "לכיש",
    "zone_en": "Lachish",
    "time": "45 שניות",
    "time_en": "45 seconds",
    "countdown": 45,
    "lat": 31.804381,
    "lng": 34.655314,
    "value": "אשדוד -יא,יב,טו,יז,מרינה,סיט"
  },
  {
    "name": "אשדוד I אזור לכיש",
    "name_en": "Ashdod I Lakhish Area",
    "zone": "לכיש",
    "zone_en": "Lachish",
    "time": "45 שניות",
    "time_en": "45 seconds",
    "countdown": 45,
    "lat": 31.804381,
    "lng": 34.655314,
    "value": "אשדוד I אזור לכיש"
  },
  {
    "name": "אשדות יעקב איחוד",
    "name_en": "Ashdod Yacov Ichud",
    "zone": "גולן דרום",
    "zone_en": "South Golan",
    "time": "דקה",
    "time_en": "A minute",
    "countdown": 60,
    "lat": 32.65877,
    "lng": 35.579637,
    "value": "אשדות יעקב איחוד"
  },
  {
    "name": "אשדות יעקב מאוחד",
    "name_en": "Ashdot Yaakov Meuhad",
    "zone": "גולן דרום",
    "zone_en": "South Golan",
    "time": "דקה",
    "time_en": "A minute",
    "countdown": 60,
    "lat": 32.664808,
    "lng": 35.582769,
    "value": "אשדות יעקב מאוחד"
  },
  {
    "name": "אשחר",
    "name_en": "Eshchar",
    "zone": "מרכז הגליל",
    "zone_en": "Center Galilee",
    "time": "דקה",
    "time_en": "A minute",
    "countdown": 60,
    "lat": 32.885084,
    "lng": 35.299622,
    "value": "אשחר"
  },
  {
    "name": "אשכולות",
    "name_en": "Eshkolot",
    "zone": "מרכז הנגב",
    "zone_en": "Center Negev",
    "time": "דקה",
    "time_en": "A minute",
    "countdown": 60,
    "lat": 31.391171,
    "lng": 34.904856,
    "value": "אשכולות"
  },
  {
    "name": "אשל הנשיא",
    "name_en": "Eshel HaNassi",
    "zone": "מערב הנגב",
    "zone_en": "West Negev",
    "time": "45 שניות",
    "time_en": "45 seconds",
    "countdown": 45,
    "lat": 31.326828,
    "lng": 34.697497,
    "value": "אשל הנשיא"
  },
  {
    "name": "אשלים",
    "name_en": "Ashalim",
    "zone": "דרום הנגב",
    "zone_en": "South Negev",
    "time": "דקה וחצי",
    "time_en": "A minute and a half",
    "countdown": 90,
    "lat": 30.964245,
    "lng": 34.699674,
    "value": "אשלים"
  },
  {
    "name": "אשקלון - דרום",
    "name_en": "Ashkelon - South",
    "zone": "מערב לכיש",
    "zone_en": "West Lachish",
    "time": "30 שניות",
    "time_en": "30 seconds",
    "countdown": 30,
    "lat": 31.6687885,
    "lng": 34.5742523,
    "value": "אשקלון - דרום"
  },
  {
    "name": "אשקלון - צפון",
    "name_en": "Ashkelon - North",
    "zone": "מערב לכיש",
    "zone_en": "West Lachish",
    "time": "30 שניות",
    "time_en": "30 seconds",
    "countdown": 30,
    "lat": 31.6687885,
    "lng": 34.5742523,
    "value": "אשקלון - צפון"
  },
  {
    "name": "אשקלון I אזור מערב לכיש",
    "name_en": "Ashkelon I Western Lakhish Area",
    "zone": "מערב לכיש",
    "zone_en": "West Lachish",
    "time": "30 שניות",
    "time_en": "30 seconds",
    "countdown": 30,
    "lat": 31.6687885,
    "lng": 34.5742523,
    "value": "אשקלון I אזור מערב לכיש"
  },
  {
    "name": "אשרת",
    "name_en": "Oshrat",
    "zone": "גליל עליון",
    "zone_en": "Upper Galilee",
    "time": "30 שניות",
    "time_en": "30 seconds",
    "countdown": 30,
    "lat": 32.971645,
    "lng": 35.1557,
    "value": "אשרת",
    "shelters": 1
  },
  {
    "name": "אשתאול",
    "name_en": "Eshtaol",
    "zone": "שפלת יהודה",
    "zone_en": "Shfelat Yehuda",
    "time": "דקה וחצי",
    "time_en": "A minute and a half",
    "countdown": 90,
    "lat": 31.780385,
    "lng": 35.010102,
    "value": "אשתאול"
  },
  {
    "name": "אתר ההנצחה גולני",
    "name_en": "Golani Memorial Site",
    "zone": "גליל תחתון",
    "zone_en": "Lower Galilee",
    "time": "דקה",
    "time_en": "A minute",
    "countdown": 60,
    "lat": 32.777359,
    "lng": 35.410278,
    "value": "אתר ההנצחה גולני"
  },
  {
    "name": "באקה אל גרבייה",
    "name_en": "Bqa Al-Gharbiyye",
    "zone": "ואדי ערה",
    "zone_en": "Wadi Ara",
    "time": "דקה וחצי",
    "time_en": "A minute and a half",
    "countdown": 90,
    "lat": 32.422891,
    "lng": 35.035764,
    "value": "באקה אל גרבייה"
  },
  {
    "name": "באר אורה",
    "name_en": "Be'er Ora",
    "zone": "ערבה",
    "zone_en": "Arava",
    "time": "3 דקות",
    "time_en": "3 minutes",
    "countdown": 180,
    "lat": 29.710166,
    "lng": 34.987218,
    "value": "באר אורה"
  },
  {
    "name": "באר גנים",
    "name_en": "Be'er Ganim",
    "zone": "מערב לכיש",
    "zone_en": "West Lachish",
    "time": "30 שניות",
    "time_en": "30 seconds",
    "countdown": 30,
    "lat": 31.700354,
    "lng": 34.610934,
    "value": "באר גנים"
  },
  {
    "name": "באר טוביה",
    "name_en": "Be'er Tuvia",
    "zone": "לכיש",
    "zone_en": "Lachish",
    "time": "45 שניות",
    "time_en": "45 seconds",
    "countdown": 45,
    "lat": 31.737127,
    "lng": 34.72557,
    "value": "באר טוביה"
  },
  {
    "name": "באר יעקב",
    "name_en": "Be'er Yacov",
    "zone": "השפלה",
    "zone_en": "HaShfela",
    "time": "דקה וחצי",
    "time_en": "A minute and a half",
    "countdown": 90,
    "lat": 31.943507,
    "lng": 34.83904,
    "value": "באר יעקב"
  },
  {
    "name": "באר מילכה",
    "name_en": "Be'er Milka",
    "zone": "דרום הנגב",
    "zone_en": "South Negev",
    "time": "דקה",
    "time_en": "A minute",
    "countdown": 60,
    "lat": 30.934112,
    "lng": 34.405643,
    "value": "באר מילכה"
  },
  {
    "name": "באר שבע - דרום",
    "name_en": "Beer Sheva - South",
    "zone": "מרכז הנגב",
    "zone_en": "Center Negev",
    "time": "דקה",
    "time_en": "A minute",
    "countdown": 60,
    "lat": 31.252973,
    "lng": 34.791462,
    "value": "באר שבע - דרום"
  },
  {
    "name": "באר שבע - מזרח",
    "name_en": "Beer Sheva - East",
    "zone": "מרכז הנגב",
    "zone_en": "Center Negev",
    "time": "דקה",
    "time_en": "A minute",
    "countdown": 60,
    "lat": 31.252973,
    "lng": 34.791462,
    "value": "באר שבע - מזרח"
  },
  {
    "name": "באר שבע - מערב",
    "name_en": "Beer Sheva - West",
    "zone": "מרכז הנגב",
    "zone_en": "Center Negev",
    "time": "דקה",
    "time_en": "A minute",
    "countdown": 60,
    "lat": 31.252973,
    "lng": 34.791462,
    "value": "באר שבע - מערב"
  },
  {
    "name": "באר שבע - צפון",
    "name_en": "Beer Sheva - North",
    "zone": "מרכז הנגב",
    "zone_en": "Center Negev",
    "time": "דקה",
    "time_en": "A minute",
    "countdown": 60,
    "lat": 31.252973,
    "lng": 34.791462,
    "value": "באר שבע - צפון"
  },
  {
    "name": "באר שבע I אזור מרכז הנגב",
    "name_en": "Beer Sheva I Center Negev Area",
    "zone": "מרכז הנגב",
    "zone_en": "Center Negev",
    "time": "דקה",
    "time_en": "A minute",
    "countdown": 60,
    "lat": 31.258556,
    "lng": 34.797527,
    "value": "באר שבע I אזור מרכז הנגב"
  },
  {
    "name": "בארות יצחק",
    "name_en": "Be'erot Itzhak",
    "zone": "ירקון",
    "zone_en": "Yarkon",
    "time": "דקה וחצי",
    "time_en": "A minute and a half",
    "countdown": 90,
    "lat": 32.042025,
    "lng": 34.910221,
    "value": "בארות יצחק"
  },
  {
    "name": "בארותיים",
    "name_en": "Be'erotaim",
    "zone": "שרון",
    "zone_en": "Sharon",
    "time": "דקה וחצי",
    "time_en": "A minute and a half",
    "countdown": 90,
    "lat": 32.321039,
    "lng": 34.98343,
    "value": "בארותיים"
  },
  {
    "name": "בארי",
    "name_en": "Be'eri",
    "zone": "עוטף עזה",
    "zone_en": "Gaza Envelope",
    "time": "15 שניות",
    "time_en": "15 seconds",
    "countdown": 15,
    "lat": 31.424513,
    "lng": 34.492567,
    "value": "בארי",
    "shelters": 2
  },
  {
    "name": "בוסתן הגליל",
    "name_en": "Bustan HaGalil",
    "zone": "גליל עליון",
    "zone_en": "Upper Galilee",
    "time": "30 שניות",
    "time_en": "30 seconds",
    "countdown": 30,
    "lat": 32.948636,
    "lng": 35.080688,
    "value": "בוסתן הגליל",
    "shelters": 1
  },
  {
    "name": "בועיינה-נוג'ידאת",
    "name_en": "Bu'eine Nujeidat",
    "zone": "מרכז הגליל",
    "zone_en": "Center Galilee",
    "time": "דקה",
    "time_en": "A minute",
    "countdown": 60,
    "lat": 32.807711,
    "lng": 35.36527,
    "value": "בועיינה-נוג'ידאת"
  },
  {
    "name": "בוקעתא",
    "name_en": "Buq'ata",
    "zone": "גולן צפון",
    "zone_en": "North Golan",
    "time": "מיידי",
    "time_en": "Immediately",
    "countdown": 0,
    "lat": 33.2026572,
    "lng": 35.7767723,
    "value": "בוקעתא"
  },
  {
    "name": "בורגתה",
    "name_en": "Burgata",
    "zone": "שרון",
    "zone_en": "Sharon",
    "time": "דקה וחצי",
    "time_en": "A minute and a half",
    "countdown": 90,
    "lat": 32.325972,
    "lng": 34.963848,
    "value": "בורגתה"
  },
  {
    "name": "בחן",
    "name_en": "Bahan",
    "zone": "שרון",
    "zone_en": "Sharon",
    "time": "דקה וחצי",
    "time_en": "A minute and a half",
    "countdown": 90,
    "lat": 32.351831,
    "lng": 35.018542,
    "value": "בחן"
  },
  {
    "name": "בטחה",
    "name_en": "Bitha",
    "zone": "מערב הנגב",
    "zone_en": "West Negev",
    "time": "45 שניות",
    "time_en": "45 seconds",
    "countdown": 45,
    "lat": 31.333869,
    "lng": 34.634318,
    "value": "בטחה"
  },
  {
    "name": "ביצרון",
    "name_en": "Bitzaron",
    "zone": "לכיש",
    "zone_en": "Lachish",
    "time": "דקה",
    "time_en": "A minute",
    "countdown": 60,
    "lat": 31.7949517,
    "lng": 34.7293463,
    "value": "ביצרון"
  },
  {
    "name": "ביר אלמכסור",
    "name_en": "Bir Al-Maksur",
    "zone": "מרכז הגליל",
    "zone_en": "Center Galilee",
    "time": "דקה",
    "time_en": "A minute",
    "countdown": 60,
    "lat": 32.777291,
    "lng": 35.220571,
    "value": "ביר אלמכסור"
  },
  {
    "name": "ביר הדאג'",
    "name_en": "Bir Hadaj",
    "zone": "דרום הנגב",
    "zone_en": "South Negev",
    "time": "דקה וחצי",
    "time_en": "A minute and a half",
    "countdown": 90,
    "lat": 31.02316,
    "lng": 34.709138,
    "value": "ביר הדאג'"
  },
  {
    "name": "ביריה",
    "name_en": "Biriyeh",
    "zone": "גליל עליון",
    "zone_en": "Upper Galilee",
    "time": "30 שניות",
    "time_en": "30 seconds",
    "countdown": 30,
    "lat": 32.978108,
    "lng": 35.503096,
    "value": "ביריה"
  },
  {
    "name": "בית אורן",
    "name_en": "Beit Oren",
    "zone": "הכרמל",
    "zone_en": "HaCarmel",
    "time": "דקה",
    "time_en": "A minute",
    "countdown": 60,
    "lat": 32.731601,
    "lng": 35.00632,
    "value": "בית אורן"
  },
  {
    "name": "בית אל",
    "name_en": "Beit El",
    "zone": "שומרון",
    "zone_en": "Shomron",
    "time": "דקה וחצי",
    "time_en": "A minute and a half",
    "countdown": 90,
    "lat": 31.9416,
    "lng": 35.222734,
    "value": "בית אל"
  },
  {
    "name": "בית אלעזרי",
    "name_en": "Beit Elazari",
    "zone": "לכיש",
    "zone_en": "Lachish",
    "time": "דקה",
    "time_en": "A minute",
    "countdown": 60,
    "lat": 31.844717,
    "lng": 34.806627,
    "value": "בית אלעזרי"
  },
  {
    "name": "בית אלפא וחפציבה",
    "name_en": "Beit Alfa And Heftziba",
    "zone": "בקעת בית שאן",
    "zone_en": "Beit She'an Valley",
    "time": "דקה",
    "time_en": "A minute",
    "countdown": 60,
    "lat": 32.5186116,
    "lng": 35.4273788,
    "value": "בית אלפא וחפציבה"
  },
  {
    "name": "בית אריה",
    "name_en": "Beit Arie",
    "zone": "שומרון",
    "zone_en": "Shomron",
    "time": "דקה וחצי",
    "time_en": "A minute and a half",
    "countdown": 90,
    "lat": 32.040059,
    "lng": 35.049472,
    "value": "בית אריה"
  },
  {
    "name": "בית ברל",
    "name_en": "Beit Berl",
    "zone": "שרון",
    "zone_en": "Sharon",
    "time": "דקה וחצי",
    "time_en": "A minute and a half",
    "countdown": 90,
    "lat": 32.1997359,
    "lng": 34.9260732,
    "value": "בית ברל"
  },
  {
    "name": "בית ג'אן",
    "name_en": "Beit Jann",
    "zone": "גליל עליון",
    "zone_en": "Upper Galilee",
    "time": "30 שניות",
    "time_en": "30 seconds",
    "countdown": 30,
    "lat": 32.965655,
    "lng": 35.381268,
    "value": "בית ג'אן"
  },
  {
    "name": "בית גוברין",
    "name_en": "Beit Guvrin",
    "zone": "שפלת יהודה",
    "zone_en": "Shfelat Yehuda",
    "time": "דקה",
    "time_en": "A minute",
    "countdown": 60,
    "lat": 31.61288,
    "lng": 34.895568,
    "value": "בית גוברין"
  },
  {
    "name": "בית גמליאל",
    "name_en": "Beit Gamliel",
    "zone": "לכיש",
    "zone_en": "Lachish",
    "time": "דקה",
    "time_en": "A minute",
    "countdown": 60,
    "lat": 31.856128,
    "lng": 34.760947,
    "value": "בית גמליאל"
  },
  {
    "name": "בית דגן",
    "name_en": "Beit Dagan",
    "zone": "השפלה",
    "zone_en": "HaShfela",
    "time": "דקה וחצי",
    "time_en": "A minute and a half",
    "countdown": 90,
    "lat": 32.0017816,
    "lng": 34.8297087,
    "value": "בית דגן"
  },
  {
    "name": "בית הגדי",
    "name_en": "Beit HaGdi",
    "zone": "מערב הנגב",
    "zone_en": "West Negev",
    "time": "30 שניות",
    "time_en": "30 seconds",
    "countdown": 30,
    "lat": 31.422839,
    "lng": 34.607878,
    "value": "בית הגדי"
  },
  {
    "name": "בית הלוי",
    "name_en": "Beit HaLevi",
    "zone": "שרון",
    "zone_en": "Sharon",
    "time": "דקה וחצי",
    "time_en": "A minute and a half",
    "countdown": 90,
    "lat": 32.351596,
    "lng": 34.930443,
    "value": "בית הלוי"
  },
  {
    "name": "בית הלל",
    "name_en": "Beit Hillel",
    "zone": "קו העימות",
    "zone_en": "Confrontation Line",
    "time": "מיידי",
    "time_en": "Immediately",
    "countdown": 0,
    "lat": 33.208782,
    "lng": 35.606515,
    "value": "בית הלל"
  },
  {
    "name": "בית העמק",
    "name_en": "Beit HaEmek",
    "zone": "גליל עליון",
    "zone_en": "Upper Galilee",
    "time": "30 שניות",
    "time_en": "30 seconds",
    "countdown": 30,
    "lat": 32.971014,
    "lng": 35.145305,
    "value": "בית העמק"
  },
  {
    "name": "בית הערבה",
    "name_en": "Beit HaArava",
    "zone": "ים המלח",
    "zone_en": "Dead Sea",
    "time": "דקה וחצי",
    "time_en": "A minute and a half",
    "countdown": 90,
    "lat": 31.807762,
    "lng": 35.476411,
    "value": "בית הערבה"
  },
  {
    "name": "בית השיטה",
    "name_en": "Beit HaShita",
    "zone": "בקעת בית שאן",
    "zone_en": "Beit She'an Valley",
    "time": "דקה",
    "time_en": "A minute",
    "countdown": 60,
    "lat": 32.550874,
    "lng": 35.439351,
    "value": "בית השיטה"
  },
  {
    "name": "בית זית",
    "name_en": "Beit Zayit",
    "zone": "ירושלים",
    "zone_en": "Jerusalem",
    "time": "דקה וחצי",
    "time_en": "A minute and a half",
    "countdown": 90,
    "lat": 31.783058,
    "lng": 35.161117,
    "value": "בית זית"
  },
  {
    "name": "בית זרע",
    "name_en": "Beit Zera",
    "zone": "גליל תחתון",
    "zone_en": "Lower Galilee",
    "time": "דקה",
    "time_en": "A minute",
    "countdown": 60,
    "lat": 32.689296,
    "lng": 35.574062,
    "value": "בית זרע"
  },
  {
    "name": "בית חגי",
    "name_en": "Beit Hagai",
    "zone": "יהודה",
    "zone_en": "Yehuda",
    "time": "דקה וחצי",
    "time_en": "A minute and a half",
    "countdown": 90,
    "lat": 31.49253,
    "lng": 35.079537,
    "value": "בית חגי"
  },
  {
    "name": "בית חורון",
    "name_en": "Beit Horon",
    "zone": "שומרון",
    "zone_en": "Shomron",
    "time": "דקה וחצי",
    "time_en": "A minute and a half",
    "countdown": 90,
    "lat": 31.87989,
    "lng": 35.124097,
    "value": "בית חורון"
  },
  {
    "name": "בית חזון",
    "name_en": "Beit Hazon",
    "zone": "שרון",
    "zone_en": "Sharon",
    "time": "דקה וחצי",
    "time_en": "A minute and a half",
    "countdown": 90,
    "lat": 32.387178,
    "lng": 34.91291,
    "value": "בית חזון"
  },
  {
    "name": "בית חלקיה",
    "name_en": "Beit Hilkia",
    "zone": "לכיש",
    "zone_en": "Lachish",
    "time": "דקה",
    "time_en": "A minute",
    "countdown": 60,
    "lat": 31.793001,
    "lng": 34.809698,
    "value": "בית חלקיה"
  },
  {
    "name": "בית חנן",
    "name_en": "Beit Hanan",
    "zone": "השפלה",
    "zone_en": "HaShfela",
    "time": "דקה וחצי",
    "time_en": "A minute and a half",
    "countdown": 90,
    "lat": 31.935211,
    "lng": 34.775596,
    "value": "בית חנן"
  },
  {
    "name": "בית חנניה",
    "name_en": "Beit Hanania",
    "zone": "מנשה",
    "zone_en": "Menashe",
    "time": "דקה וחצי",
    "time_en": "A minute and a half",
    "countdown": 90,
    "lat": 32.529504,
    "lng": 34.926734,
    "value": "בית חנניה"
  },
  {
    "name": "בית חרות",
    "name_en": "Beit Herut",
    "zone": "שרון",
    "zone_en": "Sharon",
    "time": "דקה וחצי",
    "time_en": "A minute and a half",
    "countdown": 90,
    "lat": 32.376223,
    "lng": 34.873765,
    "value": "בית חרות"
  },
  {
    "name": "בית חשמונאי",
    "name_en": "Beit Hashmonai",
    "zone": "השפלה",
    "zone_en": "HaShfela",
    "time": "דקה וחצי",
    "time_en": "A minute and a half",
    "countdown": 90,
    "lat": 31.890298,
    "lng": 34.917599,
    "value": "בית חשמונאי"
  },
  {
    "name": "בית יהושע",
    "name_en": "Beit Yehoshua",
    "zone": "שרון",
    "zone_en": "Sharon",
    "time": "דקה וחצי",
    "time_en": "A minute and a half",
    "countdown": 90,
    "lat": 32.262075,
    "lng": 34.865418,
    "value": "בית יהושע"
  },
  {
    "name": "בית יוסף",
    "name_en": "Beit Yossef",
    "zone": "בקעת בית שאן",
    "zone_en": "Beit She'an Valley",
    "time": "דקה",
    "time_en": "A minute",
    "countdown": 60,
    "lat": 32.558698,
    "lng": 35.552773,
    "value": "בית יוסף"
  },
  {
    "name": "בית ינאי",
    "name_en": "Beit Yannai",
    "zone": "שרון",
    "zone_en": "Sharon",
    "time": "דקה וחצי",
    "time_en": "A minute and a half",
    "countdown": 90,
    "lat": 32.381729,
    "lng": 34.863507,
    "value": "בית ינאי"
  },
  {
    "name": "בית יצחק - שער חפר",
    "name_en": "Beit Yithak - Sha'ar Hefer",
    "zone": "שרון",
    "zone_en": "Sharon",
    "time": "דקה וחצי",
    "time_en": "A minute and a half",
    "countdown": 90,
    "lat": 32.33558,
    "lng": 34.8895,
    "value": "בית יצחק - שער חפר"
  },
  {
    "name": "בית ירח",
    "name_en": "Beit Yerach",
    "zone": "גליל תחתון",
    "zone_en": "Lower Galilee",
    "time": "דקה",
    "time_en": "A minute",
    "countdown": 60,
    "lat": 32.712361,
    "lng": 35.574715,
    "value": "בית ירח"
  },
  {
    "name": "בית יתיר",
    "name_en": "Beit Yatir",
    "zone": "יהודה",
    "zone_en": "Yehuda",
    "time": "דקה וחצי",
    "time_en": "A minute and a half",
    "countdown": 90,
    "lat": 31.365586,
    "lng": 35.11134,
    "value": "בית יתיר"
  },
  {
    "name": "בית לחם הגלילית",
    "name_en": "Bethlehem of Galilee",
    "zone": "העמקים",
    "zone_en": "HaAmakim",
    "time": "דקה",
    "time_en": "A minute",
    "countdown": 60,
    "lat": 32.734558,
    "lng": 35.191271,
    "value": "בית לחם הגלילית"
  },
  {
    "name": "בית מאיר",
    "name_en": "Beit Meir",
    "zone": "שפלת יהודה",
    "zone_en": "Shfelat Yehuda",
    "time": "דקה וחצי",
    "time_en": "A minute and a half",
    "countdown": 90,
    "lat": 31.794786,
    "lng": 35.036753,
    "value": "בית מאיר"
  },
  {
    "name": "בית נחמיה",
    "name_en": "Beit Nechemia",
    "zone": "ירקון",
    "zone_en": "Yarkon",
    "time": "דקה וחצי",
    "time_en": "A minute and a half",
    "countdown": 90,
    "lat": 31.977142,
    "lng": 34.953835,
    "value": "בית נחמיה"
  },
  {
    "name": "בית ניר",
    "name_en": "Beit Nir",
    "zone": "שפלת יהודה",
    "zone_en": "Shfelat Yehuda",
    "time": "דקה",
    "time_en": "A minute",
    "countdown": 60,
    "lat": 31.647627,
    "lng": 34.873107,
    "value": "בית ניר"
  },
  {
    "name": "בית נקופה",
    "name_en": "Beit Nekofa",
    "zone": "שפלת יהודה",
    "zone_en": "Shfelat Yehuda",
    "time": "דקה וחצי",
    "time_en": "A minute and a half",
    "countdown": 90,
    "lat": 31.804392,
    "lng": 35.126876,
    "value": "בית נקופה"
  },
  {
    "name": "בית סוהר השרון",
    "name_en": "HaSharon Prison",
    "zone": "שרון",
    "zone_en": "Sharon",
    "time": "דקה וחצי",
    "time_en": "A minute and a half",
    "countdown": 90,
    "lat": 32.2408422,
    "lng": 34.8848165,
    "value": "בית סוהר השרון"
  },
  {
    "name": "בית סוהר מגידו",
    "name_en": "Megiddo Prison",
    "zone": "ואדי ערה",
    "zone_en": "Wadi Ara",
    "time": "דקה וחצי",
    "time_en": "A minute and a half",
    "countdown": 90,
    "lat": 32.5708622,
    "lng": 35.1898259,
    "value": "בית סוהר מגידו"
  },
  {
    "name": "בית סוהר נפחא",
    "name_en": "Nafha Prison",
    "zone": "דרום הנגב",
    "zone_en": "South Negev",
    "time": "דקה וחצי",
    "time_en": "A minute and a half",
    "countdown": 90,
    "lat": 30.726454,
    "lng": 34.773525,
    "value": "בית סוהר נפחא"
  },
  {
    "name": "בית סוהר צלמון",
    "name_en": "Tsalmon Detention Center",
    "zone": "מרכז הגליל",
    "zone_en": "Center Galilee",
    "time": "דקה",
    "time_en": "A minute",
    "countdown": 60,
    "lat": 32.873425,
    "lng": 35.44894,
    "value": "בית סוהר צלמון"
  },
  {
    "name": "בית סוהר קישון",
    "name_en": "Kishon Detention Center",
    "zone": "הכרמל",
    "zone_en": "HaCarmel",
    "time": "דקה",
    "time_en": "A minute",
    "countdown": 60,
    "lat": 32.7269133,
    "lng": 35.0918998,
    "value": "בית סוהר קישון"
  },
  {
    "name": "בית סוהר שיטה וגלבוע",
    "name_en": "Shita And Gilboa Prison",
    "zone": "העמקים",
    "zone_en": "HaAmakim",
    "time": "דקה",
    "time_en": "A minute",
    "countdown": 60,
    "lat": 32.547642,
    "lng": 35.41512,
    "value": "בית סוהר שיטה וגלבוע"
  },
  {
    "name": "בית ספר אורט בנימינה",
    "name_en": "Ort Binyamina",
    "zone": "מנשה",
    "zone_en": "Menashe",
    "time": "דקה וחצי",
    "time_en": "A minute and a half",
    "countdown": 90,
    "lat": 32.5497727,
    "lng": 34.9549745,
    "value": "בית ספר אורט בנימינה"
  },
  {
    "name": "בית ספר שדה מירון",
    "name_en": "Sdeh Meron School",
    "zone": "קו העימות",
    "zone_en": "Confrontation Line",
    "time": "מיידי",
    "time_en": "Immediately",
    "countdown": 0,
    "lat": 33.0114872,
    "lng": 35.3922459,
    "value": "בית ספר שדה מירון"
  },
  {
    "name": "בית עובד",
    "name_en": "Beit Oved",
    "zone": "השפלה",
    "zone_en": "HaShfela",
    "time": "דקה וחצי",
    "time_en": "A minute and a half",
    "countdown": 90,
    "lat": 31.921287,
    "lng": 34.774905,
    "value": "בית עובד"
  },
  {
    "name": "בית עוזיאל",
    "name_en": "Beit Uziel",
    "zone": "השפלה",
    "zone_en": "HaShfela",
    "time": "דקה וחצי",
    "time_en": "A minute and a half",
    "countdown": 90,
    "lat": 31.87005,
    "lng": 34.904858,
    "value": "בית עוזיאל"
  },
  {
    "name": "בית עזרא",
    "name_en": "Beit Ezra",
    "zone": "לכיש",
    "zone_en": "Lachish",
    "time": "45 שניות",
    "time_en": "45 seconds",
    "countdown": 45,
    "lat": 31.736402,
    "lng": 34.657514,
    "value": "בית עזרא"
  },
  {
    "name": "בית עלמין תל רגב",
    "name_en": "Tel Regev Cemetary",
    "zone": "המפרץ",
    "zone_en": "HaMifratz",
    "time": "דקה",
    "time_en": "A minute",
    "countdown": 60,
    "lat": 32.7677588,
    "lng": 35.1219362,
    "value": "בית עלמין תל רגב"
  },
  {
    "name": "בית עריף",
    "name_en": "Beit Arif",
    "zone": "ירקון",
    "zone_en": "Yarkon",
    "time": "דקה וחצי",
    "time_en": "A minute and a half",
    "countdown": 90,
    "lat": 31.995352,
    "lng": 34.935103,
    "value": "בית עריף"
  },
  {
    "name": "בית צבי",
    "name_en": "Beit Zvi",
    "zone": "הכרמל",
    "zone_en": "HaCarmel",
    "time": "דקה",
    "time_en": "A minute",
    "countdown": 60,
    "lat": 32.0784145,
    "lng": 34.8217109,
    "value": "בית צבי"
  },
  {
    "name": "בית קמה",
    "name_en": "Beit Kama",
    "zone": "מרכז הנגב",
    "zone_en": "Center Negev",
    "time": "45 שניות",
    "time_en": "45 seconds",
    "countdown": 45,
    "lat": 31.446566,
    "lng": 34.762248,
    "value": "בית קמה"
  },
  {
    "name": "בית קשת",
    "name_en": "Beit Keshet",
    "zone": "העמקים",
    "zone_en": "HaAmakim",
    "time": "דקה",
    "time_en": "A minute",
    "countdown": 60,
    "lat": 32.718446,
    "lng": 35.394952,
    "value": "בית קשת"
  },
  {
    "name": "בית רימון",
    "name_en": "Beit Rimon",
    "zone": "מרכז הגליל",
    "zone_en": "Center Galilee",
    "time": "דקה",
    "time_en": "A minute",
    "countdown": 60,
    "lat": 32.781845,
    "lng": 35.327738,
    "value": "בית רימון"
  },
  {
    "name": "בית שאן",
    "name_en": "Beit She'an",
    "zone": "בקעת בית שאן",
    "zone_en": "Beit She'an Valley",
    "time": "דקה",
    "time_en": "A minute",
    "countdown": 60,
    "lat": 32.497103,
    "lng": 35.497336,
    "value": "בית שאן"
  },
  {
    "name": "בית שמש",
    "name_en": "Beit Shemesh",
    "zone": "שפלת יהודה",
    "zone_en": "Shfelat Yehuda",
    "time": "דקה וחצי",
    "time_en": "A minute and a half",
    "countdown": 90,
    "lat": 31.747041,
    "lng": 34.988099,
    "value": "בית שמש"
  },
  {
    "name": "בית שערים",
    "name_en": "Beit Shea'rim",
    "zone": "העמקים",
    "zone_en": "HaAmakim",
    "time": "דקה",
    "time_en": "A minute",
    "countdown": 60,
    "lat": 32.703757,
    "lng": 35.129933,
    "value": "בית שערים"
  },
  {
    "name": "בית שקמה",
    "name_en": "Beit Shikma",
    "zone": "מערב לכיש",
    "zone_en": "West Lachish",
    "time": "30 שניות",
    "time_en": "30 seconds",
    "countdown": 30,
    "lat": 31.637735,
    "lng": 34.610074,
    "value": "בית שקמה"
  },
  {
    "name": "ביתן אהרן",
    "name_en": "Bitan Aharon",
    "zone": "שרון",
    "zone_en": "Sharon",
    "time": "דקה וחצי",
    "time_en": "A minute and a half",
    "countdown": 90,
    "lat": 32.364928,
    "lng": 34.86956,
    "value": "ביתן אהרן"
  },
  {
    "name": "ביתר עילית",
    "name_en": "Beitar Illit",
    "zone": "יהודה",
    "zone_en": "Yehuda",
    "time": "דקה וחצי",
    "time_en": "A minute and a half",
    "countdown": 90,
    "lat": 31.7010023,
    "lng": 35.1119254,
    "value": "ביתר עילית"
  },
  {
    "name": "בלפוריה",
    "name_en": "Balfuria",
    "zone": "העמקים",
    "zone_en": "HaAmakim",
    "time": "דקה",
    "time_en": "A minute",
    "countdown": 60,
    "lat": 32.629988,
    "lng": 35.296281,
    "value": "בלפוריה"
  },
  {
    "name": "בן זכאי",
    "name_en": "Ben Zakai",
    "zone": "לכיש",
    "zone_en": "Lachish",
    "time": "דקה",
    "time_en": "A minute",
    "countdown": 60,
    "lat": 31.857223,
    "lng": 34.727432,
    "value": "בן זכאי"
  },
  {
    "name": "בן עמי",
    "name_en": "Ben Ami",
    "zone": "קו העימות",
    "zone_en": "Confrontation Line",
    "time": "מיידי",
    "time_en": "Immediately",
    "countdown": 0,
    "lat": 33.005369,
    "lng": 35.122218,
    "value": "בן עמי"
  },
  {
    "name": "בן שמן",
    "name_en": "Ben Shemen",
    "zone": "השפלה",
    "zone_en": "HaShfela",
    "time": "דקה וחצי",
    "time_en": "A minute and a half",
    "countdown": 90,
    "lat": 31.959019,
    "lng": 34.927831,
    "value": "בן שמן"
  },
  {
    "name": "בני ברק",
    "name_en": "Bnei Brak",
    "zone": "דן",
    "zone_en": "Dan",
    "time": "דקה וחצי",
    "time_en": "A minute and a half",
    "countdown": 90,
    "lat": 32.084932,
    "lng": 34.835226,
    "value": "בני ברק"
  },
  {
    "name": "בני דקלים",
    "name_en": "Bnei Dkalim",
    "zone": "יהודה",
    "zone_en": "Yehuda",
    "time": "דקה",
    "time_en": "A minute",
    "countdown": 60,
    "lat": 31.517188,
    "lng": 34.917033,
    "value": "בני דקלים"
  },
  {
    "name": "בני דרום",
    "name_en": "Bnei Darom",
    "zone": "לכיש",
    "zone_en": "Lachish",
    "time": "45 שניות",
    "time_en": "45 seconds",
    "countdown": 45,
    "lat": 31.82087,
    "lng": 34.691609,
    "value": "בני דרום"
  },
  {
    "name": "בני דרור",
    "name_en": "Bnei Dror",
    "zone": "שרון",
    "zone_en": "Sharon",
    "time": "דקה וחצי",
    "time_en": "A minute and a half",
    "countdown": 90,
    "lat": 32.261795,
    "lng": 34.901791,
    "value": "בני דרור"
  },
  {
    "name": "בני יהודה וגבעת יואב",
    "name_en": "Bnei Yehuda And Givat Yoav",
    "zone": "גולן דרום",
    "zone_en": "South Golan",
    "time": "15 שניות",
    "time_en": "15 seconds",
    "countdown": 15,
    "lat": 32.798262,
    "lng": 35.69107,
    "value": "בני יהודה וגבעת יואב"
  },
  {
    "name": "בני נצרים",
    "name_en": "Bnei Netzarim",
    "zone": "עוטף עזה",
    "zone_en": "Gaza Envelope",
    "time": "30 שניות",
    "time_en": "30 seconds",
    "countdown": 30,
    "lat": 31.143513,
    "lng": 34.316403,
    "value": "בני נצרים"
  },
  {
    "name": "בני עטרות",
    "name_en": "Bnei Atarot",
    "zone": "ירקון",
    "zone_en": "Yarkon",
    "time": "דקה וחצי",
    "time_en": "A minute and a half",
    "countdown": 90,
    "lat": 32.02147,
    "lng": 34.910146,
    "value": "בני עטרות"
  },
  {
    "name": "בני עי'ש",
    "name_en": "Bnei Ayish",
    "zone": "לכיש",
    "zone_en": "Lachish",
    "time": "דקה",
    "time_en": "A minute",
    "countdown": 60,
    "lat": 31.790235,
    "lng": 34.759291,
    "value": "בני עי'ש"
  },
  {
    "name": "בני ציון",
    "name_en": "Bnei Zion",
    "zone": "שרון",
    "zone_en": "Sharon",
    "time": "דקה וחצי",
    "time_en": "A minute and a half",
    "countdown": 90,
    "lat": 32.219839,
    "lng": 34.868378,
    "value": "בני ציון"
  },
  {
    "name": "בני ראם",
    "name_en": "Bnei Re'em",
    "zone": "לכיש",
    "zone_en": "Lachish",
    "time": "דקה",
    "time_en": "A minute",
    "countdown": 60,
    "lat": 31.769972,
    "lng": 34.790463,
    "value": "בני ראם"
  },
  {
    "name": "בניה",
    "name_en": "Bnaya",
    "zone": "לכיש",
    "zone_en": "Lachish",
    "time": "דקה",
    "time_en": "A minute",
    "countdown": 60,
    "lat": 31.843444,
    "lng": 34.751793,
    "value": "בניה"
  },
  {
    "name": "בנימינה",
    "name_en": "Binyamina",
    "zone": "מנשה",
    "zone_en": "Menashe",
    "time": "דקה וחצי",
    "time_en": "A minute and a half",
    "countdown": 90,
    "lat": 32.517078,
    "lng": 34.955096,
    "value": "בנימינה"
  },
  {
    "name": "בסמ\\\"ה",
    "name_en": "Basma",
    "zone": "ואדי ערה",
    "zone_en": "Wadi Ara",
    "time": "דקה וחצי",
    "time_en": "A minute and a half",
    "countdown": 90,
    "lat": 32.52940100000001,
    "lng": 35.103199,
    "value": "בסמ\\\"ה"
  },
  {
    "name": "בסמת טבעון",
    "name_en": "Basmat Tab'un",
    "zone": "העמקים",
    "zone_en": "HaAmakim",
    "time": "דקה",
    "time_en": "A minute",
    "countdown": 60,
    "lat": 32.736287,
    "lng": 35.1532,
    "value": "בסמת טבעון"
  },
  {
    "name": "בענה",
    "name_en": "Bi'ina",
    "zone": "גליל עליון",
    "zone_en": "Upper Galilee",
    "time": "30 שניות",
    "time_en": "30 seconds",
    "countdown": 30,
    "lat": 32.929538,
    "lng": 35.271917,
    "value": "בענה"
  },
  {
    "name": "בצרה",
    "name_en": "Batzra",
    "zone": "שרון",
    "zone_en": "Sharon",
    "time": "דקה וחצי",
    "time_en": "A minute and a half",
    "countdown": 90,
    "lat": 32.214541,
    "lng": 34.878123,
    "value": "בצרה"
  },
  {
    "name": "בצת",
    "name_en": "Betzet",
    "zone": "קו העימות",
    "zone_en": "Confrontation Line",
    "time": "מיידי",
    "time_en": "Immediately",
    "countdown": 0,
    "lat": 33.070047,
    "lng": 35.132636,
    "value": "בצת"
  },
  {
    "name": "בקוע",
    "name_en": "Beko'a",
    "zone": "שפלת יהודה",
    "zone_en": "Shfelat Yehuda",
    "time": "דקה וחצי",
    "time_en": "A minute and a half",
    "countdown": 90,
    "lat": 31.827899,
    "lng": 34.924732,
    "value": "בקוע"
  },
  {
    "name": "בקעות",
    "name_en": "Beka'ot",
    "zone": "בקעה",
    "zone_en": "Bika'a",
    "time": "דקה וחצי",
    "time_en": "A minute and a half",
    "countdown": 90,
    "lat": 32.24207,
    "lng": 35.452636,
    "value": "בקעות"
  },
  {
    "name": "בר גיורא",
    "name_en": "Bar Giora",
    "zone": "שפלת יהודה",
    "zone_en": "Shfelat Yehuda",
    "time": "דקה וחצי",
    "time_en": "A minute and a half",
    "countdown": 90,
    "lat": 31.729683,
    "lng": 35.073414,
    "value": "בר גיורא"
  },
  {
    "name": "בר יוחאי",
    "name_en": "Bar Yochai",
    "zone": "גליל עליון",
    "zone_en": "Upper Galilee",
    "time": "30 שניות",
    "time_en": "30 seconds",
    "countdown": 30,
    "lat": 32.997704,
    "lng": 35.44819,
    "value": "בר יוחאי"
  },
  {
    "name": "ברוכין",
    "name_en": "Brukhin",
    "zone": "שומרון",
    "zone_en": "Shomron",
    "time": "דקה וחצי",
    "time_en": "A minute and a half",
    "countdown": 90,
    "lat": 32.082231,
    "lng": 35.094113,
    "value": "ברוכין"
  },
  {
    "name": "ברור חיל",
    "name_en": "Bror Hayil",
    "zone": "מערב הנגב",
    "zone_en": "West Negev",
    "time": "30 שניות",
    "time_en": "30 seconds",
    "countdown": 30,
    "lat": 31.556985,
    "lng": 34.646547,
    "value": "ברור חיל",
    "shelters": 2
  },
  {
    "name": "ברוש",
    "name_en": "Brosh",
    "zone": "מערב הנגב",
    "zone_en": "West Negev",
    "time": "30 שניות",
    "time_en": "30 seconds",
    "countdown": 30,
    "lat": 31.370721,
    "lng": 34.634978,
    "value": "ברוש",
    "shelters": 1
  },
  {
    "name": "ברחבי הארץ",
    "name_en": "Across The Country",
    "zone": "מערב הנגב",
    "zone_en": "West Negev",
    "time": "30 שניות",
    "time_en": "30 seconds",
    "countdown": 30,
    "lat": 31.046051,
    "lng": 34.851612,
    "value": "ברחבי הארץ"
  },
  {
    "name": "ברטעה",
    "name_en": "Bart'a",
    "zone": "ואדי ערה",
    "zone_en": "Wadi Ara",
    "time": "דקה וחצי",
    "time_en": "A minute and a half",
    "countdown": 90,
    "lat": 32.529401,
    "lng": 35.103199,
    "value": "ברטעה"
  },
  {
    "name": "ברכיה",
    "name_en": "Berekhya",
    "zone": "מערב לכיש",
    "zone_en": "West Lachish",
    "time": "30 שניות",
    "time_en": "30 seconds",
    "countdown": 30,
    "lat": 31.668047,
    "lng": 34.624296,
    "value": "ברכיה",
    "shelters": 2
  },
  {
    "name": "ברעם",
    "name_en": "Baram",
    "zone": "קו העימות",
    "zone_en": "Confrontation Line",
    "time": "מיידי",
    "time_en": "Immediately",
    "countdown": 0,
    "lat": 33.058979,
    "lng": 35.433235,
    "value": "ברעם"
  },
  {
    "name": "ברקאי",
    "name_en": "Barkai",
    "zone": "מנשה",
    "zone_en": "Menashe",
    "time": "דקה וחצי",
    "time_en": "A minute and a half",
    "countdown": 90,
    "lat": 32.476096,
    "lng": 35.031044,
    "value": "ברקאי"
  },
  {
    "name": "ברקן",
    "name_en": "Barkan",
    "zone": "שומרון",
    "zone_en": "Shomron",
    "time": "דקה וחצי",
    "time_en": "A minute and a half",
    "countdown": 90,
    "lat": 32.109487,
    "lng": 35.106008,
    "value": "ברקן"
  },
  {
    "name": "ברקת",
    "name_en": "Bareket",
    "zone": "ירקון",
    "zone_en": "Yarkon",
    "time": "דקה וחצי",
    "time_en": "A minute and a half",
    "countdown": 90,
    "lat": 32.018344,
    "lng": 34.943179,
    "value": "ברקת"
  },
  {
    "name": "בת הדר",
    "name_en": "Bat Hadar",
    "zone": "מערב לכיש",
    "zone_en": "West Lachish",
    "time": "30 שניות",
    "time_en": "30 seconds",
    "countdown": 30,
    "lat": 31.648125,
    "lng": 34.597146,
    "value": "בת הדר",
    "shelters": 1
  },
  {
    "name": "בת חן",
    "name_en": "Bat Chen",
    "zone": "שרון",
    "zone_en": "Sharon",
    "time": "דקה וחצי",
    "time_en": "A minute and a half",
    "countdown": 90,
    "lat": 32.360194,
    "lng": 34.872388,
    "value": "בת חן"
  },
  {
    "name": "בת חפר",
    "name_en": "Bat Hefer",
    "zone": "שרון",
    "zone_en": "Sharon",
    "time": "דקה וחצי",
    "time_en": "A minute and a half",
    "countdown": 90,
    "lat": 32.333714,
    "lng": 35.013729,
    "value": "בת חפר"
  },
  {
    "name": "בת עין",
    "name_en": "Bat Ayin",
    "zone": "יהודה",
    "zone_en": "Yehuda",
    "time": "דקה וחצי",
    "time_en": "A minute and a half",
    "countdown": 90,
    "lat": 31.657653,
    "lng": 35.101101,
    "value": "בת עין"
  },
  {
    "name": "בת שלמה",
    "name_en": "Bat Shlomo",
    "zone": "הכרמל",
    "zone_en": "HaCarmel",
    "time": "דקה",
    "time_en": "A minute",
    "countdown": 60,
    "lat": 32.600335,
    "lng": 35.003837,
    "value": "בת שלמה"
  },
  {
    "name": "בת-ים",
    "name_en": "Bat Yam",
    "zone": "דן",
    "zone_en": "Dan",
    "time": "דקה וחצי",
    "time_en": "A minute and a half",
    "countdown": 90,
    "lat": 32.013186,
    "lng": 34.748019,
    "value": "בת-ים"
  },
  {
    "name": "בתי מלון ים המלח",
    "name_en": "Dead Sea Hotels",
    "zone": "ים המלח",
    "zone_en": "Dead Sea",
    "time": "דקה וחצי",
    "time_en": "A minute and a half",
    "countdown": 90,
    "lat": 31.2004332,
    "lng": 35.3659631,
    "value": "בתי מלון ים המלח"
  },
  {
    "name": "ג'דידה מכר",
    "name_en": "Jadeidi-Makr",
    "zone": "גליל עליון",
    "zone_en": "Upper Galilee",
    "time": "30 שניות",
    "time_en": "30 seconds",
    "countdown": 30,
    "lat": 32.928656,
    "lng": 35.150573,
    "value": "ג'דידה מכר"
  },
  {
    "name": "ג'וליס",
    "name_en": "Julis",
    "zone": "גליל עליון",
    "zone_en": "Upper Galilee",
    "time": "30 שניות",
    "time_en": "30 seconds",
    "countdown": 30,
    "lat": 32.94498,
    "lng": 35.184243,
    "value": "ג'וליס"
  },
  {
    "name": "ג'לג'וליה",
    "name_en": "Jaljulia",
    "zone": "שרון",
    "zone_en": "Sharon",
    "time": "דקה וחצי",
    "time_en": "A minute and a half",
    "countdown": 90,
    "lat": 32.1524568,
    "lng": 34.9539749,
    "value": "ג'לג'וליה"
  },
  {
    "name": "ג'סר א-זרקא",
    "name_en": "Jisr Az-Zarqa",
    "zone": "מנשה",
    "zone_en": "Menashe",
    "time": "דקה וחצי",
    "time_en": "A minute and a half",
    "countdown": 90,
    "lat": 32.536262,
    "lng": 34.911569,
    "value": "ג'סר א-זרקא"
  },
  {
    "name": "ג'ש - גוש חלב",
    "name_en": "Jish (Gush Halav)",
    "zone": "קו העימות",
    "zone_en": "Confrontation Line",
    "time": "מיידי",
    "time_en": "Immediately",
    "countdown": 0,
    "lat": 33.021266,
    "lng": 35.447949,
    "value": "ג'ש - גוש חלב"
  },
  {
    "name": "ג'ת",
    "name_en": "Jatt",
    "zone": "ואדי ערה",
    "zone_en": "Wadi Ara",
    "time": "דקה וחצי",
    "time_en": "A minute and a half",
    "countdown": 90,
    "lat": 32.39693,
    "lng": 35.035914,
    "value": "ג'ת"
  },
  {
    "name": "גאולי תימן",
    "name_en": "Geulei Teiman",
    "zone": "שרון",
    "zone_en": "Sharon",
    "time": "דקה וחצי",
    "time_en": "A minute and a half",
    "countdown": 90,
    "lat": 32.391837,
    "lng": 34.900989,
    "value": "גאולי תימן"
  },
  {
    "name": "גאולים",
    "name_en": "Geulim",
    "zone": "שרון",
    "zone_en": "Sharon",
    "time": "דקה וחצי",
    "time_en": "A minute and a half",
    "countdown": 90,
    "lat": 32.296487,
    "lng": 34.943862,
    "value": "גאולים"
  },
  {
    "name": "גאליה",
    "name_en": "Ge'alya",
    "zone": "השפלה",
    "zone_en": "HaShfela",
    "time": "דקה",
    "time_en": "A minute",
    "countdown": 60,
    "lat": 31.885644,
    "lng": 34.765351,
    "value": "גאליה"
  },
  {
    "name": "גבולות",
    "name_en": "Gvulot",
    "zone": "מערב הנגב",
    "zone_en": "West Negev",
    "time": "30 שניות",
    "time_en": "30 seconds",
    "countdown": 30,
    "lat": 31.211168,
    "lng": 34.466199,
    "value": "גבולות"
  },
  {
    "name": "גבים, מכללת ספיר",
    "name_en": "Gavim, Sapir College",
    "zone": "עוטף עזה",
    "zone_en": "Gaza Envelope",
    "time": "15 שניות",
    "time_en": "15 seconds",
    "countdown": 15,
    "lat": 31.5093864,
    "lng": 34.594523,
    "value": "גבים, מכללת ספיר"
  },
  {
    "name": "גבע בנימין",
    "name_en": "Geva Binyamin",
    "zone": "שומרון",
    "zone_en": "Shomron",
    "time": "דקה וחצי",
    "time_en": "A minute and a half",
    "countdown": 90,
    "lat": 31.849999,
    "lng": 35.273853,
    "value": "גבע בנימין"
  },
  {
    "name": "גבע כרמל",
    "name_en": "Geva Carmel",
    "zone": "הכרמל",
    "zone_en": "HaCarmel",
    "time": "דקה",
    "time_en": "A minute",
    "countdown": 60,
    "lat": 32.662163,
    "lng": 34.954078,
    "value": "גבע כרמל"
  },
  {
    "name": "גבעון החדשה",
    "name_en": "Giv'on HaHadasha",
    "zone": "ירושלים",
    "zone_en": "Jerusalem",
    "time": "דקה וחצי",
    "time_en": "A minute and a half",
    "countdown": 90,
    "lat": 31.848896,
    "lng": 35.159029,
    "value": "גבעון החדשה"
  },
  {
    "name": "גבעות",
    "name_en": "Gvaot",
    "zone": "יהודה",
    "zone_en": "Yehuda",
    "time": "דקה וחצי",
    "time_en": "A minute and a half",
    "countdown": 90,
    "lat": 31.678899,
    "lng": 35.101914,
    "value": "גבעות"
  },
  {
    "name": "גבעות בר",
    "name_en": "Giv'ot Bar",
    "zone": "מרכז הנגב",
    "zone_en": "Center Negev",
    "time": "45 שניות",
    "time_en": "45 seconds",
    "countdown": 45,
    "lat": 31.357209,
    "lng": 34.755541,
    "value": "גבעות בר"
  },
  {
    "name": "גבעות גורל",
    "name_en": "Givat Goral",
    "zone": "מרכז הנגב",
    "zone_en": "Center Negev",
    "time": "45 שניות",
    "time_en": "45 seconds",
    "countdown": 45,
    "lat": 31.34341,
    "lng": 34.829009,
    "value": "גבעות גורל"
  },
  {
    "name": "גבעות עדן",
    "name_en": "Giv'ot Eden",
    "zone": "שפלת יהודה",
    "zone_en": "Shfelat Yehuda",
    "time": "דקה וחצי",
    "time_en": "A minute and a half",
    "countdown": 90,
    "lat": 31.662171,
    "lng": 35.013876,
    "value": "גבעות עדן"
  },
  {
    "name": "גבעת אבני",
    "name_en": "Giv'at Avni",
    "zone": "גליל תחתון",
    "zone_en": "Lower Galilee",
    "time": "דקה",
    "time_en": "A minute",
    "countdown": 60,
    "lat": 32.775382,
    "lng": 35.436154,
    "value": "גבעת אבני"
  },
  {
    "name": "גבעת אלה",
    "name_en": "Givat Ela",
    "zone": "העמקים",
    "zone_en": "HaAmakim",
    "time": "דקה",
    "time_en": "A minute",
    "countdown": 60,
    "lat": 32.722007,
    "lng": 35.244822,
    "value": "גבעת אלה"
  },
  {
    "name": "גבעת אסף",
    "name_en": "Givat Asaf",
    "zone": "שומרון",
    "zone_en": "Shomron",
    "time": "דקה וחצי",
    "time_en": "A minute and a half",
    "countdown": 90,
    "lat": 31.046051,
    "lng": 34.851612,
    "value": "גבעת אסף"
  },
  {
    "name": "גבעת ברנר",
    "name_en": "Givat Brenner",
    "zone": "לכיש",
    "zone_en": "Lachish",
    "time": "דקה וחצי",
    "time_en": "A minute and a half",
    "countdown": 90,
    "lat": 31.86661,
    "lng": 34.802254,
    "value": "גבעת ברנר"
  },
  {
    "name": "גבעת הראל וגבעת הרואה",
    "name_en": "Gival Harel And Gival Haroe",
    "zone": "שומרון",
    "zone_en": "Shomron",
    "time": "דקה וחצי",
    "time_en": "A minute and a half",
    "countdown": 90,
    "lat": 31.046051,
    "lng": 34.851612,
    "value": "גבעת הראל וגבעת הרואה"
  },
  {
    "name": "גבעת השלושה",
    "name_en": "Givat HaShlosha",
    "zone": "דן",
    "zone_en": "Dan",
    "time": "דקה וחצי",
    "time_en": "A minute and a half",
    "countdown": 90,
    "lat": 32.09634,
    "lng": 34.920628,
    "value": "גבעת השלושה"
  },
  {
    "name": "גבעת וולפסון",
    "name_en": "Givat Wolfson",
    "zone": "הכרמל",
    "zone_en": "HaCarmel",
    "time": "דקה",
    "time_en": "A minute",
    "countdown": 60,
    "lat": 32.72022,
    "lng": 35.016055,
    "value": "גבעת וולפסון"
  },
  {
    "name": "גבעת וושינגטון",
    "name_en": "Givat Washington",
    "zone": "לכיש",
    "zone_en": "Lachish",
    "time": "דקה",
    "time_en": "A minute",
    "countdown": 60,
    "lat": 31.817497,
    "lng": 34.7289,
    "value": "גבעת וושינגטון"
  },
  {
    "name": "גבעת זאב",
    "name_en": "Givat Ze'ev",
    "zone": "ירושלים",
    "zone_en": "Jerusalem",
    "time": "דקה וחצי",
    "time_en": "A minute and a half",
    "countdown": 90,
    "lat": 31.861189,
    "lng": 35.167252,
    "value": "גבעת זאב"
  },
  {
    "name": "גבעת חביבה",
    "name_en": "Givat Haviva",
    "zone": "מנשה",
    "zone_en": "Menashe",
    "time": "דקה וחצי",
    "time_en": "A minute and a half",
    "countdown": 90,
    "lat": 32.395216,
    "lng": 35.01179,
    "value": "גבעת חביבה"
  },
  {
    "name": "גבעת חיים איחוד",
    "name_en": "Givat Haim (Ihud)",
    "zone": "שרון",
    "zone_en": "Sharon",
    "time": "דקה וחצי",
    "time_en": "A minute and a half",
    "countdown": 90,
    "lat": 32.396745,
    "lng": 34.932978,
    "value": "גבעת חיים איחוד"
  },
  {
    "name": "גבעת חיים מאוחד",
    "name_en": "Givat Haim (Meuhad)",
    "zone": "שרון",
    "zone_en": "Sharon",
    "time": "דקה וחצי",
    "time_en": "A minute and a half",
    "countdown": 90,
    "lat": 32.392148,
    "lng": 34.929447,
    "value": "גבעת חיים מאוחד"
  },
  {
    "name": "גבעת חן",
    "name_en": "Givat Hen",
    "zone": "שרון",
    "zone_en": "Sharon",
    "time": "דקה וחצי",
    "time_en": "A minute and a half",
    "countdown": 90,
    "lat": 32.16758,
    "lng": 34.875514,
    "value": "גבעת חן"
  },
  {
    "name": "גבעת יערים",
    "name_en": "Givat Yearim",
    "zone": "שפלת יהודה",
    "zone_en": "Shfelat Yehuda",
    "time": "דקה וחצי",
    "time_en": "A minute and a half",
    "countdown": 90,
    "lat": 31.786089,
    "lng": 35.09277,
    "value": "גבעת יערים"
  },
  {
    "name": "גבעת ישעיהו",
    "name_en": "Givat Ishayahu",
    "zone": "שפלת יהודה",
    "zone_en": "Shfelat Yehuda",
    "time": "דקה",
    "time_en": "A minute",
    "countdown": 60,
    "lat": 31.67168,
    "lng": 34.943738,
    "value": "גבעת ישעיהו"
  },
  {
    "name": "גבעת כ'ח",
    "name_en": "Giv'at Ko'ah",
    "zone": "ירקון",
    "zone_en": "Yarkon",
    "time": "דקה וחצי",
    "time_en": "A minute and a half",
    "countdown": 90,
    "lat": 32.032091,
    "lng": 34.938796,
    "value": "גבעת כ'ח"
  },
  {
    "name": "גבעת ניל'י",
    "name_en": "Givat Nili",
    "zone": "ואדי ערה",
    "zone_en": "Wadi Ara",
    "time": "דקה וחצי",
    "time_en": "A minute and a half",
    "countdown": 90,
    "lat": 32.549043,
    "lng": 35.041194,
    "value": "גבעת ניל'י"
  },
  {
    "name": "גבעת עדה",
    "name_en": "Givat Ada",
    "zone": "מנשה",
    "zone_en": "Menashe",
    "time": "דקה וחצי",
    "time_en": "A minute and a half",
    "countdown": 90,
    "lat": 32.517078,
    "lng": 34.955096,
    "value": "גבעת עדה"
  },
  {
    "name": "גבעת עוז",
    "name_en": "Givat Oz",
    "zone": "ואדי ערה",
    "zone_en": "Wadi Ara",
    "time": "דקה וחצי",
    "time_en": "A minute and a half",
    "countdown": 90,
    "lat": 32.555934,
    "lng": 35.198004,
    "value": "גבעת עוז"
  },
  {
    "name": "גבעת שמואל",
    "name_en": "Givat Shmuel",
    "zone": "דן",
    "zone_en": "Dan",
    "time": "דקה וחצי",
    "time_en": "A minute and a half",
    "countdown": 90,
    "lat": 32.077299,
    "lng": 34.849206,
    "value": "גבעת שמואל"
  },
  {
    "name": "גבעת שפירא",
    "name_en": "Givat Shapira",
    "zone": "שרון",
    "zone_en": "Sharon",
    "time": "דקה וחצי",
    "time_en": "A minute and a half",
    "countdown": 90,
    "lat": 32.35763,
    "lng": 34.875845,
    "value": "גבעת שפירא"
  },
  {
    "name": "גבעתי",
    "name_en": "Givati",
    "zone": "לכיש",
    "zone_en": "Lachish",
    "time": "45 שניות",
    "time_en": "45 seconds",
    "countdown": 45,
    "lat": 31.733138,
    "lng": 34.679478,
    "value": "גבעתי"
  },
  {
    "name": "גבעתיים",
    "name_en": "Givatayim",
    "zone": "דן",
    "zone_en": "Dan",
    "time": "דקה וחצי",
    "time_en": "A minute and a half",
    "countdown": 90,
    "lat": 32.072176,
    "lng": 34.808871,
    "value": "גבעתיים"
  },
  {
    "name": "גברעם",
    "name_en": "Gvaram",
    "zone": "עוטף עזה",
    "zone_en": "Gaza Envelope",
    "time": "15 שניות",
    "time_en": "15 seconds",
    "countdown": 15,
    "lat": 31.591461,
    "lng": 34.612156,
    "value": "גברעם"
  },
  {
    "name": "גבת",
    "name_en": "Gvat",
    "zone": "העמקים",
    "zone_en": "HaAmakim",
    "time": "דקה",
    "time_en": "A minute",
    "countdown": 60,
    "lat": 32.67656,
    "lng": 35.213151,
    "value": "גבת"
  },
  {
    "name": "גדות",
    "name_en": "Gadot",
    "zone": "גליל עליון",
    "zone_en": "Upper Galilee",
    "time": "30 שניות",
    "time_en": "30 seconds",
    "countdown": 30,
    "lat": 33.018208,
    "lng": 35.619547,
    "value": "גדות"
  },
  {
    "name": "גדיש",
    "name_en": "Gadish",
    "zone": "העמקים",
    "zone_en": "HaAmakim",
    "time": "דקה",
    "time_en": "A minute",
    "countdown": 60,
    "lat": 32.558844,
    "lng": 35.24443,
    "value": "גדיש"
  },
  {
    "name": "גדעונה",
    "name_en": "Gidona",
    "zone": "העמקים",
    "zone_en": "HaAmakim",
    "time": "דקה",
    "time_en": "A minute",
    "countdown": 60,
    "lat": 32.549927,
    "lng": 35.359202,
    "value": "גדעונה"
  },
  {
    "name": "גדרה",
    "name_en": "Gdera",
    "zone": "לכיש",
    "zone_en": "Lachish",
    "time": "דקה",
    "time_en": "A minute",
    "countdown": 60,
    "lat": 31.8123014,
    "lng": 34.7770192,
    "value": "גדרה"
  },
  {
    "name": "גונן",
    "name_en": "Gonen",
    "zone": "קו העימות",
    "zone_en": "Confrontation Line",
    "time": "15 שניות",
    "time_en": "15 seconds",
    "countdown": 15,
    "lat": 33.1240353,
    "lng": 35.6461519,
    "value": "גונן"
  },
  {
    "name": "גורן",
    "name_en": "Goren",
    "zone": "קו העימות",
    "zone_en": "Confrontation Line",
    "time": "מיידי",
    "time_en": "Immediately",
    "countdown": 0,
    "lat": 33.055566,
    "lng": 35.233619,
    "value": "גורן"
  },
  {
    "name": "גזית",
    "name_en": "Gazit",
    "zone": "העמקים",
    "zone_en": "HaAmakim",
    "time": "דקה",
    "time_en": "A minute",
    "countdown": 60,
    "lat": 32.639307,
    "lng": 35.446239,
    "value": "גזית"
  },
  {
    "name": "גזר",
    "name_en": "Gezer",
    "zone": "השפלה",
    "zone_en": "HaShfela",
    "time": "דקה וחצי",
    "time_en": "A minute and a half",
    "countdown": 90,
    "lat": 31.8592289,
    "lng": 34.8844867,
    "value": "גזר"
  },
  {
    "name": "גיאה",
    "name_en": "Ge'a",
    "zone": "מערב לכיש",
    "zone_en": "West Lachish",
    "time": "30 שניות",
    "time_en": "30 seconds",
    "countdown": 30,
    "lat": 31.628467,
    "lng": 34.602678,
    "value": "גיאה"
  },
  {
    "name": "גיבתון",
    "name_en": "Gibton",
    "zone": "השפלה",
    "zone_en": "HaShfela",
    "time": "דקה וחצי",
    "time_en": "A minute and a half",
    "countdown": 90,
    "lat": 31.888318,
    "lng": 34.79906,
    "value": "גיבתון"
  },
  {
    "name": "גיזו",
    "name_en": "Gizo",
    "zone": "שפלת יהודה",
    "zone_en": "Shfelat Yehuda",
    "time": "דקה וחצי",
    "time_en": "A minute and a half",
    "countdown": 90,
    "lat": 31.805585,
    "lng": 34.939653,
    "value": "גיזו"
  },
  {
    "name": "גילון צורית",
    "name_en": "Gilon Tzurit",
    "zone": "גליל עליון",
    "zone_en": "Upper Galilee",
    "time": "30 שניות",
    "time_en": "30 seconds",
    "countdown": 30,
    "lat": 32.904338,
    "lng": 35.232191,
    "value": "גילון צורית"
  },
  {
    "name": "גילת",
    "name_en": "Gilat",
    "zone": "מערב הנגב",
    "zone_en": "West Negev",
    "time": "45 שניות",
    "time_en": "45 seconds",
    "countdown": 45,
    "lat": 31.326321,
    "lng": 34.648934,
    "value": "גילת"
  },
  {
    "name": "גינוסר",
    "name_en": "Ginosar",
    "zone": "גליל תחתון",
    "zone_en": "Lower Galilee",
    "time": "דקה",
    "time_en": "A minute",
    "countdown": 60,
    "lat": 32.848666,
    "lng": 35.523152,
    "value": "גינוסר"
  },
  {
    "name": "גינתון",
    "name_en": "Ginaton",
    "zone": "השפלה",
    "zone_en": "HaShfela",
    "time": "דקה וחצי",
    "time_en": "A minute and a half",
    "countdown": 90,
    "lat": 31.962801,
    "lng": 34.913062,
    "value": "גינתון"
  },
  {
    "name": "גיתה",
    "name_en": "Gita",
    "zone": "גליל עליון",
    "zone_en": "Upper Galilee",
    "time": "30 שניות",
    "time_en": "30 seconds",
    "countdown": 30,
    "lat": 32.967233,
    "lng": 35.249125,
    "value": "גיתה"
  },
  {
    "name": "גיתית",
    "name_en": "Gitit",
    "zone": "בקעה",
    "zone_en": "Bika'a",
    "time": "דקה וחצי",
    "time_en": "A minute and a half",
    "countdown": 90,
    "lat": 32.100273,
    "lng": 35.395443,
    "value": "גיתית"
  },
  {
    "name": "גלאון",
    "name_en": "Galon",
    "zone": "שפלת יהודה",
    "zone_en": "Shfelat Yehuda",
    "time": "דקה",
    "time_en": "A minute",
    "countdown": 60,
    "lat": 31.633371,
    "lng": 34.848898,
    "value": "גלאון"
  },
  {
    "name": "גלגל",
    "name_en": "Gilgal",
    "zone": "בקעה",
    "zone_en": "Bika'a",
    "time": "דקה וחצי",
    "time_en": "A minute and a half",
    "countdown": 90,
    "lat": 32.000016,
    "lng": 35.444643,
    "value": "גלגל"
  },
  {
    "name": "גלעד",
    "name_en": "Gal'ed (Even Itzhak)",
    "zone": "ואדי ערה",
    "zone_en": "Wadi Ara",
    "time": "דקה וחצי",
    "time_en": "A minute and a half",
    "countdown": 90,
    "lat": 32.558075,
    "lng": 35.076559,
    "value": "גלעד"
  },
  {
    "name": "גמזו",
    "name_en": "Gimzo",
    "zone": "ירקון",
    "zone_en": "Yarkon",
    "time": "דקה וחצי",
    "time_en": "A minute and a half",
    "countdown": 90,
    "lat": 31.927217,
    "lng": 34.941128,
    "value": "גמזו"
  },
  {
    "name": "גן הדרום",
    "name_en": "Gan HaDarom",
    "zone": "לכיש",
    "zone_en": "Lachish",
    "time": "דקה",
    "time_en": "A minute",
    "countdown": 60,
    "lat": 31.804056,
    "lng": 34.69987,
    "value": "גן הדרום"
  },
  {
    "name": "גן השומרון",
    "name_en": "Gan HaShomron",
    "zone": "מנשה",
    "zone_en": "Menashe",
    "time": "דקה וחצי",
    "time_en": "A minute and a half",
    "countdown": 90,
    "lat": 32.465007,
    "lng": 34.999047,
    "value": "גן השומרון"
  },
  {
    "name": "גן חיים",
    "name_en": "Gan Haim",
    "zone": "שרון",
    "zone_en": "Sharon",
    "time": "דקה וחצי",
    "time_en": "A minute and a half",
    "countdown": 90,
    "lat": 32.195761,
    "lng": 34.906957,
    "value": "גן חיים"
  },
  {
    "name": "גן יאשיה",
    "name_en": "Gan Yoshia",
    "zone": "שרון",
    "zone_en": "Sharon",
    "time": "דקה וחצי",
    "time_en": "A minute and a half",
    "countdown": 90,
    "lat": 32.349487,
    "lng": 34.996245,
    "value": "גן יאשיה"
  },
  {
    "name": "גן יבנה",
    "name_en": "Gan Yavne",
    "zone": "לכיש",
    "zone_en": "Lachish",
    "time": "45 שניות",
    "time_en": "45 seconds",
    "countdown": 45,
    "lat": 31.783056,
    "lng": 34.703101,
    "value": "גן יבנה"
  },
  {
    "name": "גן נר",
    "name_en": "Gan Ner",
    "zone": "העמקים",
    "zone_en": "HaAmakim",
    "time": "דקה",
    "time_en": "A minute",
    "countdown": 60,
    "lat": 32.528706,
    "lng": 35.336254,
    "value": "גן נר"
  },
  {
    "name": "גן שורק",
    "name_en": "Gan Sorek",
    "zone": "השפלה",
    "zone_en": "HaShfela",
    "time": "דקה וחצי",
    "time_en": "A minute and a half",
    "countdown": 90,
    "lat": 31.944011,
    "lng": 34.758322,
    "value": "גן שורק"
  },
  {
    "name": "גן שלמה",
    "name_en": "Gan Shlomo",
    "zone": "השפלה",
    "zone_en": "HaShfela",
    "time": "דקה וחצי",
    "time_en": "A minute and a half",
    "countdown": 90,
    "lat": 31.878777,
    "lng": 34.798901,
    "value": "גן שלמה"
  },
  {
    "name": "גן שמואל",
    "name_en": "Gan Shmuel",
    "zone": "מנשה",
    "zone_en": "Menashe",
    "time": "דקה וחצי",
    "time_en": "A minute and a half",
    "countdown": 90,
    "lat": 32.452911,
    "lng": 34.949311,
    "value": "גן שמואל"
  },
  {
    "name": "גנות",
    "name_en": "Ganot",
    "zone": "השפלה",
    "zone_en": "HaShfela",
    "time": "דקה וחצי",
    "time_en": "A minute and a half",
    "countdown": 90,
    "lat": 32.018204,
    "lng": 34.825877,
    "value": "גנות"
  },
  {
    "name": "גנות הדר",
    "name_en": "Ginot Hadar",
    "zone": "שרון",
    "zone_en": "Sharon",
    "time": "דקה וחצי",
    "time_en": "A minute and a half",
    "countdown": 90,
    "lat": 32.32174,
    "lng": 34.900715,
    "value": "גנות הדר"
  },
  {
    "name": "גני הדר",
    "name_en": "Ganei Hadar",
    "zone": "השפלה",
    "zone_en": "HaShfela",
    "time": "דקה וחצי",
    "time_en": "A minute and a half",
    "countdown": 90,
    "lat": 31.8782413,
    "lng": 34.857588,
    "value": "גני הדר"
  },
  {
    "name": "גני טל",
    "name_en": "Ganei Tal",
    "zone": "לכיש",
    "zone_en": "Lachish",
    "time": "דקה",
    "time_en": "A minute",
    "countdown": 60,
    "lat": 31.788573,
    "lng": 34.791392,
    "value": "גני טל"
  },
  {
    "name": "גני יוחנן",
    "name_en": "Ganei Yochanan",
    "zone": "השפלה",
    "zone_en": "HaShfela",
    "time": "דקה וחצי",
    "time_en": "A minute and a half",
    "countdown": 90,
    "lat": 31.859924,
    "lng": 34.840827,
    "value": "גני יוחנן"
  },
  {
    "name": "גני מודיעין",
    "name_en": "Ganei Modi'in",
    "zone": "ירקון",
    "zone_en": "Yarkon",
    "time": "דקה וחצי",
    "time_en": "A minute and a half",
    "countdown": 90,
    "lat": 31.9297927,
    "lng": 35.0176666,
    "value": "גני מודיעין"
  },
  {
    "name": "גני עם",
    "name_en": "Ganei Am",
    "zone": "שרון",
    "zone_en": "Sharon",
    "time": "דקה וחצי",
    "time_en": "A minute and a half",
    "countdown": 90,
    "lat": 32.149838,
    "lng": 34.903358,
    "value": "גני עם"
  },