[
  {
    "id": 0,
    "name": "בחר הכל",
    "name_en": "Select All",
    "name_ru": "Выбрать все",
    "name_ar": "اختر الكل",
    "zone": "",
    "zone_en": "",
    "zone_ru": "",
    "zone_ar": "",
    "time": "all",
    "time_en": "",
    "time_ru": "",
    "time_ar": "",
    "countdown": 0,
    "lat": 0,
    "lng": 0,
    "value": "all"
  },
  {
    "id": 1470,
    "name": "אבו סנאן",
    "name_en": "Abu Snan",
    "name_ru": "Абу Снан",
    "name_ar": "ابو سنان",
    "zone": "גליל עליון",
    "zone_en": "Upper Galilee",
    "zone_ru": "Верхняя Галилея",
    "zone_ar": "الجليل الأعلى",
    "time": "30 שניות",
    "time_en": "30 seconds",
    "time_ru": "30 секунд",
    "time_ar": "30 ثانية",
    "countdown": 30,
    "lat": 32.95803,
    "lng": 35.171969,
    "value": "אבו סנאן"
  },
  {
    "id": 92,
    "name": "אבו קרינאת",
    "name_en": "Abu Qrenat",
    "name_ru": "Абу Кренат",
    "name_ar": "أبو كرينات وضواحيها",
    "zone": "דרום הנגב",
    "zone_en": "South Negev",
    "zone_ru": "Южный Негев",
    "zone_ar": "جنوب النقب",
    "time": "דקה וחצי",
    "time_en": "A minute and a half",
    "time_ru": "Полторы минуты",
    "time_ar": "دقيقة ونصف",
    "countdown": 90,
    "lat": 31.103115,
    "lng": 34.952003,
    "value": "אבו קרינאת"
  },
  {
    "id": 103,
    "name": "אבו תלול",
    "name_en": "Abu Talul",
    "name_ru": "Абу Талуль",
    "name_ar": "أبو تلول",
    "zone": "דרום הנגב",
    "zone_en": "South Negev",
    "zone_ru": "Южный Негев",
    "zone_ar": "جنوب النقب",
    "time": "דקה וחצי",
    "time_en": "A minute and a half",
    "time_ru": "Полторы минуты",
    "time_ar": "دقيقة ونصف",
    "countdown": 90,
    "lat": 31.142612,
    "lng": 34.913514,
    "value": "אבו תלול"
  },
  {
    "id": 511,
    "name": "אבו-גוש",
    "name_en": "Abu Ghosh",
    "name_ru": "Абу-Гош",
    "name_ar": "ابو غوش",
    "zone": "שפלת יהודה",
    "zone_en": "Shfelat Yehuda",
    "zone_ru": "Шфелат Йегуда",
    "zone_ar": "شيفلات يهودا",
    "time": "דקה וחצי",
    "time_en": "A minute and a half",
    "time_ru": "Полторы минуты",
    "time_ar": "دقيقة ونصف",
    "countdown": 90,
    "lat": 31.806293,
    "lng": 35.109193,
    "value": "אבו-גוש"
  },
  {
    "id": 1363,
    "name": "אבטליון",
    "name_en": "Avtalion",
    "name_ru": "Авталион",
    "name_ar": "افتليون",
    "zone": "מרכז הגליל",
    "zone_en": "Center Galilee",
    "zone_ru": "Центральная Галилея",
    "zone_ar": "مركز الجليل",
    "time": "דקה",
    "time_en": "A minute",
    "time_ru": "Минута",
    "time_ar": "دقيقة",
    "countdown": 60,
    "lat": 32.835781,
    "lng": 35.350442,
    "value": "אבטליון"
  },
  {
    "id": 1065,
    "name": "אביאל",
    "name_en": "Aviel",
    "name_ru": "Авиэль",
    "name_ar": "أفيئيل",
    "zone": "מנשה",
    "zone_en": "Menashe",
    "zone_ru": "Менаше",
    "zone_ar": "مناشيه",
    "time": "דקה וחצי",
    "time_en": "A minute and a half",
    "time_ru": "Полторы минуты",
    "time_ar": "دقيقة ونصف",
    "countdown": 90,
    "lat": 32.531346,
    "lng": 34.993493,
    "value": "אביאל"
  },
  {
    "id": 1604,
    "name": "אביבים",
    "name_en": "Avivim",
    "name_ru": "Авивим",
    "name_ar": "أفيفيم",
    "zone": "קו העימות",
    "zone_en": "Confrontation Line",
    "zone_ru": "Кав Ха-Имут",
    "zone_ar": "خط المواجهة",
    "time": "מיידי",
    "time_en": "Immediately",
    "time_ru": "Немедленно",
    "time_ar": "في الحال",
    "countdown": 0,
    "lat": 33.089381,
    "lng": 35.470338,
    "value": "אביבים"
  },
  {
    "id": 373,
    "name": "אביגדור",
    "name_en": "Avigdor",
    "name_ru": "Авигдор",
    "name_ar": "افيغدور",
    "zone": "לכיש",
    "zone_en": "Lachish",
    "zone_ru": "Лахиш",
    "zone_ar": "لخيش",
    "time": "45 שניות",
    "time_en": "45 seconds",
    "time_ru": "45 секунд",
    "time_ar": "45 ثانية",
    "countdown": 45,
    "lat": 32.0670111,
    "lng": 34.7900389,
    "value": "אביגדור"
  },
  {
    "id": 940,
    "name": "אביחיל",
    "name_en": "Avihail",
    "name_ru": "Авихайль",
    "name_ar": "افيحايل",
    "zone": "שרון",
    "zone_en": "Sharon",
    "zone_ru": "Шарон",
    "zone_ar": "شارون",
    "time": "דקה וחצי",
    "time_en": "A minute and a half",
    "time_ru": "Полторы минуты",
    "time_ar": "دقيقة ونصف",
    "countdown": 90,
    "lat": 32.350708,
    "lng": 34.871229,
    "value": "אביחיל"
  },
  {
    "id": 359,
    "name": "אביעזר",
    "name_en": "Aviezer",
    "name_ru": "Авиэзер",
    "name_ar": "افيعزير",
    "zone": "שפלת יהודה",
    "zone_en": "Shfelat Yehuda",
    "zone_ru": "Шфелат Йегуда",
    "zone_ar": "شيفلات يهودا",
    "time": "דקה וחצי",
    "time_en": "A minute and a half",
    "time_ru": "Полторы минуты",
    "time_ar": "دقيقة ونصف",
    "countdown": 90,
    "lat": 31.681996,
    "lng": 35.018821,
    "value": "אביעזר"
  },
  {
    "id": 1557,
    "name": "אבירים",
    "name_en": "Abirim",
    "name_ru": "Абирим",
    "name_ar": "أفيريم",
    "zone": "קו העימות",
    "zone_en": "Confrontation Line",
    "zone_ru": "Кав Ха-Имут",
    "zone_ar": "خط المواجهة",
    "time": "מיידי",
    "time_en": "Immediately",
    "time_ru": "Немедленно",
    "time_ar": "في الحال",
    "countdown": 0,
    "lat": 33.038086,
    "lng": 35.286044,
    "value": "אבירים"
  },
  {
    "id": 891,
    "name": "אבן יהודה",
    "name_en": "Even Yehuda",
    "name_ru": "Эвен Иеуда",
    "name_ar": "ايفين يهودا",
    "zone": "שרון",
    "zone_en": "Sharon",
    "zone_ru": "Шарон",
    "zone_ar": "شارون",
    "time": "דקה וחצי",
    "time_en": "A minute and a half",
    "time_ru": "Полторы минуты",
    "time_ar": "دقيقة ونصف",
    "countdown": 90,
    "lat": 32.276648,
    "lng": 34.885087,
    "value": "אבן יהודה"
  },
  {
    "id": 1588,
    "name": "אבן מנחם",
    "name_en": "Even Menachem",
    "name_ru": "Эвен Менахем",
    "name_ar": "إيفين مناحيم",
    "zone": "קו העימות",
    "zone_en": "Confrontation Line",
    "zone_ru": "Кав Ха-Имут",
    "zone_ar": "خط المواجهة",
    "time": "מיידי",
    "time_en": "Immediately",
    "time_ru": "Немедленно",
    "time_ar": "في الحال",
    "countdown": 0,
    "lat": 33.075143,
    "lng": 35.295219,
    "value": "אבן מנחם"
  },
  {
    "id": 443,
    "name": "אבן ספיר",
    "name_en": "Even Sapir",
    "name_ru": "Эвен Сапир",
    "name_ar": "ايفين سفير",
    "zone": "ירושלים",
    "zone_en": "Jerusalem",
    "zone_ru": "Иерусалим",
    "zone_ar": "أورشليمالقدس",
    "time": "דקה וחצי",
    "time_en": "A minute and a half",
    "time_ru": "Полторы минуты",
    "time_ar": "دقيقة ونصف",
    "countdown": 90,
    "lat": 31.7625,
    "lng": 35.134991,
    "value": "אבן ספיר"
  },
  {
    "id": 278,
    "name": "אבן שמואל",
    "name_en": "Even Shmuel",
    "name_ru": "Эвен Шмуэль",
    "name_ar": "ايفين شموئيل",
    "zone": "לכיש",
    "zone_en": "Lachish",
    "zone_ru": "Лахиш",
    "zone_ar": "لخيش",
    "time": "30 שניות",
    "time_en": "30 seconds",
    "time_ru": "30 секунд",
    "time_ar": "30 ثانية",
    "countdown": 30,
    "lat": 31.576429,
    "lng": 34.762963,
    "value": "אבן שמואל"
  },
  {
    "id": 1359,
    "name": "אבני איתן",
    "name_en": "Avnei Eitan",
    "name_ru": "Авней Эйтан",
    "name_ar": "أفني ايتان",
    "zone": "גולן דרום",
    "zone_en": "South Golan",
    "zone_ru": "Южный Голан",
    "zone_ar": "الجولان الجنوبي",
    "time": "מיידי",
    "time_en": "Immediately",
    "time_ru": "Немедленно",
    "time_ar": "في الحال",
    "countdown": 0,
    "lat": 32.824808,
    "lng": 35.765777,
    "value": "אבני איתן"
  },
  {
    "id": 911,
    "name": "אבני חפץ",
    "name_en": "Avnei Hefetz",
    "name_ru": "Авней Хефец",
    "name_ar": "أفني حيفتس",
    "zone": "שומרון",
    "zone_en": "Shomron",
    "zone_ru": "Самария",
    "zone_ar": "السامرة",
    "time": "דקה וחצי",
    "time_en": "A minute and a half",
    "time_ru": "Полторы минуты",
    "time_ar": "دقيقة ونصف",
    "countdown": 90,
    "lat": 32.284628,
    "lng": 35.074551,
    "value": "אבני חפץ"
  },
  {
    "id": 372,
    "name": "אבנת",
    "name_en": "Avnat",
    "name_ru": "Авнат",
    "name_ar": "ايفنات",
    "zone": "ים המלח",
    "zone_en": "Dead Sea",
    "zone_ru": "Мёртвое море",
    "zone_ar": "البحر الميت",
    "time": "דקה וחצי",
    "time_en": "A minute and a half",
    "time_ru": "Полторы минуты",
    "time_ar": "دقيقة ونصف",
    "countdown": 90,
    "lat": 31.679039,
    "lng": 35.436945,
    "value": "אבנת"
  },
  {
    "id": 109,
    "name": "אבשלום",
    "name_en": "Avshalom",
    "name_ru": "Авшалом",
    "name_ar": "افيشالوم",
    "zone": "עוטף עזה",
    "zone_en": "Gaza Envelope",
    "zone_ru": "Округ Газа",
    "zone_ar": "غلاف غزة",
    "time": "15 שניות",
    "time_en": "15 seconds",
    "time_ru": "15 секунд",
    "time_ar": "15 ثانية",
    "countdown": 15,
    "lat": 31.195397,
    "lng": 34.3312,
    "value": "אבשלום"
  },
  {
    "id": 271,
    "name": "אדורה",
    "name_en": "Adora",
    "name_ru": "Адора",
    "name_ar": "ادورا",
    "zone": "יהודה",
    "zone_en": "Yehuda",
    "zone_ru": "Йегуда",
    "zone_ar": "يهودا",
    "time": "דקה וחצי",
    "time_en": "A minute and a half",
    "time_ru": "Полторы минуты",
    "time_ar": "دقيقة ونصف",
    "countdown": 90,
    "lat": 31.552219,
    "lng": 35.017634,
    "value": "אדורה"
  },
  {
    "id": 1883,
    "name": "אדוריים",
    "name_en": "Adorayim",
    "name_ru": "Адораим",
    "name_ar": "أدورايم",
    "zone": "יהודה",
    "zone_en": "Yehuda",
    "zone_ru": "Йегуда",
    "zone_ar": "يهودا",
    "time": "דקה וחצי",
    "time_en": "A minute and a half",
    "time_ru": "Полторы минуты",
    "time_ar": "دقيقة ونصف",
    "countdown": 90,
    "lat": 31.609538,
    "lng": 34.751944,
    "value": "אדוריים"
  },
  {
    "id": 1592,
    "name": "אדמית",
    "name_en": "Idmit",
    "name_ru": "Идмит",
    "name_ar": "أدميت",
    "zone": "קו העימות",
    "zone_en": "Confrontation Line",
    "zone_ru": "Кав Ха-Имут",
    "zone_ar": "خط المواجهة",
    "time": "מיידי",
    "time_en": "Immediately",
    "time_ru": "Немедленно",
    "time_ar": "في الحال",
    "countdown": 0,
    "lat": 33.078842,
    "lng": 35.20951,
    "value": "אדמית"
  },
  {
    "id": 339,
    "name": "אדרת",
    "name_en": "Aderet",
    "name_ru": "Адерет",
    "name_ar": "ادرت",
    "zone": "שפלת יהודה",
    "zone_en": "Shfelat Yehuda",
    "zone_ru": "Шфелат Йегуда",
    "zone_ar": "شيفلات يهودا",
    "time": "דקה וחצי",
    "time_en": "A minute and a half",
    "time_ru": "Полторы минуты",
    "time_ar": "دقيقة ونصف",
    "countdown": 90,
    "lat": 31.659715,
    "lng": 34.99444,
    "value": "אדרת"
  },
  {
    "id": 889,
    "name": "אודים",
    "name_en": "Udim",
    "name_ru": "Удим",
    "name_ar": "اوديم",
    "zone": "שרון",
    "zone_en": "Sharon",
    "zone_ru": "Шарон",
    "zone_ar": "شارون",
    "time": "דקה וחצי",
    "time_en": "A minute and a half",
    "time_ru": "Полторы минуты",
    "time_ar": "دقيقة ونصف",
    "countdown": 90,
    "lat": 32.266865,
    "lng": 34.846995,
    "value": "אודים"
  },
  {
    "id": 1639,
    "name": "אודם",
    "name_en": "Odem",
    "name_ru": "Одем",
    "name_ar": "اودم",
    "zone": "גולן צפון",
    "zone_en": "North Golan",
    "zone_ru": "Северный Голан",
    "zone_ar": "الجولان الشمالي",
    "time": "מיידי",
    "time_en": "Immediately",
    "time_ru": "Немедленно",
    "time_ar": "في الحال",
    "countdown": 0,
    "lat": 33.1933716,
    "lng": 35.7495651,
    "value": "אודם"
  },
  {
    "id": 1047,
    "name": "אום אל פחם",
    "name_en": "Umm Al-Fahm",
    "name_ru": "Ум аль Фахм",
    "name_ar": "ام الفحم",
    "zone": "ואדי ערה",
    "zone_en": "Wadi Ara",
    "zone_ru": "Вади Ара",
    "zone_ar": "وادي عارة",
    "time": "דקה וחצי",
    "time_en": "A minute and a half",
    "time_ru": "Полторы минуты",
    "time_ar": "دقيقة ونصف",
    "countdown": 90,
    "lat": 32.517127,
    "lng": 35.148529,
    "value": "אום אל פחם"
  },
  {
    "id": 1015,
    "name": "אום אל קוטוף",
    "name_en": "Umm Al-Qutuf",
    "name_ru": "Ум аль Кутуф",
    "name_ar": "ام القطف",
    "zone": "ואדי ערה",
    "zone_en": "Wadi Ara",
    "zone_ru": "Вади Ара",
    "zone_ar": "وادي عارة",
    "time": "דקה וחצי",
    "time_en": "A minute and a half",
    "time_ru": "Полторы минуты",
    "time_ar": "دقيقة ونصف",
    "countdown": 90,
    "lat": 32.468084,
    "lng": 35.059149,
    "value": "אום אל קוטוף"
  },
  {
    "id": 1187,
    "name": "אום אל-גנם",
    "name_en": "Umm Al-Ghanam",
    "name_ru": "Ум аль Ганам",
    "name_ar": "ام الغنم",
    "zone": "העמקים",
    "zone_en": "HaAmakim",
    "zone_ru": "Ха-Амаким",
    "zone_ar": "هعماكيم",
    "time": "דקה",
    "time_en": "A minute",
    "time_ru": "Минута",
    "time_ar": "دقيقة",
    "countdown": 60,
    "lat": 32.684167,
    "lng": 35.396944,
    "value": "אום אל-גנם"
  },
  {
    "id": 144,
    "name": "אום בטין",
    "name_en": "Umm Batin",
    "name_ru": "Ум Батин",
    "name_ar": "أم بطين",
    "zone": "מרכז הנגב",
    "zone_en": "Center Negev",
    "zone_ru": "Центральный Негев",
    "zone_ar": "مركز النقب",
    "time": "דקה וחצי",
    "time_en": "A minute and a half",
    "time_ru": "Полторы минуты",
    "time_ar": "دقيقة ونصف",
    "countdown": 90,
    "lat": 31.27674369999999,
    "lng": 34.8829215,
    "value": "אום בטין"
  },
  {
    "id": 155,
    "name": "אופקים",
    "name_en": "Ofakim",
    "name_ru": "Офаким",
    "name_ar": "أوفكيم",
    "zone": "מערב הנגב",
    "zone_en": "West Negev",
    "zone_ru": "Западный Негев",
    "zone_ar": "النقب الغربي",
    "time": "45 שניות",
    "time_en": "45 seconds",
    "time_ru": "45 секунд",
    "time_ar": "45 ثانية",
    "countdown": 45,
    "lat": 31.311337,
    "lng": 34.622824,
    "value": "אופקים"
  },
  {
    "id": 1538,
    "name": "אור הגנוז",
    "name_en": "Or HaGanuz",
    "name_ru": "Ор ха-Гануз",
    "name_ar": "أور هغنوز",
    "zone": "גליל עליון",
    "zone_en": "Upper Galilee",
    "zone_ru": "Верхняя Галилея",
    "zone_ar": "الجليل الأعلى",
    "time": "30 שניות",
    "time_en": "30 seconds",
    "time_ru": "30 секунд",
    "time_ar": "30 ثانية",
    "countdown": 30,
    "lat": 33.005183,
    "lng": 35.446736,
    "value": "אור הגנוז"
  },
  {
    "id": 266,
    "name": "אור הנר",
    "name_en": "Or HaNer",
    "name_ru": "Ор ха-Нер",
    "name_ar": "أور هنير",
    "zone": "עוטף עזה",
    "zone_en": "Gaza Envelope",
    "zone_ru": "Округ Газа",
    "zone_ar": "غلاف غزة",
    "time": "15 שניות",
    "time_en": "15 seconds",
    "time_ru": "15 секунд",
    "time_ar": "15 ثانية",
    "countdown": 15,
    "lat": 31.556197,
    "lng": 34.602305,
    "value": "אור הנר"
  },
  {
    "id": 716,
    "name": "אור יהודה",
    "name_en": "Or Yehuda",
    "name_ru": "Ор Иеуда",
    "name_ar": "أور يهودا",
    "zone": "דן",
    "zone_en": "Dan",
    "zone_ru": "Дан",
    "zone_ar": "دان",
    "time": "דקה וחצי",
    "time_en": "A minute and a half",
    "time_ru": "Полторы минуты",
    "time_ar": "دقيقة ونصف",
    "countdown": 90,
    "lat": 32.029748,
    "lng": 34.856173,
    "value": "אור יהודה"
  },
  {
    "id": 1044,
    "name": "אור עקיבא",
    "name_en": "Or Akiva",
    "name_ru": "Ор Акива",
    "name_ar": "أور عكيفا",
    "zone": "מנשה",
    "zone_en": "Menashe",
    "zone_ru": "Менаше",
    "zone_ar": "مناشيه",
    "time": "דקה וחצי",
    "time_en": "A minute and a half",
    "time_ru": "Полторы минуты",
    "time_ar": "دقيقة ونصف",
    "countdown": 90,
    "lat": 32.509965,
    "lng": 34.920394,
    "value": "אור עקיבא"
  },
  {
    "id": 429,
    "name": "אורה",
    "name_en": "Ora",
    "name_ru": "Ора",
    "name_ar": "أورة",
    "zone": "ירושלים",
    "zone_en": "Jerusalem",
    "zone_ru": "Иерусалим",
    "zone_ar": "أورشليمالقدس",
    "time": "דקה וחצי",
    "time_en": "A minute and a half",
    "time_ru": "Полторы минуты",
    "time_ar": "دقيقة ونصف",
    "countdown": 90,
    "lat": 31.752109,
    "lng": 35.150165,
    "value": "אורה"
  },
  {
    "id": 1769,
    "name": "אורון תעשייה ומסחר",
    "name_en": "Oron Industrial Zone",
    "name_ru": "Орон Промышленность и торговля",
    "name_ar": "أورون صناعة وتجارة",
    "zone": "דרום הנגב",
    "zone_en": "South Negev",
    "zone_ru": "Южный Негев",
    "zone_ar": "جنوب النقب",
    "time": "דקה וחצי",
    "time_en": "A minute and a half",
    "time_ru": "Полторы минуты",
    "time_ar": "دقيقة ونصف",
    "countdown": 90,
    "lat": 31.046051,
    "lng": 34.851612,
    "value": "אורון תעשייה ומסחר"
  },
  {
    "id": 407,
    "name": "אורות",
    "name_en": "Orot",
    "name_ru": "Орот",
    "name_ar": "أوروت",
    "zone": "לכיש",
    "zone_en": "Lachish",
    "zone_ru": "Лахиш",
    "zone_ar": "لخيش",
    "time": "45 שניות",
    "time_en": "45 seconds",
    "time_ru": "45 секунд",
    "time_ar": "45 ثانية",
    "countdown": 45,
    "lat": 31.741667,
    "lng": 34.734444,
    "value": "אורות"
  },
  {
    "id": 1606,
    "name": "אורטל",
    "name_en": "Ortal",
    "name_ru": "Орталь",
    "name_ar": "أورطال",
    "zone": "גולן צפון",
    "zone_en": "North Golan",
    "zone_ru": "Северный Голан",
    "zone_ar": "الجولان الشمالي",
    "time": "מיידי",
    "time_en": "Immediately",
    "time_ru": "Немедленно",
    "time_ar": "في الحال",
    "countdown": 0,
    "lat": 33.086236,
    "lng": 35.758661,
    "value": "אורטל"
  },
  {
    "id": 158,
    "name": "אורים",
    "name_en": "Urim",
    "name_ru": "Урим",
    "name_ar": "أوريم",
    "zone": "מערב הנגב",
    "zone_en": "West Negev",
    "zone_ru": "Западный Негев",
    "zone_ar": "النقب الغربي",
    "time": "30 שניות",
    "time_en": "30 seconds",
    "time_ru": "30 секунд",
    "time_ar": "30 ثانية",
    "countdown": 30,
    "lat": 31.304094,
    "lng": 34.524868,
    "value": "אורים"
  },
  {
    "id": 1216,
    "name": "אורנים",
    "name_en": "Oranim",
    "name_ru": "Ораним",
    "name_ar": "أورنيم",
    "zone": "העמקים",
    "zone_en": "HaAmakim",
    "zone_ru": "Ха-Амаким",
    "zone_ar": "هعماكيم",
    "time": "דקה",
    "time_en": "A minute",
    "time_ru": "Минута",
    "time_ar": "دقيقة",
    "countdown": 60,
    "lat": 32.711224,
    "lng": 35.109579,
    "value": "אורנים"
  },
  {
    "id": 804,
    "name": "אורנית",
    "name_en": "Oranit",
    "name_ru": "Оранит",
    "name_ar": "أورنيت",
    "zone": "שרון",
    "zone_en": "Sharon",
    "zone_ru": "Шарон",
    "zone_ar": "شارون",
    "time": "דקה וחצי",
    "time_en": "A minute and a half",
    "time_ru": "Полторы минуты",
    "time_ar": "دقيقة ونصف",
    "countdown": 90,
    "lat": 32.131924,
    "lng": 34.99081,
    "value": "אורנית"
  },
  {
    "id": 1319,
    "name": "אושה",
    "name_en": "Usha",
    "name_ru": "Уша",
    "name_ar": "أوشة",
    "zone": "המפרץ",
    "zone_en": "HaMifratz",
    "zone_ru": "Ха-Мифрац",
    "zone_ar": "همفراتس",
    "time": "דקה",
    "time_en": "A minute",
    "time_ru": "Минута",
    "time_ar": "دقيقة",
    "countdown": 60,
    "lat": 32.796458,
    "lng": 35.114584,
    "value": "אושה"
  },
  {
    "id": 709,
    "name": "אזור",
    "name_en": "Azor",
    "name_ru": "Азор",
    "name_ar": "آزور",
    "zone": "דן",
    "zone_en": "Dan",
    "zone_ru": "Дан",
    "zone_ar": "دان",
    "time": "דקה וחצי",
    "time_en": "A minute and a half",
    "time_ru": "Полторы минуты",
    "time_ar": "دقيقة ونصف",
    "countdown": 90,
    "lat": 32.029558,
    "lng": 34.799648,
    "value": "אזור"
  },
  {
    "id": 1562,
    "name": "אזור תעשייה אכזיב מילואות",
    "name_en": "Achziv Miluot Industrial Zone",
    "name_ru": "Промзона Ахзив Милуот",
    "name_ar": "المنطقة الصناعية أخزيف ميل",
    "zone": "קו העימות",
    "zone_en": "Confrontation Line",
    "zone_ru": "Кав Ха-Имут",
    "zone_ar": "خط المواجهة",
    "time": "מיידי",
    "time_en": "Immediately",
    "time_ru": "Немедленно",
    "time_ar": "في الحال",
    "countdown": 0,
    "lat": 33.068374,
    "lng": 35.110211,
    "value": "אזור תעשייה אכזיב מילואות"
  },
  {
    "id": 1141,
    "name": "אזור תעשייה אלון התבור",
    "name_en": "Industrial Area Alon Hatovor",
    "name_ru": "Промышленная зона Алон Ха-Тавор",
    "name_ar": "المنطقة الصناعية ألون هتافور",
    "zone": "העמקים",
    "zone_en": "HaAmakim",
    "zone_ru": "Ха-Амаким",
    "zone_ar": "هعماكيم",
    "time": "דקה",
    "time_en": "A minute",
    "time_ru": "Минута",
    "time_ar": "دقيقة",
    "countdown": 60,
    "lat": 32.476743,
    "lng": 34.9457209,
    "value": "אזור תעשייה אלון התבור"
  },
  {
    "id": 792,
    "name": "אזור תעשייה אפק ולב הארץ",
    "name_en": "Afek And Lev Ha\"aretz Industrial Zone",
    "name_ru": "Промзона Афек и Лев ха-Арец",
    "name_ar": "المنطقة الصناعية أفيك وليف",
    "zone": "ירקון",
    "zone_en": "Yarkon",
    "zone_ru": "Яркон",
    "zone_ar": "اليركون",
    "time": "דקה וחצי",
    "time_en": "A minute and a half",
    "time_ru": "Полторы минуты",
    "time_ar": "دقيقة ونصف",
    "countdown": 90,
    "lat": 32.1060921,
    "lng": 34.9687576,
    "value": "אזור תעשייה אפק ולב הארץ"
  },
  {
    "id": 384,
    "name": "אזור תעשייה באר טוביה",
    "name_en": "Industrial Area Be'er Tovia",
    "name_ru": "Промышленная зона Беэр Тувия",
    "name_ar": "المنطقة الصناعية بئر توفيا",
    "zone": "לכיש",
    "zone_en": "Lachish",
    "zone_ru": "Лахиш",
    "zone_ar": "لخيش",
    "time": "45 שניות",
    "time_en": "45 seconds",
    "time_ru": "45 секунд",
    "time_ar": "45 ثانية",
    "countdown": 45,
    "lat": 31.7234649,
    "lng": 34.7513313,
    "value": "אזור תעשייה באר טוביה"
  },
  {
    "id": 1343,
    "name": "אזור תעשייה בני יהודה",
    "name_en": "Bnei Yehuda Industrial Zone",
    "name_ru": "Промзона Бней Йехуда",
    "name_ar": "المنطقة الصناعية بني يهودا",
    "zone": "גולן דרום",
    "zone_en": "South Golan",
    "zone_ru": "Южный Голан",
    "zone_ar": "الجولان الجنوبي",
    "time": "מיידי",
    "time_en": "Immediately",
    "time_ru": "Немедленно",
    "time_ar": "في الحال",
    "countdown": 0,
    "lat": 32.802322,
    "lng": 35.715587,
    "value": "אזור תעשייה בני יהודה"
  },
  {
    "id": 1415,
    "name": "אזור תעשייה בר-לב",
    "name_en": "Bar Lev Industrial Zone",
    "name_ru": "Промзона Бар-Лев",
    "name_ar": "المنطقة الصناعية بار- ليف",
    "zone": "גליל עליון",
    "zone_en": "Upper Galilee",
    "zone_ru": "Верхняя Галилея",
    "zone_ar": "الجليل الأعلى",
    "time": "דקה",
    "time_en": "A minute",
    "time_ru": "Минута",
    "time_ar": "دقيقة",
    "countdown": 60,
    "lat": 32.906261,
    "lng": 35.194836,
    "value": "אזור תעשייה בר-לב"
  },
  {
    "id": 883,
    "name": "אזור תעשייה בראון",
    "name_en": "Bar On Industrial Zone",
    "name_ru": "Промзона Бар Он",
    "name_ar": "المنطقة الصناعية برأون",
    "zone": "שומרון",
    "zone_en": "Shomron",
    "zone_ru": "Самария",
    "zone_ar": "السامرة",
    "time": "דקה וחצי",
    "time_en": "A minute and a half",
    "time_ru": "Полторы минуты",
    "time_ar": "دقيقة ونصف",
    "countdown": 90,
    "lat": 32.248791,
    "lng": 35.168086,
    "value": "אזור תעשייה בראון"
  },
  {
    "id": 399,
    "name": "אזור תעשייה ברוש",
    "name_en": "Brosh Industrial Zone",
    "name_ru": "Промзона Брош",
    "name_ar": "المنطقة الصناعية بروش",
    "zone": "שפלת יהודה",
    "zone_en": "Shfelat Yehuda",
    "zone_ru": "Шфелат Йегуда",
    "zone_ar": "شيفلات يهودا",
    "time": "דקה וחצי",
    "time_en": "A minute and a half",
    "time_ru": "Полторы минуты",
    "time_ar": "دقيقة ونصف",
    "countdown": 90,
    "lat": 31.733143,
    "lng": 34.959383,
    "value": "אזור תעשייה ברוש"
  },
  {
    "id": 87,
    "name": "אזור תעשייה דימונה",
    "name_en": "Dimona Industrial Zone",
    "name_ru": "Промзона Димона",
    "name_ar": "المنطقة الصناعية ديمونا",
    "zone": "דרום הנגב",
    "zone_en": "South Negev",
    "zone_ru": "Южный Негев",
    "zone_ar": "جنوب النقب",
    "time": "דקה וחצי",
    "time_en": "A minute and a half",
    "time_ru": "Полторы минуты",
    "time_ar": "دقيقة ونصف",
    "countdown": 90,
    "lat": 31.064588,
    "lng": 35.018796,
    "value": "אזור תעשייה דימונה"
  },
  {
    "id": 305,
    "name": "אזור תעשייה הדרומי אשקלון",
    "name_en": "Ashkelon Southern Industrial Zone",
    "name_ru": "Южная промзона Ашкелона",
    "name_ar": "المنطقة الصناعية الجنوبية",
    "zone": "מערב לכיש",
    "zone_en": "West Lachish",
    "zone_ru": "Западный Лахиш",
    "zone_ar": "غرب لخيش",
    "time": "30 שניות",
    "time_en": "30 seconds",
    "time_ru": "30 секунд",
    "time_ar": "30 ثانية",
    "countdown": 30,
    "lat": 31.636089,
    "lng": 34.554535,
    "value": "אזור תעשייה הדרומי אשקלון"
  },
  {
    "id": 441,
    "name": "אזור תעשייה הר טוב - צרעה",
    "name_en": "Har Tuv - Tzora Industrial Zone",
    "name_ru": "Промзона Хар Тув - Цроа",
    "name_ar": "المنطقة الصناعية - تسارعا",
    "zone": "שפלת יהודה",
    "zone_en": "Shfelat Yehuda",
    "zone_ru": "Шфелат Йегуда",
    "zone_ar": "شيفلات يهودا",
    "time": "דקה וחצי",
    "time_en": "A minute and a half",
    "time_ru": "Полторы минуты",
    "time_ar": "دقيقة ونصف",
    "countdown": 90,
    "lat": 31.772753,
    "lng": 34.99809,
    "value": "אזור תעשייה הר טוב - צרעה"
  },
  {
    "id": 704,
    "name": "אזור תעשייה חבל מודיעין",
    "name_en": "Industrial Area Hevel Modi'in",
    "name_ru": "Промышленная зона Хевель Модиин",
    "name_ar": "منطقة الصناعية موديعين",
    "zone": "ירקון",
    "zone_en": "Yarkon",
    "zone_ru": "Яркон",
    "zone_ar": "اليركون",
    "time": "דקה וחצי",
    "time_en": "A minute and a half",
    "time_ru": "Полторы минуты",
    "time_ar": "دقيقة ونصف",
    "countdown": 90,
    "lat": 32.007819,
    "lng": 34.9606546,
    "value": "אזור תעשייה חבל מודיעין"
  },
  {
    "id": 1507,
    "name": "אזור תעשייה חצור הגלילית",
    "name_en": "Hatzor HaGlilit Industrial Zone",
    "name_ru": "Промзона Хацор ха-Глилит",
    "name_ar": "المنطقة الصناعية حتسور هجل",
    "zone": "גליל עליון",
    "zone_en": "Upper Galilee",
    "zone_ru": "Верхняя Галилея",
    "zone_ar": "الجليل الأعلى",
    "time": "30 שניות",
    "time_en": "30 seconds",
    "time_ru": "30 секунд",
    "time_ar": "30 ثانية",
    "countdown": 30,
    "lat": 32.984227,
    "lng": 35.552146,
    "value": "אזור תעשייה חצור הגלילית"
  },
  {
    "id": 1758,
    "name": "אזור תעשייה טירה",
    "name_en": "Tira Industrial Area",
    "name_ru": "Промзона Тира",
    "name_ar": "المنطقة الصناعية طيره.",
    "zone": "שרון",
    "zone_en": "Sharon",
    "zone_ru": "Шарон",
    "zone_ar": "شارون",
    "time": "דקה וחצי",
    "time_en": "A minute and a half",
    "time_ru": "Полторы минуты",
    "time_ar": "دقيقة ونصف",
    "countdown": 90,
    "lat": 32.235466,
    "lng": 34.950506,
    "value": "אזור תעשייה טירה"
  },
  {
    "id": 1150,
    "name": "אזור תעשייה יקנעם עילית",
    "name_en": "Yokneam Illit Industrial Zone",
    "name_ru": "Промзона Йокнеам Илит",
    "name_ar": "المنطقة الصناعية يوكنعام ع",
    "zone": "ואדי ערה",
    "zone_en": "Wadi Ara",
    "zone_ru": "Вади Ара",
    "zone_ar": "وادي عارة",
    "time": "דקה וחצי",
    "time_en": "A minute and a half",
    "time_ru": "Полторы минуты",
    "time_ar": "دقيقة ونصف",
    "countdown": 90,
    "lat": 32.661865,
    "lng": 35.105388,
    "value": "אזור תעשייה יקנעם עילית"
  },
  {
    "id": 483,
    "name": "אזור תעשייה כנות",
    "name_en": "Kannot Industrial Zone",
    "name_ru": "Промзона Каннот",
    "name_ar": "المنطقة الصناعية كنوت",
    "zone": "לכיש",
    "zone_en": "Lachish",
    "zone_ru": "Лахиш",
    "zone_ar": "لخيش",
    "time": "דקה",
    "time_en": "A minute",
    "time_ru": "Минута",
    "time_ar": "دقيقة",
    "countdown": 60,
    "lat": 31.801344,
    "lng": 34.759136,
    "value": "אזור תעשייה כנות"
  },
  {
    "id": 1435,
    "name": "אזור תעשייה כרמיאל",
    "name_en": "Carmiel Industrial Zone",
    "name_ru": "Промзона Кармиэль",
    "name_ar": "المنطقة الصناعية كرميئيل",
    "zone": "גליל עליון",
    "zone_en": "Upper Galilee",
    "zone_ru": "Верхняя Галилея",
    "zone_ar": "الجليل الأعلى",
    "time": "30 שניות",
    "time_en": "30 seconds",
    "time_ru": "30 секунд",
    "time_ar": "30 ثانية",
    "countdown": 30,
    "lat": 32.926254,
    "lng": 35.319066,
    "value": "אזור תעשייה כרמיאל"
  },
  {
    "id": 1125,
    "name": "אזור תעשייה מבוא כרמל",
    "name_en": "Mevo Carmel Industrial Zone",
    "name_ru": "Промзона Мево Кармель",
    "name_ar": "المنطقة الصناعية مافو الكر",
    "zone": "ואדי ערה",
    "zone_en": "Wadi Ara",
    "zone_ru": "Вади Ара",
    "zone_ar": "وادي عارة",
    "time": "דקה וחצי",
    "time_en": "A minute and a half",
    "time_ru": "Полторы минуты",
    "time_ar": "دقيقة ونصف",
    "countdown": 90,
    "lat": 32.620691,
    "lng": 35.077981,
    "value": "אזור תעשייה מבוא כרמל"
  },
  {
    "id": 1096,
    "name": "אזור תעשייה מבואות הגלבוע",
    "name_en": "Mevuot HaGilboa Industrial Zone",
    "name_ru": "Промзона Мевуот ха-Гильбоа",
    "name_ar": "المنطقة الصناعية مبؤوت هجل",
    "zone": "העמקים",
    "zone_en": "HaAmakim",
    "zone_ru": "Ха-Амаким",
    "zone_ar": "هعماكيم",
    "time": "דקה",
    "time_en": "A minute",
    "time_ru": "Минута",
    "time_ar": "دقيقة",
    "countdown": 60,
    "lat": 32.5671596,
    "lng": 35.2675939,
    "value": "אזור תעשייה מבואות הגלבוע"
  },
  {
    "id": 478,
    "name": "אזור תעשייה מישור אדומים",
    "name_en": "Industrial Area Mishor Edomim",
    "name_ru": "Промышленная зона Мишор Адумим",
    "name_ar": "المنطقة الصناعية ميشور ادوميم",
    "zone": "יהודה",
    "zone_en": "Yehuda",
    "zone_ru": "Йегуда",
    "zone_ar": "يهودا",
    "time": "דקה וחצי",
    "time_en": "A minute and a half",
    "time_ru": "Полторы минуты",
    "time_ar": "دقيقة ونصف",
    "countdown": 90,
    "lat": 31.79011599999999,
    "lng": 35.3315771,
    "value": "אזור תעשייה מישור אדומים"
  },
  {
    "id": 199,
    "name": "אזור תעשייה מיתרים",
    "name_en": "Meitarim Industrial Zone",
    "name_ru": "Промзона Мейтарим",
    "name_ar": "المنطقة الصناعية ميتاريم",
    "zone": "יהודה",
    "zone_en": "Yehuda",
    "zone_ru": "Йегуда",
    "zone_ar": "يهودا",
    "time": "דקה וחצי",
    "time_en": "A minute and a half",
    "time_ru": "Полторы минуты",
    "time_ar": "دقيقة ونصف",
    "countdown": 90,
    "lat": 31.372583,
    "lng": 35.005544,
    "value": "אזור תעשייה מיתרים"
  },
  {
    "id": 207,
    "name": "אזור תעשייה נ.ע.מ",
    "name_en": "NAM Industrial Zone",
    "name_ru": "Промышленная зона НАМ",
    "name_ar": "المنطقة الصناعية ن.ع.م",
    "zone": "מערב הנגב",
    "zone_en": "West Negev",
    "zone_ru": "Западный Негев",
    "zone_ar": "النقب الغربي",
    "time": "30 שניות",
    "time_en": "30 seconds",
    "time_ru": "30 секунд",
    "time_ar": "30 ثانية",
    "countdown": 30,
    "lat": 31.046051,
    "lng": 34.851612,
    "value": "אזור תעשייה נ.ע.מ"
  },
  {
    "id": 1730,
    "name": "אזור תעשייה ניר עציון",
    "name_en": "Nir Etzion Industrial Area",
    "name_ru": "Промзона Нир Эцион",
    "name_ar": "مجلس اقلمي نير عتسيون",
    "zone": "הכרמל",
    "zone_en": "HaCarmel",
    "zone_ru": "Ха-Кармель",
    "zone_ar": "الكرمل",
    "time": "דקה",
    "time_en": "A minute",
    "time_ru": "Минута",
    "time_ar": "دقيقة",
    "countdown": 60,
    "lat": 32.7018516,
    "lng": 34.9729945,
    "value": "אזור תעשייה ניר עציון"
  },
  {
    "id": 1799,
    "name": "אזור תעשייה נשר - רמלה",
    "name_en": "Nesher Industrial Zone (Ramla)",
    "name_ru": "Промзона Нешер (Рамла)",
    "name_ar": "المنطقة الصناعية نيشر (الرم",
    "zone": "השפלה",
    "zone_en": "HaShfela",
    "zone_ru": "Ха-Шфела",
    "zone_ar": "هشفيلاه",
    "time": "דקה וחצי",
    "time_en": "A minute and a half",
    "time_ru": "Полторы минуты",
    "time_ar": "دقيقة ونصف",
    "countdown": 90,
    "lat": 31.917901,
    "lng": 34.891979,
    "value": "אזור תעשייה נשר - רמלה"
  },
  {
    "id": 425,
    "name": "אזור תעשייה עד הלום",
    "name_en": "Ad Halom Industrial Zone",
    "name_ru": "Промзона Ад Халом",
    "name_ar": "المنطقة الصناعية عاد هلوم",
    "zone": "לכיש",
    "zone_en": "Lachish",
    "zone_ru": "Лахиш",
    "zone_ar": "لخيش",
    "time": "45 שניות",
    "time_en": "45 seconds",
    "time_ru": "45 секунд",
    "time_ar": "45 ثانية",
    "countdown": 45,
    "lat": 31.7580925,
    "lng": 34.6558844,
    "value": "אזור תעשייה עד הלום"
  },
  {
    "id": 196,
    "name": "אזור תעשייה עידן הנגב",
    "name_en": "Idan HaNegev Industrial Zone",
    "name_ru": "Промзона Идан ха-Негев",
    "name_ar": "المنطقة الصناعية عيدان الن",
    "zone": "מרכז הנגב",
    "zone_en": "Center Negev",
    "zone_ru": "Центральный Негев",
    "zone_ar": "مركز النقب",
    "time": "45 שניות",
    "time_en": "45 seconds",
    "time_ru": "45 секунд",
    "time_ar": "45 ثانية",
    "countdown": 45,
    "lat": 31.380784,
    "lng": 34.785966,
    "value": "אזור תעשייה עידן הנגב"
  },
  {
    "id": 972,
    "name": "אזור תעשייה עמק חפר",
    "name_en": "Emek Heffer Industrial Zone",
    "name_ru": "Промзона Эмек Хефер",
    "name_ar": "المنطقة الصناعية عيمك حيفر",
    "zone": "שרון",
    "zone_en": "Sharon",
    "zone_ru": "Шарон",
    "zone_ar": "شارون",
    "time": "דקה וחצי",
    "time_en": "A minute and a half",
    "time_ru": "Полторы минуты",
    "time_ar": "دقيقة ونصف",
    "countdown": 90,
    "lat": 32.4048824,
    "lng": 34.8967208,
    "value": "אזור תעשייה עמק חפר"
  },
  {
    "id": 1496,
    "name": "אזור תעשייה צ.ח.ר",
    "name_en": "Tzahar Industrial Zone",
    "name_ru": "Промзона Цахар",
    "name_ar": "المنطقة الصناعية تساحار",
    "zone": "גליל עליון",
    "zone_en": "Upper Galilee",
    "zone_ru": "Верхняя Галилея",
    "zone_ar": "الجليل الأعلى",
    "time": "30 שניות",
    "time_en": "30 seconds",
    "time_ru": "30 секунд",
    "time_ar": "30 ثانية",
    "countdown": 30,
    "lat": 32.9705521,
    "lng": 35.5646455,
    "value": "אזור תעשייה צ.ח.ר"
  },
  {
    "id": 1079,
    "name": "אזור תעשייה צבאים",
    "name_en": "Zvaim Industrial Zone",
    "name_ru": "Промзона Цваим",
    "name_ar": "المنطقة الصناعية تسفئيم",
    "zone": "בקעת בית שאן",
    "zone_en": "Beit She'an Valley",
    "zone_ru": "Бикъат Бейт Шеан",
    "zone_ar": "بيكعات بيت شان",
    "time": "דקה",
    "time_en": "A minute",
    "time_ru": "Минута",
    "time_ar": "دقيقة",
    "countdown": 60,
    "lat": 32.494533,
    "lng": 35.511283,
    "value": "אזור תעשייה צבאים"
  },
  {
    "id": 1278,
    "name": "אזור תעשייה ציפורית",
    "name_en": "Industrial Area Tziporit",
    "name_ru": "Промышленная зона Ципорит",
    "name_ar": "المنطقة الصناعية نصيبوريت",
    "zone": "העמקים",
    "zone_en": "HaAmakim",
    "zone_ru": "Ха-Амаким",
    "zone_ar": "هعماكيم",
    "time": "דקה",
    "time_en": "A minute",
    "time_ru": "Минута",
    "time_ar": "دقيقة",
    "countdown": 60,
    "lat": 32.760576,
    "lng": 35.317877,
    "value": "אזור תעשייה ציפורית"
  },
  {
    "id": 1212,
    "name": "אזור תעשייה צמח",
    "name_en": "Tzemach Industrial Zone",
    "name_ru": "Промзона Цемах",
    "name_ar": "المنطقة الصناعية تسيمح",
    "zone": "גליל תחתון",
    "zone_en": "Lower Galilee",
    "zone_ru": "Нижняя Галилея",
    "zone_ar": "الجليل الأسفل",
    "time": "30 שניות",
    "time_en": "30 seconds",
    "time_ru": "30 секунд",
    "time_ar": "30 ثانية",
    "countdown": 30,
    "lat": 32.70327,
    "lng": 35.586875,
    "value": "אזור תעשייה צמח"
  },
  {
    "id": 333,
    "name": "אזור תעשייה צפוני אשקלון",
    "name_en": "Ashkelon Northern Industrial Zone",
    "name_ru": "Северная промзона Ашкелона",
    "name_ar": "المنطقة الصناعية الشمالية",
    "zone": "מערב לכיש",
    "zone_en": "West Lachish",
    "zone_ru": "Западный Лахиш",
    "zone_ar": "غرب لخيش",
    "time": "30 שניות",
    "time_en": "30 seconds",
    "time_ru": "30 секунд",
    "time_ar": "30 ثانية",
    "countdown": 30,
    "lat": 31.664701,
    "lng": 34.59809,
    "value": "אזור תעשייה צפוני אשקלון"
  },
  {
    "id": 1313,
    "name": "אזור תעשייה קדמת גליל",
    "name_en": "Kidmat Galil Industrial Zone",
    "name_ru": "Промзона Кидмат Галиль",
    "name_ar": "المنطقة الصناعية كيدمات جل",
    "zone": "גליל תחתון",
    "zone_en": "Lower Galilee",
    "zone_ru": "Нижняя Галилея",
    "zone_ar": "الجليل الأسفل",
    "time": "דקה",
    "time_en": "A minute",
    "time_ru": "Минута",
    "time_ar": "دقيقة",
    "countdown": 60,
    "lat": 32.785384,
    "lng": 35.4630677,
    "value": "אזור תעשייה קדמת גליל"
  },
  {
    "id": 1020,
    "name": "אזור תעשייה קיסריה",
    "name_en": "Caesarea Industrial Zone",
    "name_ru": "Промзона Кейсария",
    "name_ar": "المنطقة الصناعية قيساريا",
    "zone": "מנשה",
    "zone_en": "Menashe",
    "zone_ru": "Менаше",
    "zone_ar": "مناشيه",
    "time": "דקה וחצי",
    "time_en": "A minute and a half",
    "time_ru": "Полторы минуты",
    "time_ar": "دقيقة ونصف",
    "countdown": 90,
    "lat": 32.486546,
    "lng": 34.94641,
    "value": "אזור תעשייה קיסריה"
  },
  {
    "id": 284,
    "name": "אזור תעשייה קריית גת",
    "name_en": "Industrial Area Kiryat Gat",
    "name_ru": "Промышленная зона Кирьят Гат",
    "name_ar": "المنطقة الصناعية كريات جات",
    "zone": "לכיש",
    "zone_en": "Lachish",
    "zone_ru": "Лахиш",
    "zone_ar": "لخيش",
    "time": "45 שניות",
    "time_en": "45 seconds",
    "time_ru": "45 секунд",
    "time_ar": "45 ثانية",
    "countdown": 45,
    "lat": 31.606178,
    "lng": 34.783263,
    "value": "אזור תעשייה קריית גת"
  },
  {
    "id": 1058,
    "name": "אזור תעשייה רגבים",
    "name_en": "Regavim Industrial Zone",
    "name_ru": "Промзона Регавим",
    "name_ar": "المنطقة الصناعية رجافيم",
    "zone": "מנשה",
    "zone_en": "Menashe",
    "zone_ru": "Менаше",
    "zone_ar": "مناشيه",
    "time": "דקה וחצי",
    "time_en": "A minute and a half",
    "time_ru": "Полторы минуты",
    "time_ar": "دقيقة ونصف",
    "countdown": 90,
    "lat": 32.525285,
    "lng": 35.034019,
    "value": "אזור תעשייה רגבים"
  },
  {
    "id": 89,
    "name": "אזור תעשייה רותם",
    "name_en": "Rotem Industrial Zone",
    "name_ru": "Промзона Ротем",
    "name_ar": "المنطقة الصناعية روتم",
    "zone": "דרום הנגב",
    "zone_en": "South Negev",
    "zone_ru": "Южный Негев",
    "zone_ar": "جنوب النقب",
    "time": "דקה וחצי",
    "time_en": "A minute and a half",
    "time_ru": "Полторы минуты",
    "time_ar": "دقيقة ونصف",
    "countdown": 90,
    "lat": 31.024872,
    "lng": 35.091937,
    "value": "אזור תעשייה רותם"
  },
  {
    "id": 1550,
    "name": "אזור תעשייה רמת דלתון",
    "name_en": "Ramat Dalton Industrial Zone",
    "name_ru": "Промзона Рамат Дальтон",
    "name_ar": "المنطقة الصناعية رمات دلتو",
    "zone": "קו העימות",
    "zone_en": "Confrontation Line",
    "zone_ru": "Кав Ха-Имут",
    "zone_ar": "خط المواجهة",
    "time": "מיידי",
    "time_en": "Immediately",
    "time_ru": "Немедленно",
    "time_ar": "في الحال",
    "countdown": 0,
    "lat": 33.027853,
    "lng": 35.47685,
    "value": "אזור תעשייה רמת דלתון"
  },
  {
    "id": 10,
    "name": "אזור תעשייה שחורת",
    "name_en": "Shchoret Industrial Zone",
    "name_ru": "Промзона Шхорет",
    "name_ar": "المنطقة الصناعية شحوروت",
    "zone": "אילת",
    "zone_en": "Eilat",
    "zone_ru": "Эйлат",
    "zone_ar": "ايلات",
    "time": "30 שניות",
    "time_en": "30 seconds",
    "time_ru": "30 секунд",
    "time_ar": "30 ثانية",
    "countdown": 30,
    "lat": 29.597881,
    "lng": 34.9718911,
    "value": "אזור תעשייה שחורת"
  },
  {
    "id": 584,
    "name": "אזור תעשייה שער בנימין",
    "name_en": "Sha'ar Binyamin Industrial Zone",
    "name_ru": "Промзона Шаар Биньямин",
    "name_ar": "المنطقة الصناعية شاعار بني",
    "zone": "שומרון",
    "zone_en": "Shomron",
    "zone_ru": "Самария",
    "zone_ar": "السامرة",
    "time": "דקה וחצי",
    "time_en": "A minute and a half",
    "time_ru": "Полторы минуты",
    "time_ar": "دقيقة ونصف",
    "countdown": 90,
    "lat": 31.865575,
    "lng": 35.261645,
    "value": "אזור תעשייה שער בנימין",
    "shelters": 1
  },
  {
    "id": 1389,
    "name": "אזור תעשייה שער נעמן",
    "name_en": "Sha'ar Na'aman Industrial Zone",
    "name_ru": "Промзона Шаар Нааман",
    "name_ar": "المنطقة الصناعية شاعر نعما",
    "zone": "גליל עליון",
    "zone_en": "Upper Galilee",
    "zone_ru": "Верхняя Галилея",
    "zone_ar": "الجليل الأعلى",
    "time": "דקה",
    "time_en": "A minute",
    "time_ru": "Минута",
    "time_ar": "دقيقة",
    "countdown": 60,
    "lat": 32.893398,
    "lng": 35.091562,
    "value": "אזור תעשייה שער נעמן"
  },
  {
    "id": 386,
    "name": "אזור תעשייה תימורים",
    "name_en": "Timorimg Industrial Zone",
    "name_ru": "Промзона Тиморим",
    "name_ar": "المنطقة الصناعية تيموريم",
    "zone": "לכיש",
    "zone_en": "Lachish",
    "zone_ru": "Лахиш",
    "zone_ar": "لخيش",
    "time": "45 שניות",
    "time_en": "45 seconds",
    "time_ru": "45 секунд",
    "time_ar": "45 ثانية",
    "countdown": 45,
    "lat": 31.719015,
    "lng": 34.7637071,
    "value": "אזור תעשייה תימורים"
  },
  {
    "id": 1386,
    "name": "אזור תעשייה תרדיון",
    "name_en": "Teradion Industrial Zone",
    "name_ru": "Промзона Терадион",
    "name_ar": "المنطقة الصناعية ترديون",
    "zone": "מרכז הגליל",
    "zone_en": "Center Galilee",
    "zone_ru": "Центральная Галилея",
    "zone_ar": "مركز الجليل",
    "time": "דקה",
    "time_en": "A minute",
    "time_ru": "Минута",
    "time_ar": "دقيقة",
    "countdown": 60,
    "lat": 32.867686,
    "lng": 35.273122,
    "value": "אזור תעשייה תרדיון"
  },
  {
    "id": 419,
    "name": "אחווה",
    "name_en": "Achva",
    "name_ru": "Ахва",
    "name_ar": "أحفا",
    "zone": "לכיש",
    "zone_en": "Lachish",
    "zone_ru": "Лахиш",
    "zone_ar": "لخيش",
    "time": "45 שניות",
    "time_en": "45 seconds",
    "time_ru": "45 секунд",
    "time_ar": "45 ثانية",
    "countdown": 45,
    "lat": 31.742893,
    "lng": 34.767848,
    "value": "אחווה"
  },
  {
    "id": 264,
    "name": "אחוזם",
    "name_en": "Ahuzam",
    "name_ru": "Ахузам",
    "name_ar": "أحوزام",
    "zone": "לכיש",
    "zone_en": "Lachish",
    "zone_ru": "Лахиш",
    "zone_ar": "لخيش",
    "time": "30 שניות",
    "time_en": "30 seconds",
    "time_ru": "30 секунд",
    "time_ar": "30 ثانية",
    "countdown": 30,
    "lat": 31.552682,
    "lng": 34.770151,
    "value": "אחוזם"
  },
  {
    "id": 1147,
    "name": "אחוזת ברק",
    "name_en": "Ahuzat Barak",
    "name_ru": "Ахузат Барак",
    "name_ar": "أحوزات براك",
    "zone": "העמקים",
    "zone_en": "HaAmakim",
    "zone_ru": "Ха-Амаким",
    "zone_ar": "هعماكيم",
    "time": "דקה",
    "time_en": "A minute",
    "time_ru": "Минута",
    "time_ar": "دقيقة",
    "countdown": 60,
    "lat": 32.643101,
    "lng": 35.338893,
    "value": "אחוזת ברק"
  },
  {
    "id": 765,
    "name": "אחיה",
    "name_en": "Achita",
    "name_ru": "Ахия",
    "name_ar": "أحيه",
    "zone": "שומרון",
    "zone_en": "Shomron",
    "zone_ru": "Самария",
    "zone_ar": "السامرة",
    "time": "דקה וחצי",
    "time_en": "A minute and a half",
    "time_ru": "Полторы минуты",
    "time_ar": "دقيقة ونصف",
    "countdown": 90,
    "lat": 32.076593,
    "lng": 34.8321587,
    "value": "אחיה"
  },
  {
    "id": 1414,
    "name": "אחיהוד",
    "name_en": "Achihud",
    "name_ru": "Ахихуд",
    "name_ar": "أحيهود",
    "zone": "גליל עליון",
    "zone_en": "Upper Galilee",
    "zone_ru": "Верхняя Галилея",
    "zone_ar": "الجليل الأعلى",
    "time": "דקה",
    "time_en": "A minute",
    "time_ru": "Минута",
    "time_ar": "دقيقة",
    "countdown": 60,
    "lat": 32.907405,
    "lng": 35.171715,
    "value": "אחיהוד"
  },
  {
    "id": 970,
    "name": "אחיטוב",
    "name_en": "Ahituv",
    "name_ru": "Ахитув",
    "name_ar": "أحيطوف",
    "zone": "שרון",
    "zone_en": "Sharon",
    "zone_ru": "Шарон",
    "zone_ar": "شارون",
    "time": "דקה וחצי",
    "time_en": "A minute and a half",
    "time_ru": "Полторы минуты",
    "time_ar": "دقيقة ونصف",
    "countdown": 90,
    "lat": 32.387701,
    "lng": 34.990826,
    "value": "אחיטוב"
  },
  {
    "id": 1811,
    "name": "אחיסמך",
    "name_en": "Ahisemech",
    "name_ru": "Ахисемех",
    "name_ar": "أحيسيمخ",
    "zone": "השפלה",
    "zone_en": "HaShfela",
    "zone_ru": "Ха-Шфела",
    "zone_ar": "هشفيلاه",
    "time": "דקה וחצי",
    "time_en": "A minute and a half",
    "time_ru": "Полторы минуты",
    "time_ar": "دقيقة ونصف",
    "countdown": 90,
    "lat": 31.931906,
    "lng": 34.908576,
    "value": "אחיסמך"
  },
  {
    "id": 1849,
    "name": "אחיעזר",
    "name_en": "Achiezer",
    "name_ru": "Ахиэзер",
    "name_ar": "أحيعزر",
    "zone": "השפלה",
    "zone_en": "HaShfela",
    "zone_ru": "Ха-Шфела",
    "zone_ar": "هشفيلاه",
    "time": "דקה וחצי",
    "time_en": "A minute and a half",
    "time_ru": "Полторы минуты",
    "time_ar": "دقيقة ونصف",
    "countdown": 90,
    "lat": 31.981671,
    "lng": 34.871821,
    "value": "אחיעזר"
  },
  {
    "id": 1272,
    "name": "איבטין",
    "name_en": "Ibtin",
    "name_ru": "Ибтин",
    "name_ar": "ابطن",
    "zone": "המפרץ",
    "zone_en": "HaMifratz",
    "zone_ru": "Ха-Мифрац",
    "zone_ar": "همفراتس",
    "time": "דקה",
    "time_en": "A minute",
    "time_ru": "Минута",
    "time_ar": "دقيقة",
    "countdown": 60,
    "lat": 32.759963,
    "lng": 35.114601,
    "value": "איבטין"
  },
  {
    "id": 864,
    "name": "אייל",
    "name_en": "Eyal",
    "name_ru": "Эяль",
    "name_ar": "أيال",
    "zone": "שרון",
    "zone_en": "Sharon",
    "zone_ru": "Шарон",
    "zone_ar": "شارون",
    "time": "דקה וחצי",
    "time_en": "A minute and a half",
    "time_ru": "Полторы минуты",
    "time_ar": "دقيقة ونصف",
    "countdown": 90,
    "lat": 32.210711,
    "lng": 34.978259,
    "value": "אייל"
  },
  {
    "id": 1552,
    "name": "איילת השחר",
    "name_en": "Ayelet HaShachar",
    "name_ru": "Айелет ха-Шахар",
    "name_ar": "أييلت هشاحر",
    "zone": "גליל עליון",
    "zone_en": "Upper Galilee",
    "zone_ru": "Верхняя Галилея",
    "zone_ar": "الجليل الأعلى",
    "time": "30 שניות",
    "time_en": "30 seconds",
    "time_ru": "30 секунд",
    "time_ar": "30 ثانية",
    "countdown": 30,
    "lat": 33.021115,
    "lng": 35.576732,
    "value": "איילת השחר"
  },
  {
    "id": 1571,
    "name": "אילון",
    "name_en": "Eilon",
    "name_ru": "Эйлон",
    "name_ar": "ايلون",
    "zone": "קו העימות",
    "zone_en": "Confrontation Line",
    "zone_ru": "Кав Ха-Имут",
    "zone_ar": "خط المواجهة",
    "time": "מיידי",
    "time_en": "Immediately",
    "time_ru": "Немедленно",
    "time_ar": "في الحال",
    "countdown": 0,
    "lat": 33.062526,
    "lng": 35.219162,
    "value": "אילון"
  },
  {
    "id": 9,
    "name": "אילות",
    "name_en": "Eilot",
    "name_ru": "Эйлот",
    "name_ar": "ايالوت",
    "zone": "אילת",
    "zone_en": "Eilat",
    "zone_ru": "Эйлат",
    "zone_ar": "ايلات",
    "time": "30 שניות",
    "time_en": "30 seconds",
    "time_ru": "30 секунд",
    "time_ar": "30 ثانية",
    "countdown": 30,
    "lat": 29.580548,
    "lng": 34.963023,
    "value": "אילות"
  },
  {
    "id": 1265,
    "name": "אילניה",
    "name_en": "Ilania",
    "name_ru": "Илания",
    "name_ar": "ايلانيا",
    "zone": "העמקים",
    "zone_en": "HaAmakim",
    "zone_ru": "Ха-Амаким",
    "zone_ar": "هعماكيم",
    "time": "דקה",
    "time_en": "A minute",
    "time_ru": "Минута",
    "time_ar": "دقيقة",
    "countdown": 60,
    "lat": 32.753908,
    "lng": 35.408188,
    "value": "אילניה"
  },
  {
    "id": 4,
    "name": "אילת",
    "name_en": "Eilat",
    "name_ru": "Эйлат",
    "name_ar": "أييلت",
    "zone": "אילת",
    "zone_en": "Eilat",
    "zone_ru": "Эйлат",
    "zone_ar": "ايلات",
    "time": "30 שניות",
    "time_en": "30 seconds",
    "time_ru": "30 секунд",
    "time_ar": "30 ثانية",
    "countdown": 30,
    "lat": 29.557669,
    "lng": 34.951925,
    "value": "אילת"
  },
  {
    "id": 1807,
    "name": "אירוס",
    "name_en": "Irus",
    "name_ru": "Ирус",
    "name_ar": "ايروس",
    "zone": "השפלה",
    "zone_en": "HaShfela",
    "zone_ru": "Ха-Шфела",
    "zone_ar": "هشفيلاه",
    "time": "דקה וחצי",
    "time_en": "A minute and a half",
    "time_ru": "Полторы минуты",
    "time_ar": "دقيقة ونصف",
    "countdown": 90,
    "lat": 31.928595,
    "lng": 34.776605,
    "value": "אירוס"
  },
  {
    "id": 852,
    "name": "איתמר",
    "name_en": "Itamar",
    "name_ru": "Итамар",
    "name_ar": "إيتمار",
    "zone": "שומרון",
    "zone_en": "Shomron",
    "zone_ru": "Самария",
    "zone_ar": "السامرة",
    "time": "דקה וחצי",
    "time_en": "A minute and a half",
    "time_ru": "Полторы минуты",
    "time_ar": "دقيقة ونصف",
    "countdown": 90,
    "lat": 32.173869,
    "lng": 35.308029,
    "value": "איתמר"
  },
  {
    "id": 273,
    "name": "איתן",
    "name_en": "Eitan",
    "name_ru": "Эйтан",
    "name_ar": "ايتان",
    "zone": "לכיש",
    "zone_en": "Lachish",
    "zone_ru": "Лахиш",
    "zone_ar": "لخيش",
    "time": "30 שניות",
    "time_en": "30 seconds",
    "time_ru": "30 секунд",
    "time_ar": "30 ثانية",
    "countdown": 30,
    "lat": 31.572213,
    "lng": 34.747909,
    "value": "איתן"
  },
  {
    "id": 1178,
    "name": "אכסאל",
    "name_en": "Iksal",
    "name_ru": "Иксаль",
    "name_ar": "اكسال",
    "zone": "העמקים",
    "zone_en": "HaAmakim",
    "zone_ru": "Ха-Амаким",
    "zone_ar": "هعماكيم",
    "time": "דקה",
    "time_en": "A minute",
    "time_ru": "Минута",
    "time_ar": "دقيقة",
    "countdown": 60,
    "lat": 32.682085,
    "lng": 35.320743,
    "value": "אכסאל"
  },
  {
    "id": 1921,
    "name": "אל סייד",
    "name_en": "El-Sid",
    "name_ru": "Аль-Сайид",
    "name_ar": "السيد",
    "zone": "מרכז הנגב",
    "zone_en": "Center Negev",
    "zone_ru": "Центральный Негев",
    "zone_ar": "مركز النقب",
    "time": "דקה וחצי",
    "time_en": "A minute and a half",
    "time_ru": "Полторы минуты",
    "time_ar": "دقيقة ونصف",
    "countdown": 90,
    "lat": 31.281719,
    "lng": 34.916298,
    "value": "אל סייד"
  },
  {
    "id": 387,
    "name": "אל עזי",
    "name_en": "Al Azi",
    "name_ru": "Аль Ази",
    "name_ar": "ال عازي",
    "zone": "לכיש",
    "zone_en": "Lachish",
    "zone_ru": "Лахиш",
    "zone_ar": "لخيش",
    "time": "45 שניות",
    "time_en": "45 seconds",
    "time_ru": "45 секунд",
    "time_ar": "45 ثانية",
    "countdown": 45,
    "lat": 31.718868,
    "lng": 34.814254,
    "value": "אל עזי"
  },
  {
    "id": 1929,
    "name": "אל עמארני, אל מסק",
    "name_en": "El-Amrana, El-Mask",
    "name_ru": "Эль-Амарна, Эль-Маск",
    "name_ar": "العمارني ، المسك",
    "zone": "ערבה",
    "zone_en": "Arava",
    "zone_ru": "Арава",
    "zone_ar": "العرباه",
    "time": "דקה וחצי",
    "time_en": "A minute and a half",
    "time_ru": "Полторы минуты",
    "time_ar": "دقيقة ونصف",
    "countdown": 90,
    "lat": 31.046051,
    "lng": 34.851612,
    "value": "אל עמארני, אל מסק"
  },
  {
    "id": 1046,
    "name": "אל עריאן",
    "name_en": "Al Arian",
    "name_ru": "Аль Ариан",
    "name_ar": "العريان",
    "zone": "ואדי ערה",
    "zone_en": "Wadi Ara",
    "zone_ru": "Вади Ара",
    "zone_ar": "وادي عارة",
    "time": "דקה וחצי",
    "time_en": "A minute and a half",
    "time_ru": "Полторы минуты",
    "time_ar": "دقيقة ونصف",
    "countdown": 90,
    "lat": 32.498076,
    "lng": 35.125094,
    "value": "אל עריאן"
  },
  {
    "id": 115,
    "name": "אל פורעה",
    "name_en": "El Pura",
    "name_ru": "Аль Фура",
    "name_ar": "الفورعا",
    "zone": "דרום הנגב",
    "zone_en": "South Negev",
    "zone_ru": "Южный Негев",
    "zone_ar": "جنوب النقب",
    "time": "דקה וחצי",
    "time_en": "A minute and a half",
    "time_ru": "Полторы минуты",
    "time_ar": "دقيقة ونصف",
    "countdown": 90,
    "lat": 31.2479345,
    "lng": 35.1566903,
    "value": "אל פורעה"
  },
  {
    "id": 1635,
    "name": "אל רום",
    "name_en": "El Rom",
    "name_ru": "Эль Ром",
    "name_ar": "الروم",
    "zone": "גולן צפון",
    "zone_en": "North Golan",
    "zone_ru": "Северный Голан",
    "zone_ar": "الجولان الشمالي",
    "time": "מיידי",
    "time_en": "Immediately",
    "time_ru": "Немедленно",
    "time_ar": "في الحال",
    "countdown": 0,
    "lat": 33.180519,
    "lng": 35.770095,
    "value": "אל רום"
  },
  {
    "id": 1282,
    "name": "אל-ח'וואלד מערב",
    "name_en": "Al Khawaled - West",
    "name_ru": "Аль Хавалед - запад",
    "name_ar": "الخوالد غرب",
    "zone": "העמקים",
    "zone_en": "HaAmakim",
    "zone_ru": "Ха-Амаким",
    "zone_ar": "هعماكيم",
    "time": "דקה",
    "time_en": "A minute",
    "time_ru": "Минута",
    "time_ar": "دقيقة",
    "countdown": 60,
    "lat": 32.758894,
    "lng": 35.158374,
    "value": "אל-ח'וואלד מערב"
  },
  {
    "id": 323,
    "name": "אלומה",
    "name_en": "Aluma",
    "name_ru": "Алума",
    "name_ar": "ألوما",
    "zone": "לכיש",
    "zone_en": "Lachish",
    "zone_ru": "Лахиш",
    "zone_ar": "لخيش",
    "time": "45 שניות",
    "time_en": "45 seconds",
    "time_ru": "45 секунд",
    "time_ar": "45 ثانية",
    "countdown": 45,
    "lat": 31.652041,
    "lng": 34.742872,
    "value": "אלומה"
  },
  {
    "id": 1222,
    "name": "אלומות",
    "name_en": "Alumot",
    "name_ru": "Алумот",
    "name_ar": "ألوموت",
    "zone": "גליל תחתון",
    "zone_en": "Lower Galilee",
    "zone_ru": "Нижняя Галилея",
    "zone_ar": "الجليل الأسفل",
    "time": "דקה",
    "time_en": "A minute",
    "time_ru": "Минута",
    "time_ar": "دقيقة",
    "countdown": 60,
    "lat": 32.706628,
    "lng": 35.546088,
    "value": "אלומות"
  },
  {
    "id": 556,
    "name": "אלון",
    "name_en": "Alon",
    "name_ru": "Алон",
    "name_ar": "ألون",
    "zone": "יהודה",
    "zone_en": "Yehuda",
    "zone_ru": "Йегуда",
    "zone_ar": "يهودا",
    "time": "דקה וחצי",
    "time_en": "A minute and a half",
    "time_ru": "Полторы минуты",
    "time_ar": "دقيقة ونصف",
    "countdown": 90,
    "lat": 31.833354,
    "lng": 35.353557,
    "value": "אלון"
  },
  {
    "id": 1276,
    "name": "אלון הגליל",
    "name_en": "Alon HaGalil",
    "name_ru": "Алон а-Галиль",
    "name_ar": "ألون هجليل",
    "zone": "העמקים",
    "zone_en": "HaAmakim",
    "zone_ru": "Ха-Амаким",
    "zone_ar": "هعماكيم",
    "time": "דקה",
    "time_en": "A minute",
    "time_ru": "Минута",
    "time_ar": "دقيقة",
    "countdown": 60,
    "lat": 32.756874,
    "lng": 35.220294,
    "value": "אלון הגליל"
  },
  {
    "id": 877,
    "name": "אלון מורה",
    "name_en": "Elon Moreh",
    "name_ru": "Алон ха-Море",
    "name_ar": "ألون موريه",
    "zone": "שומרון",
    "zone_en": "Shomron",
    "zone_ru": "Самария",
    "zone_ar": "السامرة",
    "time": "דקה וחצי",
    "time_en": "A minute and a half",
    "time_ru": "Полторы минуты",
    "time_ar": "دقيقة ونصف",
    "countdown": 90,
    "lat": 32.234418,
    "lng": 35.331201,
    "value": "אלון מורה"
  },
  {
    "id": 341,
    "name": "אלון שבות",
    "name_en": "Alon Shvut",
    "name_ru": "Алон Швут",
    "name_ar": "ألون شابوت",
    "zone": "יהודה",
    "zone_en": "Yehuda",
    "zone_ru": "Йегуда",
    "zone_ar": "يهودا",
    "time": "דקה וחצי",
    "time_en": "A minute and a half",
    "time_ru": "Полторы минуты",
    "time_ar": "دقيقة ونصف",
    "countdown": 90,
    "lat": 31.654871,
    "lng": 35.125256,
    "value": "אלון שבות"
  },
  {
    "id": 1231,
    "name": "אלוני אבא",
    "name_en": "Alonei Abba",
    "name_ru": "Алоней Аба",
    "name_ar": "ألوني أبا",
    "zone": "העמקים",
    "zone_en": "HaAmakim",
    "zone_ru": "Ха-Амаким",
    "zone_ar": "هعماكيم",
    "time": "דקה",
    "time_en": "A minute",
    "time_ru": "Минута",
    "time_ar": "دقيقة",
    "countdown": 60,
    "lat": 32.730945,
    "lng": 35.172028,
    "value": "אלוני אבא"
  },
  {
    "id": 1569,
    "name": "אלוני הבשן",
    "name_en": "Alonei HaBashan",
    "name_ru": "Алоней а-Башан",
    "name_ar": "ألوني هبشان",
    "zone": "גולן דרום",
    "zone_en": "South Golan",
    "zone_ru": "Южный Голан",
    "zone_ar": "الجولان الجنوبي",
    "time": "מיידי",
    "time_en": "Immediately",
    "time_ru": "Немедленно",
    "time_ar": "في الحال",
    "countdown": 0,
    "lat": 33.044087,
    "lng": 35.838507,
    "value": "אלוני הבשן"
  },
  {
    "id": 1054,
    "name": "אלוני יצחק",
    "name_en": "Alonei Itzhak",
    "name_ru": "Алоней Ицхак",
    "name_ar": "ألوني يتسحاق",
    "zone": "מנשה",
    "zone_en": "Menashe",
    "zone_ru": "Менаше",
    "zone_ar": "مناشيه",
    "time": "דקה וחצי",
    "time_en": "A minute and a half",
    "time_ru": "Полторы минуты",
    "time_ar": "دقيقة ونصف",
    "countdown": 90,
    "lat": 32.509997,
    "lng": 35.0052,
    "value": "אלוני יצחק"
  },
  {
    "id": 1217,
    "name": "אלונים",
    "name_en": "Alonim",
    "name_ru": "Алоним",
    "name_ar": "ألونيم",
    "zone": "העמקים",
    "zone_en": "HaAmakim",
    "zone_ru": "Ха-Амаким",
    "zone_ar": "هعماكيم",
    "time": "דקה",
    "time_en": "A minute",
    "time_ru": "Минута",
    "time_ar": "دقيقة",
    "countdown": 60,
    "lat": 32.721459,
    "lng": 35.143399,
    "value": "אלונים"
  },
  {
    "id": 1344,
    "name": "אלי עד",
    "name_en": "Eliad",
    "name_ru": "Эли Ад",
    "name_ar": "إلي عاد",
    "zone": "גולן דרום",
    "zone_en": "South Golan",
    "zone_ru": "Южный Голан",
    "zone_ar": "الجولان الجنوبي",
    "time": "מיידי",
    "time_en": "Immediately",
    "time_ru": "Немедленно",
    "time_ar": "في الحال",
    "countdown": 0,
    "lat": 32.806583,
    "lng": 35.736575,
    "value": "אלי עד"
  },
  {
    "id": 257,
    "name": "אליאב",
    "name_en": "Eliav",
    "name_ru": "Элиав",
    "name_ar": "أليآف",
    "zone": "יהודה",
    "zone_en": "Yehuda",
    "zone_ru": "Йегуда",
    "zone_ar": "يهودا",
    "time": "דקה",
    "time_en": "A minute",
    "time_ru": "Минута",
    "time_ar": "دقيقة",
    "countdown": 60,
    "lat": 31.530203,
    "lng": 34.928414,
    "value": "אליאב"
  },
  {
    "id": 980,
    "name": "אליכין",
    "name_en": "Elyachin",
    "name_ru": "Эльяхин",
    "name_ar": "اليخين",
    "zone": "שרון",
    "zone_en": "Sharon",
    "zone_ru": "Шарон",
    "zone_ar": "شارون",
    "time": "דקה וחצי",
    "time_en": "A minute and a half",
    "time_ru": "Полторы минуты",
    "time_ar": "دقيقة ونصف",
    "countdown": 90,
    "lat": 32.407659,
    "lng": 34.925028,
    "value": "אליכין"
  },
  {
    "id": 15,
    "name": "אליפז ומכרות תמנע",
    "name_en": "Elipaz And Timna Mines",
    "name_ru": "Элифаз и Копи Тимны",
    "name_ar": "إيليفازوتمنع",
    "zone": "ערבה",
    "zone_en": "Arava",
    "zone_ru": "Арава",
    "zone_ar": "العرباه",
    "time": "3 דקות",
    "time_en": "3 minutes",
    "time_ru": "3 минуты",
    "time_ar": "3 دقائق",
    "countdown": 180,
    "lat": 29.7882452,
    "lng": 35.0031576,
    "value": "אליפז ומכרות תמנע"
  },
  {
    "id": 1466,
    "name": "אליפלט",
    "name_en": "Elifelet",
    "name_ru": "Элифелет",
    "name_ar": "إليفلت",
    "zone": "גליל עליון",
    "zone_en": "Upper Galilee",
    "zone_ru": "Верхняя Галилея",
    "zone_ar": "الجليل الأعلى",
    "time": "30 שניות",
    "time_en": "30 seconds",
    "time_ru": "30 секунд",
    "time_ar": "30 ثانية",
    "countdown": 30,
    "lat": 32.947834,
    "lng": 35.548516,
    "value": "אליפלט"
  },
  {
    "id": 1131,
    "name": "אליקים",
    "name_en": "Elyakim",
    "name_ru": "Эльяким",
    "name_ar": "الياكيم",
    "zone": "ואדי ערה",
    "zone_en": "Wadi Ara",
    "zone_ru": "Вади Ара",
    "zone_ar": "وادي عارة",
    "time": "דקה וחצי",
    "time_en": "A minute and a half",
    "time_ru": "Полторы минуты",
    "time_ar": "دقيقة ونصف",
    "countdown": 90,
    "lat": 32.633345,
    "lng": 35.067613,
    "value": "אליקים"
  },
  {
    "id": 961,
    "name": "אלישיב",
    "name_en": "Elyashiv",
    "name_ru": "Эльяшив",
    "name_ar": "أليشيف",
    "zone": "שרון",
    "zone_en": "Sharon",
    "zone_ru": "Шарон",
    "zone_ar": "شارون",
    "time": "דקה וחצי",
    "time_en": "A minute and a half",
    "time_ru": "Полторы минуты",
    "time_ar": "دقيقة ونصف",
    "countdown": 90,
    "lat": 32.380196,
    "lng": 34.909945,
    "value": "אלישיב"
  },
  {
    "id": 827,
    "name": "אלישמע",
    "name_en": "Elishema",
    "name_ru": "Элишема",
    "name_ar": "أليشمع",
    "zone": "שרון",
    "zone_en": "Sharon",
    "zone_ru": "Шарон",
    "zone_ar": "شارون",
    "time": "דקה וחצי",
    "time_en": "A minute and a half",
    "time_ru": "Полторы минуты",
    "time_ar": "دقيقة ونصف",
    "countdown": 90,
    "lat": 32.154778,
    "lng": 34.930461,
    "value": "אלישמע"
  },
  {
    "id": 1432,
    "name": "אלמגור",
    "name_en": "Almagor",
    "name_ru": "Альмагор",
    "name_ar": "الماغور",
    "zone": "גולן דרום",
    "zone_en": "South Golan",
    "zone_ru": "Южный Голан",
    "zone_ar": "الجولان الجنوبي",
    "time": "30 שניות",
    "time_en": "30 seconds",
    "time_ru": "30 секунд",
    "time_ar": "30 ثانية",
    "countdown": 30,
    "lat": 32.912709,
    "lng": 35.60231,
    "value": "אלמגור"
  },
  {
    "id": 499,
    "name": "אלמוג",
    "name_en": "Almog",
    "name_ru": "Альмог",
    "name_ar": "ألموغ",
    "zone": "ים המלח",
    "zone_en": "Dead Sea",
    "zone_ru": "Мёртвое море",
    "zone_ar": "البحر الميت",
    "time": "דקה וחצי",
    "time_en": "A minute and a half",
    "time_ru": "Полторы минуты",
    "time_ar": "دقيقة ونصف",
    "countdown": 90,
    "lat": 31.790034,
    "lng": 35.461968,
    "value": "אלמוג"
  },
  {
    "id": 735,
    "name": "אלעד",
    "name_en": "Elad",
    "name_ru": "Эльад",
    "name_ar": "ايلعاد",
    "zone": "ירקון",
    "zone_en": "Yarkon",
    "zone_ru": "Яркон",
    "zone_ar": "اليركون",
    "time": "דקה וחצי",
    "time_en": "A minute and a half",
    "time_ru": "Полторы минуты",
    "time_ar": "دقيقة ونصف",
    "countdown": 90,
    "lat": 32.04953,
    "lng": 34.95075,
    "value": "אלעד"
  },
  {
    "id": 351,
    "name": "אלעזר",
    "name_en": "Elazar",
    "name_ru": "Эльазар",
    "name_ar": "العيزر",
    "zone": "יהודה",
    "zone_en": "Yehuda",
    "zone_ru": "Йегуда",
    "zone_ar": "يهودا",
    "time": "דקה וחצי",
    "time_en": "A minute and a half",
    "time_ru": "Полторы минуты",
    "time_ar": "دقيقة ونصف",
    "countdown": 90,
    "lat": 31.659676,
    "lng": 35.143074,
    "value": "אלעזר"
  },
  {
    "id": 844,
    "name": "אלפי מנשה",
    "name_en": "Alfei Menashe",
    "name_ru": "Алфей Менаше",
    "name_ar": "ألفي مناشيه",
    "zone": "שרון",
    "zone_en": "Sharon",
    "zone_ru": "Шарон",
    "zone_ar": "شارون",
    "time": "דקה וחצי",
    "time_en": "A minute and a half",
    "time_ru": "Полторы минуты",
    "time_ar": "دقيقة ونصف",
    "countdown": 90,
    "lat": 32.170631,
    "lng": 35.014858,
    "value": "אלפי מנשה"
  },
  {
    "id": 1547,
    "name": "אלקוש",
    "name_en": "Alkosh",
    "name_ru": "Алькош",
    "name_ar": "الكوش",
    "zone": "קו העימות",
    "zone_en": "Confrontation Line",
    "zone_ru": "Кав Ха-Имут",
    "zone_ar": "خط المواجهة",
    "time": "מיידי",
    "time_en": "Immediately",
    "time_ru": "Немедленно",
    "time_ar": "في الحال",
    "countdown": 0,
    "lat": 33.034294,
    "lng": 35.326348,
    "value": "אלקוש"
  },
  {
    "id": 794,
    "name": "אלקנה",
    "name_en": "Elkana",
    "name_ru": "Элькана",
    "name_ar": "الكنا",
    "zone": "שרון",
    "zone_en": "Sharon",
    "zone_ru": "Шарон",
    "zone_ar": "شارون",
    "time": "דקה וחצי",
    "time_en": "A minute and a half",
    "time_ru": "Полторы минуты",
    "time_ar": "دقيقة ونصف",
    "countdown": 90,
    "lat": 32.110566,
    "lng": 35.032054,
    "value": "אלקנה"
  },
  {
    "id": 406,
    "name": "אמונים",
    "name_en": "Emunim",
    "name_ru": "Эмуним",
    "name_ar": "أمونيم",
    "zone": "לכיש",
    "zone_en": "Lachish",
    "zone_ru": "Лахиш",
    "zone_ar": "لخيش",
    "time": "45 שניות",
    "time_en": "45 seconds",
    "time_ru": "45 секунд",
    "time_ar": "45 ثانية",
    "countdown": 45,
    "lat": 31.743885,
    "lng": 34.674492,
    "value": "אמונים"
  },
  {
    "id": 1454,
    "name": "אמירים",
    "name_en": "Amirim",
    "name_ru": "Амирим",
    "name_ar": "أميريم",
    "zone": "גליל עליון",
    "zone_en": "Upper Galilee",
    "zone_ru": "Верхняя Галилея",
    "zone_ar": "الجليل الأعلى",
    "time": "30 שניות",
    "time_en": "30 seconds",
    "time_ru": "30 секунд",
    "time_ar": "30 ثانية",
    "countdown": 30,
    "lat": 32.937351,
    "lng": 35.450365,
    "value": "אמירים"
  },
  {
    "id": 1422,
    "name": "אמנון",
    "name_en": "Amnon",
    "name_ru": "Амнон",
    "name_ar": "أمنون",
    "zone": "גליל עליון",
    "zone_en": "Upper Galilee",
    "zone_ru": "Верхняя Галилея",
    "zone_ar": "الجليل الأعلى",
    "time": "30 שניות",
    "time_en": "30 seconds",
    "time_ru": "30 секунд",
    "time_ar": "30 ثانية",
    "countdown": 30,
    "lat": 32.904989,
    "lng": 35.571136,
    "value": "אמנון"
  },
  {
    "id": 955,
    "name": "אמץ",
    "name_en": "Amatz",
    "name_ru": "Амац",
    "name_ar": "أومتس",
    "zone": "שרון",
    "zone_en": "Sharon",
    "zone_ru": "Шарон",
    "zone_ar": "شارون",
    "time": "דקה וחצי",
    "time_en": "A minute and a half",
    "time_ru": "Полторы минуты",
    "time_ar": "دقيقة ونصف",
    "countdown": 90,
    "lat": 32.369216,
    "lng": 34.993129,
    "value": "אמץ"
  },
  {
    "id": 256,
    "name": "אמציה",
    "name_en": "Amatzia",
    "name_ru": "Амация",
    "name_ar": "أمتسيا",
    "zone": "יהודה",
    "zone_en": "Yehuda",
    "zone_ru": "Йегуда",
    "zone_ar": "يهودا",
    "time": "דקה",
    "time_en": "A minute",
    "time_ru": "Минута",
    "time_ar": "دقيقة",
    "countdown": 60,
    "lat": 31.531176,
    "lng": 34.914463,
    "value": "אמציה"
  },
  {
    "id": 1488,
    "name": "אניעם",
    "name_en": "Aniam",
    "name_ru": "Аниам",
    "name_ar": "أنيعام",
    "zone": "גולן דרום",
    "zone_en": "South Golan",
    "zone_ru": "Южный Голан",
    "zone_ar": "الجولان الجنوبي",
    "time": "15 שניות",
    "time_en": "15 seconds",
    "time_ru": "15 секунд",
    "time_ar": "15 ثانية",
    "countdown": 15,
    "lat": 32.956638,
    "lng": 35.739718,
    "value": "אניעם"
  },
  {
    "id": 1339,
    "name": "אעבלין",
    "name_en": "Ibillin",
    "name_ru": "Иблин",
    "name_ar": "إعبلين",
    "zone": "מרכז הגליל",
    "zone_en": "Center Galilee",
    "zone_ru": "Центральная Галилея",
    "zone_ar": "مركز الجليل",
    "time": "דקה",
    "time_en": "A minute",
    "time_ru": "Минута",
    "time_ar": "دقيقة",
    "countdown": 60,
    "lat": 32.821799,
    "lng": 35.19012,
    "value": "אעבלין"
  },
  {
    "id": 1314,
    "name": "אפיק",
    "name_en": "Afik",
    "name_ru": "Афик",
    "name_ar": "أفيك",
    "zone": "גולן דרום",
    "zone_en": "South Golan",
    "zone_ru": "Южный Голан",
    "zone_ar": "الجولان الجنوبي",
    "time": "מיידי",
    "time_en": "Immediately",
    "time_ru": "Немедленно",
    "time_ar": "في الحال",
    "countdown": 0,
    "lat": 32.779428,
    "lng": 35.702994,
    "value": "אפיק"
  },
  {
    "id": 1188,
    "name": "אפיקים",
    "name_en": "Afikim",
    "name_ru": "Афиким",
    "name_ar": "أفيكيم",
    "zone": "גליל תחתון",
    "zone_en": "Lower Galilee",
    "zone_ru": "Нижняя Галилея",
    "zone_ar": "الجليل الأسفل",
    "time": "דקה",
    "time_en": "A minute",
    "time_ru": "Минута",
    "time_ar": "دقيقة",
    "countdown": 60,
    "lat": 32.680564,
    "lng": 35.57773,
    "value": "אפיקים"
  },
  {
    "id": 1352,
    "name": "אפק",
    "name_en": "Afek",
    "name_ru": "Афек",
    "name_ar": "أفيك",
    "zone": "גליל עליון",
    "zone_en": "Upper Galilee",
    "zone_ru": "Верхняя Галилея",
    "zone_ar": "الجليل الأعلى",
    "time": "דקה",
    "time_en": "A minute",
    "time_ru": "Минута",
    "time_ar": "دقيقة",
    "countdown": 60,
    "lat": 32.838316,
    "lng": 35.12778,
    "value": "אפק"
  },
  {
    "id": 329,
    "name": "אפרת",
    "name_en": "Efrat",
    "name_ru": "Эфрат",
    "name_ar": "إفرات",
    "zone": "יהודה",
    "zone_en": "Yehuda",
    "zone_ru": "Йегуда",
    "zone_ar": "يهودا",
    "time": "דקה וחצי",
    "time_en": "A minute and a half",
    "time_ru": "Полторы минуты",
    "time_ar": "دقيقة ونصف",
    "countdown": 90,
    "lat": 31.653589,
    "lng": 35.149934,
    "value": "אפרת",
    "shelters": 1
  },
  {
    "id": 1342,
    "name": "ארבל",
    "name_en": "Arbel",
    "name_ru": "Арбель",
    "name_ar": "أرابل",
    "zone": "גליל תחתון",
    "zone_en": "Lower Galilee",
    "zone_ru": "Нижняя Галилея",
    "zone_ar": "الجليل الأسفل",
    "time": "דקה",
    "time_en": "A minute",
    "time_ru": "Минута",
    "time_ar": "دقيقة",
    "countdown": 60,
    "lat": 32.8241667,
    "lng": 35.4986111,
    "value": "ארבל"
  },
  {
    "id": 853,
    "name": "ארגמן",
    "name_en": "Argaman",
    "name_ru": "Аргаман",
    "name_ar": "أرجمان",
    "zone": "בקעה",
    "zone_en": "Bika'a",
    "zone_ru": "Бикъа",
    "zone_ar": "بيكعا",
    "time": "דקה וחצי",
    "time_en": "A minute and a half",
    "time_ru": "Полторы минуты",
    "time_ar": "دقيقة ونصف",
    "countdown": 90,
    "lat": 32.17334,
    "lng": 35.522285,
    "value": "ארגמן"
  },
  {
    "id": 263,
    "name": "ארז",
    "name_en": "Erez",
    "name_ru": "Эрез",
    "name_ar": "إيرز",
    "zone": "עוטף עזה",
    "zone_en": "Gaza Envelope",
    "zone_ru": "Округ Газа",
    "zone_ar": "غلاف غزة",
    "time": "15 שניות",
    "time_en": "15 seconds",
    "time_ru": "15 секунд",
    "time_ar": "15 ثانية",
    "countdown": 15,
    "lat": 31.55984,
    "lng": 34.564889,
    "value": "ארז",
    "shelters": 2
  },
  {
    "id": 795,
    "name": "אריאל",
    "name_en": "Ariel",
    "name_ru": "Ариэль",
    "name_ar": "ارئييل",
    "zone": "שומרון",
    "zone_en": "Shomron",
    "zone_ru": "Самария",
    "zone_ar": "السامرة",
    "time": "דקה וחצי",
    "time_en": "A minute and a half",
    "time_ru": "Полторы минуты",
    "time_ar": "دقيقة ونصف",
    "countdown": 90,
    "lat": 32.104637,
    "lng": 35.174514,
    "value": "אריאל"
  },
  {
    "id": 862,
    "name": "ארסוף",
    "name_en": "Arsuf",
    "name_ru": "Арсуф",
    "name_ar": "أرسوف",
    "zone": "שרון",
    "zone_en": "Sharon",
    "zone_ru": "Шарон",
    "zone_ar": "شارون",
    "time": "דקה וחצי",
    "time_en": "A minute and a half",
    "time_ru": "Полторы минуты",
    "time_ar": "دقيقة ونصف",
    "countdown": 90,
    "lat": 32.212841,
    "lng": 34.815977,
    "value": "ארסוף"
  },
  {
    "id": 225,
    "name": "אשבול",
    "name_en": "Eshbol",
    "name_ru": "Эшбол",
    "name_ar": "أشبول",
    "zone": "מערב הנגב",
    "zone_en": "West Negev",
    "zone_ru": "Западный Негев",
    "zone_ar": "النقب الغربي",
    "time": "30 שניות",
    "time_en": "30 seconds",
    "time_ru": "30 секунд",
    "time_ar": "30 ثانية",
    "countdown": 30,
    "lat": 31.445516,
    "lng": 34.666654,
    "value": "אשבול"
  },
  {
    "id": 1392,
    "name": "אשבל",
    "name_en": "Eshbal",
    "name_ru": "Эшбаль",
    "name_ar": "إشبال",
    "zone": "מרכז הגליל",
    "zone_en": "Center Galilee",
    "zone_ru": "Центральная Галилея",
    "zone_ar": "مركز الجليل",
    "time": "דקה",
    "time_en": "A minute",
    "time_ru": "Минута",
    "time_ar": "دقيقة",
    "countdown": 60,
    "lat": 32.876984,
    "lng": 35.30601,
    "value": "אשבל"
  },
  {
    "id": 468,
    "name": "אשדוד - א,ב,ד,ה",
    "name_en": "Ashdod - Alef, Bet, Dalet, Heh",
    "name_ru": "Ашдод - алеф, бет, далет, хей",
    "name_ar": "أشدود- أ،ب،د، هـ",
    "zone": "לכיש",
    "zone_en": "Lachish",
    "zone_ru": "Лахиш",
    "zone_ar": "لخيش",
    "time": "45 שניות",
    "time_en": "45 seconds",
    "time_ru": "45 секунд",
    "time_ar": "45 ثانية",
    "countdown": 45,
    "lat": 31.804381,
    "lng": 34.655314,
    "value": "אשדוד - א,ב,ד,ה"
  },
  {
    "id": 530,
    "name": "אשדוד - איזור תעשייה צפוני",
    "name_en": "Ashdod - Northern Industrial Zone And Port",
    "name_ru": "Ашдод - Северная промзона, П",
    "name_ar": "المنطقة الصناعية الشمالية,",
    "zone": "לכיש",
    "zone_en": "Lachish",
    "zone_ru": "Лахиш",
    "zone_ar": "لخيش",
    "time": "45 שניות",
    "time_en": "45 seconds",
    "time_ru": "45 секунд",
    "time_ar": "45 ثانية",
    "countdown": 45,
    "lat": 31.8322214,
    "lng": 34.6759104,
    "value": "אשדוד - איזור תעשייה צפוני"
  },
  {
    "id": 455,
    "name": "אשדוד - ג,ו,ז",
    "name_en": "Ashdod - Gimmel, Vav, Zain",
    "name_ru": "Ашдод - гимел, вав, зайн",
    "name_ar": "أشدود- ج، و، ز",
    "zone": "לכיש",
    "zone_en": "Lachish",
    "zone_ru": "Лахиш",
    "zone_ar": "لخيش",
    "time": "45 שניות",
    "time_en": "45 seconds",
    "time_ru": "45 секунд",
    "time_ar": "45 ثانية",
    "countdown": 45,
    "lat": 31.804381,
    "lng": 34.655314,
    "value": "אשדוד - ג,ו,ז"
  },
  {
    "id": 433,
    "name": "אשדוד - ח,ט,י,יג,יד,טז",
    "name_en": "Ashdod - Het, Tet, Yod, Yod Gimmel, Yod Dalet, Te*",
    "name_ru": "Ашдод - хет, тет, йод, йод гим",
    "name_ar": "أشدود- ح، ط، ي، ي ج،ي د، ط ز",
    "zone": "לכיש",
    "zone_en": "Lachish",
    "zone_ru": "Лахиш",
    "zone_ar": "لخيش",
    "time": "45 שניות",
    "time_en": "45 seconds",
    "time_ru": "45 секунд",
    "time_ar": "45 ثانية",
    "countdown": 45,
    "lat": 31.804381,
    "lng": 34.655314,
    "value": "אשדוד - ח,ט,י,יג,יד,טז"
  },
  {
    "id": 432,
    "name": "אשדוד -יא,יב,טו,יז,מרינה,סיט",
    "name_en": "Ashdod - Yod Alef, Yod Bet, Tet Vav, Yod Zain, Marina, City",
    "name_ru": "Ашдод - йуд алеф, йуд бет, йу",
    "name_ar": "أشدود- ي أ، ي ب، ط و، ي ز، مري",
    "zone": "לכיש",
    "zone_en": "Lachish",
    "zone_ru": "Лахиш",
    "zone_ar": "لخيش",
    "time": "45 שניות",
    "time_en": "45 seconds",
    "time_ru": "45 секунд",
    "time_ar": "45 ثانية",
    "countdown": 45,
    "lat": 31.804381,
    "lng": 34.655314,
    "value": "אשדוד -יא,יב,טו,יז,מרינה,סיט"
  },
  {
    "id": 1161,
    "name": "אשדות יעקב איחוד",
    "name_en": "Ashdod Yacov Ichud",
    "name_ru": "Ашдот Яаков Ихуд",
    "name_ar": "أشدوت يعقوب إيحود",
    "zone": "גולן דרום",
    "zone_en": "South Golan",
    "zone_ru": "Южный Голан",
    "zone_ar": "الجولان الجنوبي",
    "time": "דקה",
    "time_en": "A minute",
    "time_ru": "Минута",
    "time_ar": "دقيقة",
    "countdown": 60,
    "lat": 32.65877,
    "lng": 35.579637,
    "value": "אשדות יעקב איחוד"
  },
  {
    "id": 1168,
    "name": "אשדות יעקב מאוחד",
    "name_en": "Ashdot Yaakov Meuhad",
    "name_ru": "Ашдот Яаков Меухад",
    "name_ar": "أشدوت يعقوب مئوحاد",
    "zone": "גולן דרום",
    "zone_en": "South Golan",
    "zone_ru": "Южный Голан",
    "zone_ar": "الجولان الجنوبي",
    "time": "דקה",
    "time_en": "A minute",
    "time_ru": "Минута",
    "time_ar": "دقيقة",
    "countdown": 60,
    "lat": 32.664808,
    "lng": 35.582769,
    "value": "אשדות יעקב מאוחד"
  },
  {
    "id": 1399,
    "name": "אשחר",
    "name_en": "Eshchar",
    "name_ru": "Эшхар",
    "name_ar": "إشحار",
    "zone": "מרכז הגליל",
    "zone_en": "Center Galilee",
    "zone_ru": "Центральная Галилея",
    "zone_ar": "مركز الجليل",
    "time": "דקה",
    "time_en": "A minute",
    "time_ru": "Минута",
    "time_ar": "دقيقة",
    "countdown": 60,
    "lat": 32.885084,
    "lng": 35.299622,
    "value": "אשחר"
  },
  {
    "id": 203,
    "name": "אשכולות",
    "name_en": "Eshkolot",
    "name_ru": "Эшколот",
    "name_ar": "أشكولوت",
    "zone": "מרכז הנגב",
    "zone_en": "Center Negev",
    "zone_ru": "Центральный Негев",
    "zone_ar": "مركز النقب",
    "time": "דקה",
    "time_en": "A minute",
    "time_ru": "Минута",
    "time_ar": "دقيقة",
    "countdown": 60,
    "lat": 31.391171,
    "lng": 34.904856,
    "value": "אשכולות"
  },
  {
    "id": 168,
    "name": "אשל הנשיא",
    "name_en": "Eshel HaNassi",
    "name_ru": "Эшель а-Наси",
    "name_ar": "إيشل هنسي",
    "zone": "מערב הנגב",
    "zone_en": "West Negev",
    "zone_ru": "Западный Негев",
    "zone_ar": "النقب الغربي",
    "time": "45 שניות",
    "time_en": "45 seconds",
    "time_ru": "45 секунд",
    "time_ar": "45 ثانية",
    "countdown": 45,
    "lat": 31.326828,
    "lng": 34.697497,
    "value": "אשל הנשיא"
  },
  {
    "id": 1774,
    "name": "אשלים",
    "name_en": "Ashalim",
    "name_ru": "Ашалим",
    "name_ar": "اشليم",
    "zone": "דרום הנגב",
    "zone_en": "South Negev",
    "zone_ru": "Южный Негев",
    "zone_ar": "جنوب النقب",
    "time": "דקה וחצי",
    "time_en": "A minute and a half",
    "time_ru": "Полторы минуты",
    "time_ar": "دقيقة ونصف",
    "countdown": 90,
    "lat": 30.964245,
    "lng": 34.699674,
    "value": "אשלים"
  },
  {
    "id": 1932,
    "name": "אשקלון - דרום",
    "name_en": "Ashkelon - South",
    "name_ru": "Ашкелон - Юг",
    "name_ar": "أشكلون - جنوب",
    "zone": "מערב לכיש",
    "zone_en": "West Lachish",
    "zone_ru": "Западный Лахиш",
    "zone_ar": "غرب لخيش",
    "time": "30 שניות",
    "time_en": "30 seconds",
    "time_ru": "30 секунд",
    "time_ar": "30 ثانية",
    "countdown": 30,
    "lat": 31.6687885,
    "lng": 34.5742523,
    "value": "אשקלון - דרום"
  },
  {
    "id": 320,
    "name": "אשקלון - צפון",
    "name_en": "Ashkelon - North",
    "name_ru": "Ашкелон - Север",
    "name_ar": "أشكلون - الشمال",
    "zone": "מערב לכיש",
    "zone_en": "West Lachish",
    "zone_ru": "Западный Лахиш",
    "zone_ar": "غرب لخيش",
    "time": "30 שניות",
    "time_en": "30 seconds",
    "time_ru": "30 секунд",
    "time_ar": "30 ثانية",
    "countdown": 30,
    "lat": 31.6687885,
    "lng": 34.5742523,
    "value": "אשקלון - צפון"
  },
  {
    "id": 1482,
    "name": "אשרת",
    "name_en": "Oshrat",
    "name_ru": "Ошрат",
    "name_ar": "أوشرات",
    "zone": "גליל עליון",
    "zone_en": "Upper Galilee",
    "zone_ru": "Верхняя Галилея",
    "zone_ar": "الجليل الأعلى",
    "time": "30 שניות",
    "time_en": "30 seconds",
    "time_ru": "30 секунд",
    "time_ar": "30 ثانية",
    "countdown": 30,
    "lat": 32.971645,
    "lng": 35.1557,
    "value": "אשרת",
    "shelters": 1
  },
  {
    "id": 462,
    "name": "אשתאול",
    "name_en": "Eshtaol",
    "name_ru": "Эштаоль",
    "name_ar": "اشتوئيل",
    "zone": "שפלת יהודה",
    "zone_en": "Shfelat Yehuda",
    "zone_ru": "Шфелат Йегуда",
    "zone_ar": "شيفلات يهودا",
    "time": "דקה וחצי",
    "time_en": "A minute and a half",
    "time_ru": "Полторы минуты",
    "time_ar": "دقيقة ونصف",
    "countdown": 90,
    "lat": 31.780385,
    "lng": 35.010102,
    "value": "אשתאול"
  },
  {
    "id": 1752,
    "name": "אתר דודאים",
    "name_en": "Dudaim Site",
    "name_ru": "Свалка Дудаим",
    "name_ar": "موقع دودائيم",
    "zone": "מרכז הנגב",
    "zone_en": "Center Negev",
    "zone_ru": "Центральный Негев",
    "zone_ar": "مركز النقب",
    "time": "45 שניות",
    "time_en": "45 seconds",
    "time_ru": "45 секунд",
    "time_ar": "45 ثانية",
    "countdown": 45,
    "lat": 31.319078,
    "lng": 34.727616,
    "value": "אתר דודאים"
  },
  {
    "id": 1715,
    "name": "אתר ההנצחה גולני",
    "name_en": "Golani Memorial Site",
    "name_ru": "Мемориал Голани",
    "name_ar": "موقع تذكاري في غولاني",
    "zone": "גליל תחתון",
    "zone_en": "Lower Galilee",
    "zone_ru": "Нижняя Галилея",
    "zone_ar": "الجليل الأسفل",
    "time": "דקה",
    "time_en": "A minute",
    "time_ru": "Минута",
    "time_ar": "دقيقة",
    "countdown": 60,
    "lat": 32.777359,
    "lng": 35.410278,
    "value": "אתר ההנצחה גולני"
  },
  {
    "id": 982,
    "name": "באקה אל גרבייה",
    "name_en": "Bqa Al-Gharbiyye",
    "name_ru": "Бака аль Гарбия",
    "name_ar": "باقة الغربية",
    "zone": "ואדי ערה",
    "zone_en": "Wadi Ara",
    "zone_ru": "Вади Ара",
    "zone_ar": "وادي عارة",
    "time": "דקה וחצי",
    "time_en": "A minute and a half",
    "time_ru": "Полторы минуты",
    "time_ar": "دقيقة ونصف",
    "countdown": 90,
    "lat": 32.422891,
    "lng": 35.035764,
    "value": "באקה אל גרבייה"
  },
  {
    "id": 12,
    "name": "באר אורה",
    "name_en": "Be'er Ora",
    "name_ru": "Беэр Ора",
    "name_ar": "بئير أوره",
    "zone": "ערבה",
    "zone_en": "Arava",
    "zone_ru": "Арава",
    "zone_ar": "العرباه",
    "time": "3 דקות",
    "time_en": "3 minutes",
    "time_ru": "3 минуты",
    "time_ar": "3 دقائق",
    "countdown": 180,
    "lat": 29.710166,
    "lng": 34.987218,
    "value": "באר אורה"
  },
  {
    "id": 362,
    "name": "באר גנים",
    "name_en": "Be'er Ganim",
    "name_ru": "Беэр Ганим",
    "name_ar": "بئير جانيم",
    "zone": "מערב לכיש",
    "zone_en": "West Lachish",
    "zone_ru": "Западный Лахиш",
    "zone_ar": "غرب لخيش",
    "time": "30 שניות",
    "time_en": "30 seconds",
    "time_ru": "30 секунд",
    "time_ar": "30 ثانية",
    "countdown": 30,
    "lat": 31.700354,
    "lng": 34.610934,
    "value": "באר גנים"
  },
  {
    "id": 382,
    "name": "באר טוביה",
    "name_en": "Be'er Tuvia",
    "name_ru": "Беэр Тувья",
    "name_ar": "بئير طوبيا",
    "zone": "לכיש",
    "zone_en": "Lachish",
    "zone_ru": "Лахиш",
    "zone_ar": "لخيش",
    "time": "45 שניות",
    "time_en": "45 seconds",
    "time_ru": "45 секунд",
    "time_ar": "45 ثانية",
    "countdown": 45,
    "lat": 31.737127,
    "lng": 34.72557,
    "value": "באר טוביה"
  },
  {
    "id": 1809,
    "name": "באר יעקב",
    "name_en": "Be'er Yacov",
    "name_ru": "Беэр Яаков",
    "name_ar": "بئير يعقوب",
    "zone": "השפלה",
    "zone_en": "HaShfela",
    "zone_ru": "Ха-Шфела",
    "zone_ar": "هشفيلاه",
    "time": "דקה וחצי",
    "time_en": "A minute and a half",
    "time_ru": "Полторы минуты",
    "time_ar": "دقيقة ونصف",
    "countdown": 90,
    "lat": 31.943507,
    "lng": 34.83904,
    "value": "באר יעקב"
  },
  {
    "id": 1771,
    "name": "באר מילכה",
    "name_en": "Be'er Milka",
    "name_ru": "Беэр Милка",
    "name_ar": "بئير ميلخا",
    "zone": "דרום הנגב",
    "zone_en": "South Negev",
    "zone_ru": "Южный Негев",
    "zone_ar": "جنوب النقب",
    "time": "דקה",
    "time_en": "A minute",
    "time_ru": "Минута",
    "time_ar": "دقيقة",
    "countdown": 60,
    "lat": 30.934112,
    "lng": 34.405643,
    "value": "באר מילכה"
  },
  {
    "id": 1749,
    "name": "באר שבע - דרום",
    "name_en": "Beer Sheva - South",
    "name_ru": "Беэр шева - Южная часть",
    "name_ar": "بئر السبع -جنوب",
    "zone": "מרכז הנגב",
    "zone_en": "Center Negev",
    "zone_ru": "Центральный Негев",
    "zone_ar": "مركز النقب",
    "time": "דקה",
    "time_en": "A minute",
    "time_ru": "Минута",
    "time_ar": "دقيقة",
    "countdown": 60,
    "lat": 31.252973,
    "lng": 34.791462,
    "value": "באר שבע - דרום"
  },
  {
    "id": 124,
    "name": "באר שבע - מזרח",
    "name_en": "Beer Sheva - East",
    "name_ru": "Беэр Шева - восток",
    "name_ar": "بئر السبع - شرق",
    "zone": "מרכז הנגב",
    "zone_en": "Center Negev",
    "zone_ru": "Центральный Негев",
    "zone_ar": "مركز النقب",
    "time": "דקה",
    "time_en": "A minute",
    "time_ru": "Минута",
    "time_ar": "دقيقة",
    "countdown": 60,
    "lat": 31.252973,
    "lng": 34.791462,
    "value": "באר שבע - מזרח"
  },
  {
    "id": 141,
    "name": "באר שבע - מערב",
    "name_en": "Beer Sheva - West",
    "name_ru": "Беэр Шева - запад",
    "name_ar": "بئر السبع - غرب",
    "zone": "מרכז הנגב",
    "zone_en": "Center Negev",
    "zone_ru": "Центральный Негев",
    "zone_ar": "مركز النقب",
    "time": "דקה",
    "time_en": "A minute",
    "time_ru": "Минута",
    "time_ar": "دقيقة",
    "countdown": 60,
    "lat": 31.252973,
    "lng": 34.791462,
    "value": "באר שבע - מערב"
  },
  {
    "id": 1748,
    "name": "באר שבע - צפון",
    "name_en": "Beer Sheva - North",
    "name_ru": "Беэр Шева - север",
    "name_ar": "بئر السبع - شمال",
    "zone": "מרכז הנגב",
    "zone_en": "Center Negev",
    "zone_ru": "Центральный Негев",
    "zone_ar": "مركز النقب",
    "time": "דקה",
    "time_en": "A minute",
    "time_ru": "Минута",
    "time_ar": "دقيقة",
    "countdown": 60,
    "lat": 31.252973,
    "lng": 34.791462,
    "value": "באר שבע - צפון"
  },
  {
    "id": 727,
    "name": "בארות יצחק",
    "name_en": "Be'erot Itzhak",
    "name_ru": "Беэрот Ицхак",
    "name_ar": "بئروت يتسحاق",
    "zone": "ירקון",
    "zone_en": "Yarkon",
    "zone_ru": "Яркон",
    "zone_ar": "اليركون",
    "time": "דקה וחצי",
    "time_en": "A minute and a half",
    "time_ru": "Полторы минуты",
    "time_ar": "دقيقة ونصف",
    "countdown": 90,
    "lat": 32.042025,
    "lng": 34.910221,
    "value": "בארות יצחק"
  },
  {
    "id": 923,
    "name": "בארותיים",
    "name_en": "Be'erotaim",
    "name_ru": "Беэротаим",
    "name_ar": "بئروتايم",
    "zone": "שרון",
    "zone_en": "Sharon",
    "zone_ru": "Шарон",
    "zone_ar": "شارون",
    "time": "דקה וחצי",
    "time_en": "A minute and a half",
    "time_ru": "Полторы минуты",
    "time_ar": "دقيقة ونصف",
    "countdown": 90,
    "lat": 32.321039,
    "lng": 34.98343,
    "value": "בארותיים"
  },
  {
    "id": 212,
    "name": "בארי",
    "name_en": "Be'eri",
    "name_ru": "Беэри",
    "name_ar": "بئيري",
    "zone": "עוטף עזה",
    "zone_en": "Gaza Envelope",
    "zone_ru": "Округ Газа",
    "zone_ar": "غلاف غزة",
    "time": "15 שניות",
    "time_en": "15 seconds",
    "time_ru": "15 секунд",
    "time_ar": "15 ثانية",
    "countdown": 15,
    "lat": 31.424513,
    "lng": 34.492567,
    "value": "בארי",
    "shelters": 2
  },
  {
    "id": 1458,
    "name": "בוסתן הגליל",
    "name_en": "Bustan HaGalil",
    "name_ru": "Бустан ха-Галиль",
    "name_ar": "بستان الجليل",
    "zone": "גליל עליון",
    "zone_en": "Upper Galilee",
    "zone_ru": "Верхняя Галилея",
    "zone_ar": "الجليل الأعلى",
    "time": "30 שניות",
    "time_en": "30 seconds",
    "time_ru": "30 секунд",
    "time_ar": "30 ثانية",
    "countdown": 30,
    "lat": 32.948636,
    "lng": 35.080688,
    "value": "בוסתן הגליל",
    "shelters": 1
  },
  {
    "id": 1328,
    "name": "בועיינה-נוג'ידאת",
    "name_en": "Bu'eine Nujeidat",
    "name_ru": "Буэйне-Нуджейдат",
    "name_ar": "البعنة النجيدات",
    "zone": "מרכז הגליל",
    "zone_en": "Center Galilee",
    "zone_ru": "Центральная Галилея",
    "zone_ar": "مركز الجليل",
    "time": "דקה",
    "time_en": "A minute",
    "time_ru": "Минута",
    "time_ar": "دقيقة",
    "countdown": 60,
    "lat": 32.807711,
    "lng": 35.36527,
    "value": "בועיינה-נוג'ידאת"
  },
  {
    "id": 1641,
    "name": "בוקעתא",
    "name_en": "Buq'ata",
    "name_ru": "Буката",
    "name_ar": "بقعاثا",
    "zone": "גולן צפון",
    "zone_en": "North Golan",
    "zone_ru": "Северный Голан",
    "zone_ar": "الجولان الشمالي",
    "time": "מיידי",
    "time_en": "Immediately",
    "time_ru": "Немедленно",
    "time_ar": "في الحال",
    "countdown": 0,
    "lat": 33.2026572,
    "lng": 35.7767723,
    "value": "בוקעתא"
  },
  {
    "id": 927,
    "name": "בורגתה",
    "name_en": "Burgata",
    "name_ru": "Бургата",
    "name_ar": "بورجاتا",
    "zone": "שרון",
    "zone_en": "Sharon",
    "zone_ru": "Шарон",
    "zone_ar": "شارون",
    "time": "דקה וחצי",
    "time_en": "A minute and a half",
    "time_ru": "Полторы минуты",
    "time_ar": "دقيقة ونصف",
    "countdown": 90,
    "lat": 32.325972,
    "lng": 34.963848,
    "value": "בורגתה"
  },
  {
    "id": 944,
    "name": "בחן",
    "name_en": "Bahan",
    "name_ru": "Бахан",
    "name_ar": "بلدة بوحن",
    "zone": "שרון",
    "zone_en": "Sharon",
    "zone_ru": "Шарон",
    "zone_ar": "شارون",
    "time": "דקה וחצי",
    "time_en": "A minute and a half",
    "time_ru": "Полторы минуты",
    "time_ar": "دقيقة ونصف",
    "countdown": 90,
    "lat": 32.351831,
    "lng": 35.018542,
    "value": "בחן"
  },
  {
    "id": 173,
    "name": "בטחה",
    "name_en": "Bitha",
    "name_ru": "Битха",
    "name_ar": "بطحا",
    "zone": "מערב הנגב",
    "zone_en": "West Negev",
    "zone_ru": "Западный Негев",
    "zone_ar": "النقب الغربي",
    "time": "45 שניות",
    "time_en": "45 seconds",
    "time_ru": "45 секунд",
    "time_ar": "45 ثانية",
    "countdown": 45,
    "lat": 31.333869,
    "lng": 34.634318,
    "value": "בטחה"
  },
  {
    "id": 470,
    "name": "ביצרון",
    "name_en": "Bitzaron",
    "name_ru": "Бицарон",
    "name_ar": "بيتسرون",
    "zone": "לכיש",
    "zone_en": "Lachish",
    "zone_ru": "Лахиш",
    "zone_ar": "لخيش",
    "time": "דקה",
    "time_en": "A minute",
    "time_ru": "Минута",
    "time_ar": "دقيقة",
    "countdown": 60,
    "lat": 31.7949517,
    "lng": 34.7293463,
    "value": "ביצרון"
  },
  {
    "id": 1285,
    "name": "ביר אלמכסור",
    "name_en": "Bir Al-Maksur",
    "name_ru": "Бир аль-Максур",
    "name_ar": "بئر المكسور",
    "zone": "מרכז הגליל",
    "zone_en": "Center Galilee",
    "zone_ru": "Центральная Галилея",
    "zone_ar": "مركز الجليل",
    "time": "דקה",
    "time_en": "A minute",
    "time_ru": "Минута",
    "time_ar": "دقيقة",
    "countdown": 60,
    "lat": 32.777291,
    "lng": 35.220571,
    "value": "ביר אלמכסור"
  },
  {
    "id": 78,
    "name": "ביר הדאג'",
    "name_en": "Bir Hadaj",
    "name_ru": "Бир Хададж",
    "name_ar": "بئر هداج",
    "zone": "דרום הנגב",
    "zone_en": "South Negev",
    "zone_ru": "Южный Негев",
    "zone_ar": "جنوب النقب",
    "time": "דקה וחצי",
    "time_en": "A minute and a half",
    "time_ru": "Полторы минуты",
    "time_ar": "دقيقة ونصف",
    "countdown": 90,
    "lat": 31.02316,
    "lng": 34.709138,
    "value": "ביר הדאג'"
  },
  {
    "id": 1503,
    "name": "ביריה",
    "name_en": "Biriyeh",
    "name_ru": "Бирия",
    "name_ar": "بيريه",
    "zone": "גליל עליון",
    "zone_en": "Upper Galilee",
    "zone_ru": "Верхняя Галилея",
    "zone_ar": "الجليل الأعلى",
    "time": "30 שניות",
    "time_en": "30 seconds",
    "time_ru": "30 секунд",
    "time_ar": "30 ثانية",
    "countdown": 30,
    "lat": 32.978108,
    "lng": 35.503096,
    "value": "ביריה"
  },
  {
    "id": 1240,
    "name": "בית אורן",
    "name_en": "Beit Oren",
    "name_ru": "Бейт Орен",
    "name_ar": "بيت أورن",
    "zone": "הכרמל",
    "zone_en": "HaCarmel",
    "zone_ru": "Ха-Кармель",
    "zone_ar": "الكرمل",
    "time": "דקה",
    "time_en": "A minute",
    "time_ru": "Минута",
    "time_ar": "دقيقة",
    "countdown": 60,
    "lat": 32.731601,
    "lng": 35.00632,
    "value": "בית אורן"
  },
  {
    "id": 1822,
    "name": "בית אל",
    "name_en": "Beit El",
    "name_ru": "Бейт Эль",
    "name_ar": "بيت إيلا",
    "zone": "שומרון",
    "zone_en": "Shomron",
    "zone_ru": "Самария",
    "zone_ar": "السامرة",
    "time": "דקה וחצי",
    "time_en": "A minute and a half",
    "time_ru": "Полторы минуты",
    "time_ar": "دقيقة ونصف",
    "countdown": 90,
    "lat": 31.9416,
    "lng": 35.222734,
    "value": "בית אל"
  },
  {
    "id": 544,
    "name": "בית אלעזרי",
    "name_en": "Beit Elazari",
    "name_ru": "Бейт Эльазари",
    "name_ar": "بيت اليعزري",
    "zone": "לכיש",
    "zone_en": "Lachish",
    "zone_ru": "Лахиш",
    "zone_ar": "لخيش",
    "time": "דקה",
    "time_en": "A minute",
    "time_ru": "Минута",
    "time_ar": "دقيقة",
    "countdown": 60,
    "lat": 31.844717,
    "lng": 34.806627,
    "value": "בית אלעזרי"
  },
  {
    "id": 1062,
    "name": "בית אלפא וחפציבה",
    "name_en": "Beit Alfa And Heftziba",
    "name_ru": "Бейт Альфа и Хефциба",
    "name_ar": "بيت ألفا وحفتسفا",
    "zone": "בקעת בית שאן",
    "zone_en": "Beit She'an Valley",
    "zone_ru": "Бикъат Бейт Шеан",
    "zone_ar": "بيكعات بيت شان",
    "time": "דקה",
    "time_en": "A minute",
    "time_ru": "Минута",
    "time_ar": "دقيقة",
    "countdown": 60,
    "lat": 32.5186116,
    "lng": 35.4273788,
    "value": "בית אלפא וחפציבה"
  },
  {
    "id": 728,
    "name": "בית אריה",
    "name_en": "Beit Arie",
    "name_ru": "Бейт Арье",
    "name_ar": "بيت أريه",
    "zone": "שומרון",
    "zone_en": "Shomron",
    "zone_ru": "Самария",
    "zone_ar": "السامرة",
    "time": "דקה וחצי",
    "time_en": "A minute and a half",
    "time_ru": "Полторы минуты",
    "time_ar": "دقيقة ونصف",
    "countdown": 90,
    "lat": 32.040059,
    "lng": 35.049472,
    "value": "בית אריה"
  },
  {
    "id": 858,
    "name": "בית ברל",
    "name_en": "Beit Berl",
    "name_ru": "Бейт Берл",
    "name_ar": "بيت بيرل",
    "zone": "שרון",
    "zone_en": "Sharon",
    "zone_ru": "Шарон",
    "zone_ar": "شارون",
    "time": "דקה וחצי",
    "time_en": "A minute and a half",
    "time_ru": "Полторы минуты",
    "time_ar": "دقيقة ونصف",
    "countdown": 90,
    "lat": 32.1997359,
    "lng": 34.9260732,
    "value": "בית ברל"
  },
  {
    "id": 1474,
    "name": "בית ג'אן",
    "name_en": "Beit Jann",
    "name_ru": "Бейт Джан",
    "name_ar": "بيت جن",
    "zone": "גליל עליון",
    "zone_en": "Upper Galilee",
    "zone_ru": "Верхняя Галилея",
    "zone_ar": "الجليل الأعلى",
    "time": "30 שניות",
    "time_en": "30 seconds",
    "time_ru": "30 секунд",
    "time_ar": "30 ثانية",
    "countdown": 30,
    "lat": 32.965655,
    "lng": 35.381268,
    "value": "בית ג'אן"
  },
  {
    "id": 301,
    "name": "בית גוברין",
    "name_en": "Beit Guvrin",
    "name_ru": "Бейт Говрин",
    "name_ar": "بيت جوبرين",
    "zone": "שפלת יהודה",
    "zone_en": "Shfelat Yehuda",
    "zone_ru": "Шфелат Йегуда",
    "zone_ar": "شيفلات يهودا",
    "time": "דקה",
    "time_en": "A minute",
    "time_ru": "Минута",
    "time_ar": "دقيقة",
    "countdown": 60,
    "lat": 31.61288,
    "lng": 34.895568,
    "value": "בית גוברין"
  },
  {
    "id": 558,
    "name": "בית גמליאל",
    "name_en": "Beit Gamliel",
    "name_ru": "Бейт Гамлиэль",
    "name_ar": "بيت جمليئل",
    "zone": "לכיש",
    "zone_en": "Lachish",
    "zone_ru": "Лахиш",
    "zone_ar": "لخيش",
    "time": "דקה",
    "time_en": "A minute",
    "time_ru": "Минута",
    "time_ar": "دقيقة",
    "countdown": 60,
    "lat": 31.856128,
    "lng": 34.760947,
    "value": "בית גמליאל"
  },
  {
    "id": 1860,
    "name": "בית דגן",
    "name_en": "Beit Dagan",
    "name_ru": "Бейт Даган",
    "name_ar": "بيت دجان",
    "zone": "השפלה",
    "zone_en": "HaShfela",
    "zone_ru": "Ха-Шфела",
    "zone_ar": "هشفيلاه",
    "time": "דקה וחצי",
    "time_en": "A minute and a half",
    "time_ru": "Полторы минуты",
    "time_ar": "دقيقة ونصف",
    "countdown": 90,
    "lat": 32.0017816,
    "lng": 34.8297087,
    "value": "בית דגן"
  },
  {
    "id": 1760,
    "name": "בית הגדי",
    "name_en": "Beit HaGdi",
    "name_ru": "Бейт ха-Гди",
    "name_ar": "وبيت هجدي",
    "zone": "מערב הנגב",
    "zone_en": "West Negev",
    "zone_ru": "Западный Негев",
    "zone_ar": "النقب الغربي",
    "time": "30 שניות",
    "time_en": "30 seconds",
    "time_ru": "30 секунд",
    "time_ar": "30 ثانية",
    "countdown": 30,
    "lat": 31.422839,
    "lng": 34.607878,
    "value": "בית הגדי"
  },
  {
    "id": 943,
    "name": "בית הלוי",
    "name_en": "Beit HaLevi",
    "name_ru": "Бейт ха-Леви",
    "name_ar": "بيت هليفي",
    "zone": "שרון",
    "zone_en": "Sharon",
    "zone_ru": "Шарон",
    "zone_ar": "شارون",
    "time": "דקה וחצי",
    "time_en": "A minute and a half",
    "time_ru": "Полторы минуты",
    "time_ar": "دقيقة ونصف",
    "countdown": 90,
    "lat": 32.351596,
    "lng": 34.930443,
    "value": "בית הלוי"
  },
  {
    "id": 1640,
    "name": "בית הלל",
    "name_en": "Beit Hillel",
    "name_ru": "Бейт Хилель",
    "name_ar": "بيت هيلل",
    "zone": "קו העימות",
    "zone_en": "Confrontation Line",
    "zone_ru": "Кав Ха-Имут",
    "zone_ar": "خط المواجهة",
    "time": "מיידי",
    "time_en": "Immediately",
    "time_ru": "Немедленно",
    "time_ar": "في الحال",
    "countdown": 0,
    "lat": 33.208782,
    "lng": 35.606515,
    "value": "בית הלל"
  },
  {
    "id": 1481,
    "name": "בית העמק",
    "name_en": "Beit HaEmek",
    "name_ru": "Бейт ха-Эмек",
    "name_ar": "بيت هعيمك",
    "zone": "גליל עליון",
    "zone_en": "Upper Galilee",
    "zone_ru": "Верхняя Галилея",
    "zone_ar": "الجليل الأعلى",
    "time": "30 שניות",
    "time_en": "30 seconds",
    "time_ru": "30 секунд",
    "time_ar": "30 ثانية",
    "countdown": 30,
    "lat": 32.971014,
    "lng": 35.145305,
    "value": "בית העמק"
  },
  {
    "id": 529,
    "name": "בית הערבה",
    "name_en": "Beit HaArava",
    "name_ru": "Бейт ха-Арава",
    "name_ar": "بيت هعاربا",
    "zone": "ים המלח",
    "zone_en": "Dead Sea",
    "zone_ru": "Мёртвое море",
    "zone_ar": "البحر الميت",
    "time": "דקה וחצי",
    "time_en": "A minute and a half",
    "time_ru": "Полторы минуты",
    "time_ar": "دقيقة ونصف",
    "countdown": 90,
    "lat": 31.807762,
    "lng": 35.476411,
    "value": "בית הערבה"
  },
  {
    "id": 1087,
    "name": "בית השיטה",
    "name_en": "Beit HaShita",
    "name_ru": "Бейт ха-Шита",
    "name_ar": "بيت هشيتا",
    "zone": "בקעת בית שאן",
    "zone_en": "Beit She'an Valley",
    "zone_ru": "Бикъат Бейт Шеан",
    "zone_ar": "بيكعات بيت شان",
    "time": "דקה",
    "time_en": "A minute",
    "time_ru": "Минута",
    "time_ar": "دقيقة",
    "countdown": 60,
    "lat": 32.550874,
    "lng": 35.439351,
    "value": "בית השיטה"
  },
  {
    "id": 466,
    "name": "בית זית",
    "name_en": "Beit Zayit",
    "name_ru": "Бейт Зайт",
    "name_ar": "بيت زيت",
    "zone": "ירושלים",
    "zone_en": "Jerusalem",
    "zone_ru": "Иерусалим",
    "zone_ar": "أورشليمالقدس",
    "time": "דקה וחצי",
    "time_en": "A minute and a half",
    "time_ru": "Полторы минуты",
    "time_ar": "دقيقة ونصف",
    "countdown": 90,
    "lat": 31.783058,
    "lng": 35.161117,
    "value": "בית זית"
  },
  {
    "id": 1196,
    "name": "בית זרע",
    "name_en": "Beit Zera",
    "name_ru": "Бейт Зера",
    "name_ar": "بيت زيرع",
    "zone": "גליל תחתון",
    "zone_en": "Lower Galilee",
    "zone_ru": "Нижняя Галилея",
    "zone_ar": "الجليل الأسفل",
    "time": "דקה",
    "time_en": "A minute",
    "time_ru": "Минута",
    "time_ar": "دقيقة",
    "countdown": 60,
    "lat": 32.689296,
    "lng": 35.574062,
    "value": "בית זרע"
  },
  {
    "id": 247,
    "name": "בית חגי",
    "name_en": "Beit Hagai",
    "name_ru": "Бейт Хагай",
    "name_ar": "بيت حاجاي",
    "zone": "יהודה",
    "zone_en": "Yehuda",
    "zone_ru": "Йегуда",
    "zone_ar": "يهودا",
    "time": "דקה וחצי",
    "time_en": "A minute and a half",
    "time_ru": "Полторы минуты",
    "time_ar": "دقيقة ونصف",
    "countdown": 90,
    "lat": 31.49253,
    "lng": 35.079537,
    "value": "בית חגי"
  },
  {
    "id": 596,
    "name": "בית חורון",
    "name_en": "Beit Horon",
    "name_ru": "Бейт Хорон",
    "name_ar": "بيت حورون",
    "zone": "שומרון",
    "zone_en": "Shomron",
    "zone_ru": "Самария",
    "zone_ar": "السامرة",
    "time": "דקה וחצי",
    "time_en": "A minute and a half",
    "time_ru": "Полторы минуты",
    "time_ar": "دقيقة ونصف",
    "countdown": 90,
    "lat": 31.87989,
    "lng": 35.124097,
    "value": "בית חורון"
  },
  {
    "id": 965,
    "name": "בית חזון",
    "name_en": "Beit Hazon",
    "name_ru": "Бейт Хазон",
    "name_ar": "بيت حزون",
    "zone": "שרון",
    "zone_en": "Sharon",
    "zone_ru": "Шарон",
    "zone_ar": "شارون",
    "time": "דקה וחצי",
    "time_en": "A minute and a half",
    "time_ru": "Полторы минуты",
    "time_ar": "دقيقة ونصف",
    "countdown": 90,
    "lat": 32.387178,
    "lng": 34.91291,
    "value": "בית חזון"
  },
  {
    "id": 471,
    "name": "בית חלקיה",
    "name_en": "Beit Hilkia",
    "name_ru": "Бейт Хилькия",
    "name_ar": "بيت حلقية",
    "zone": "לכיש",
    "zone_en": "Lachish",
    "zone_ru": "Лахиш",
    "zone_ar": "لخيش",
    "time": "דקה",
    "time_en": "A minute",
    "time_ru": "Минута",
    "time_ar": "دقيقة",
    "countdown": 60,
    "lat": 31.793001,
    "lng": 34.809698,
    "value": "בית חלקיה"
  },
  {
    "id": 1806,
    "name": "בית חנן",
    "name_en": "Beit Hanan",
    "name_ru": "Бейт Ханан",
    "name_ar": "بيت حنان",
    "zone": "השפלה",
    "zone_en": "HaShfela",
    "zone_ru": "Ха-Шфела",
    "zone_ar": "هشفيلاه",
    "time": "דקה וחצי",
    "time_en": "A minute and a half",
    "time_ru": "Полторы минуты",
    "time_ar": "دقيقة ونصف",
    "countdown": 90,
    "lat": 31.935211,
    "lng": 34.775596,
    "value": "בית חנן"
  },
  {
    "id": 1064,
    "name": "בית חנניה",
    "name_en": "Beit Hanania",
    "name_ru": "Бейт Ханания",
    "name_ar": "بيت حنانيه",
    "zone": "מנשה",
    "zone_en": "Menashe",
    "zone_ru": "Менаше",
    "zone_ar": "مناشيه",
    "time": "דקה וחצי",
    "time_en": "A minute and a half",
    "time_ru": "Полторы минуты",
    "time_ar": "دقيقة ونصف",
    "countdown": 90,
    "lat": 32.529504,
    "lng": 34.926734,
    "value": "בית חנניה"
  },