[
  {
    "name": "בחר הכל",
    "name_en": "Select All",
    "zone": "",
    "zone_en": "",
    "codes": [],
    "region": "",
    "region_en": "",
    "time": "all",
    "time_en": "",
    "countdown": 0,
    "lat": 0,
    "lng": 0,
    "value": "all"
  },
  {
    "name": "א דהאבשה",
    "name_en": "A Dahabasha",
    "zone": "נגב 300",
    "zone_en": "Negev 300",
    "codes": [
      300
    ],
    "region": "נגב",
    "region_en": "Negev",
    "time": "דקה",
    "time_en": "A minute",
    "countdown": 60,
    "lat": 31.226043,
    "lng": 35.147482,
    "value": "א דהאבשה (נגב 300)"
  },
  {
    "name": "א דיראת",
    "name_en": "A Dirat",
    "zone": "יהודה 207",
    "zone_en": "Judea 207",
    "codes": [
      207
    ],
    "region": "יהודה",
    "region_en": "Judea",
    "time": "דקה",
    "time_en": "A minute",
    "countdown": 60,
    "lat": 31.4436598,
    "lng": 35.1642817,
    "value": "א דיראת (יהודה 207)"
  },
  {
    "name": "א דנפירי",
    "name_en": "A Danfiri",
    "zone": "נגב 300",
    "zone_en": "Negev 300",
    "codes": [
      300
    ],
    "region": "נגב",
    "region_en": "Negev",
    "time": "דקה",
    "time_en": "A minute",
    "countdown": 60,
    "lat": 31.1277,
    "lng": 34.813964,
    "value": "א דנפירי (נגב 300)"
  },
  {
    "name": "א זיאדנה דרומית לרהט",
    "name_en": "A Ziadana South of Rahat",
    "zone": "באר שבע 286",
    "zone_en": "Beer Sheva 286",
    "codes": [
      286
    ],
    "region": "באר שבע",
    "region_en": "Beer Sheva",
    "time": "45 שניות",
    "time_en": "45 seconds",
    "countdown": 45,
    "lat": 31.367093,
    "lng": 34.740095,
    "value": "א זיאדנה דרומית לרהט (באר שבע 286)"
  },
  {
    "name": "א זיאדנה צפונית לרהט",
    "name_en": "A Ziadana North of Rahat",
    "zone": "באר שבע 286",
    "zone_en": "Beer Sheva 286",
    "codes": [
      286
    ],
    "region": "באר שבע",
    "region_en": "Beer Sheva",
    "time": "45 שניות",
    "time_en": "45 seconds",
    "countdown": 45,
    "lat": 31.414435,
    "lng": 34.77579,
    "value": "א זיאדנה צפונית לרהט (באר שבע 286)"
  },
  {
    "name": "א זעיים",
    "name_en": "A-Zaim",
    "zone": "ירושלים 194",
    "zone_en": "Jerusalem 194",
    "codes": [
      194
    ],
    "region": "ירושלים",
    "region_en": "Jerusalem",
    "time": "דקה",
    "time_en": "A minute",
    "countdown": 60,
    "lat": 31.787701,
    "lng": 35.263531,
    "value": "א זעיים (ירושלים 194)"
  },
  {
    "name": "א טבקה",
    "name_en": "A Tabaka",
    "zone": "יהודה 207",
    "zone_en": "Judea 207",
    "codes": [
      207
    ],
    "region": "יהודה",
    "region_en": "Judea",
    "time": "דקה",
    "time_en": "A minute",
    "countdown": 60,
    "lat": 31.49649,
    "lng": 35.016446,
    "value": "א טבקה (יהודה 207)"
  },
  {
    "name": "א טוואני",
    "name_en": "A Tawani",
    "zone": "יהודה 207",
    "zone_en": "Judea 207",
    "codes": [
      207
    ],
    "region": "יהודה",
    "region_en": "Judea",
    "time": "דקה",
    "time_en": "A minute",
    "countdown": 60,
    "lat": 31.4136064,
    "lng": 35.1526535,
    "value": "א טוואני (יהודה 207)"
  },
  {
    "name": "א לובאן",
    "name_en": "A-Luban",
    "zone": "שומרון 123",
    "zone_en": "Samaria 123",
    "codes": [
      123
    ],
    "region": "שומרון",
    "region_en": "Samaria",
    "time": "דקה",
    "time_en": "A minute",
    "countdown": 60,
    "lat": 32.035776,
    "lng": 35.038365,
    "value": "א לובאן (שומרון 123)"
  },
  {
    "name": "א נבארי",
    "name_en": "A Nabari",
    "zone": "נגב 296",
    "zone_en": "Negev 296",
    "codes": [
      296
    ],
    "region": "נגב",
    "region_en": "Negev",
    "time": "דקה",
    "time_en": "A minute",
    "countdown": 60,
    "lat": 31.282467,
    "lng": 34.941101,
    "value": "א נבארי (נגב 296)"
  },
  {
    "name": "א נוואקיר",
    "name_en": "A Nawakir",
    "zone": "קו העימות 15",
    "zone_en": "Confrontation Line 15",
    "codes": [
      15
    ],
    "region": "קו העימות",
    "region_en": "Confrontation Line",
    "time": "מיידי",
    "time_en": "Immediately",
    "countdown": 0,
    "lat": 33.090788,
    "lng": 35.213638,
    "value": "א נוואקיר (קו העימות 15)"
  },
  {
    "name": "א סייד והפזורה",
    "name_en": "Al-Sayyid-al-Sayed",
    "zone": "דרום הנגב 296",
    "zone_en": "Southern Negev 296",
    "codes": [
      296
    ],
    "region": "דרום הנגב",
    "region_en": "Southern Negev",
    "time": "דקה",
    "time_en": "A minute",
    "countdown": 60,
    "lat": 31.281719,
    "lng": 34.916298,
    "value": "א סייד והפזורה (דרום הנגב 296)"
  },
  {
    "name": "א סלבה",
    "name_en": "A-Salva",
    "zone": "קצרין 7",
    "zone_en": "Katzrin 7",
    "codes": [
      7
    ],
    "region": "קצרין",
    "region_en": "Katzrin",
    "time": "15 שניות",
    "time_en": "15 seconds",
    "countdown": 15,
    "lat": 32.929395,
    "lng": 35.71276599999999,
    "value": "א סלבה (קצרין 7)"
  },
  {
    "name": "א ראם",
    "name_en": "A Ram",
    "zone": "שומרון 126",
    "zone_en": "Samaria 126",
    "codes": [
      126
    ],
    "region": "שומרון",
    "region_en": "Samaria",
    "time": "דקה",
    "time_en": "A minute",
    "countdown": 60,
    "lat": 31.849252,
    "lng": 35.233489,
    "value": "א ראם (שומרון 126)"
  },
  {
    "name": "א ראס",
    "name_en": "Ar Ras",
    "zone": "שומרון 120",
    "zone_en": "Samaria 120",
    "codes": [
      120
    ],
    "region": "שומרון",
    "region_en": "Samaria",
    "time": "דקה",
    "time_en": "A minute",
    "countdown": 60,
    "lat": 32.266396,
    "lng": 35.006837,
    "value": "א ראס (שומרון 120)"
  },
  {
    "name": "א ריחייה",
    "name_en": "A Rihayeh",
    "zone": "יהודה 207",
    "zone_en": "Judea 207",
    "codes": [
      207
    ],
    "region": "יהודה",
    "region_en": "Judea",
    "time": "דקה",
    "time_en": "A minute",
    "countdown": 60,
    "lat": 31.470478,
    "lng": 35.078903,
    "value": "א ריחייה (יהודה 207)"
  },
  {
    "name": "א שהאדה",
    "name_en": "Ash Shuhada",
    "zone": "שומרון 119",
    "zone_en": "Samaria 119",
    "codes": [
      119
    ],
    "region": "שומרון",
    "region_en": "Samaria",
    "time": "דקה",
    "time_en": "A minute",
    "countdown": 60,
    "lat": 32.429988,
    "lng": 35.271843,
    "value": "א שהאדה (שומרון 119)"
  },
  {
    "name": "א שויוח",
    "name_en": "A-Shuyukh",
    "zone": "יהודה 206",
    "zone_en": "Judea 206",
    "codes": [
      206
    ],
    "region": "יהודה",
    "region_en": "Judea",
    "time": "דקה",
    "time_en": "A minute",
    "countdown": 60,
    "lat": 31.574996,
    "lng": 35.149421,
    "value": "א שויוח (יהודה 206)"
  },
  {
    "name": "א שייח' אחמד",
    "name_en": "Shachak Industrial Park",
    "zone": "שומרון 121",
    "zone_en": "Samaria 121",
    "codes": [
      121
    ],
    "region": "שומרון",
    "region_en": "Samaria",
    "time": "דקה",
    "time_en": "A minute",
    "countdown": 60,
    "lat": 32.148946,
    "lng": 35.001112,
    "value": "א שייח' אחמד (שומרון 121)"
  },
  {
    "name": "א.ת בראון",
    "name_en": "Baron Industrial Zone",
    "zone": "שומרון 120",
    "zone_en": "Samaria 120",
    "codes": [
      120
    ],
    "region": "שומרון",
    "region_en": "Samaria",
    "time": "דקה",
    "time_en": "A minute",
    "countdown": 60,
    "lat": 32.2840171,
    "lng": 34.8607243,
    "value": "א.ת בראון (שומרון 120)"
  },
  {
    "name": "א.ת תנובות",
    "name_en": "Tnuvot Industrial Park",
    "zone": "עמק חפר 150",
    "zone_en": "Emek Hefer 150",
    "codes": [
      150
    ],
    "region": "עמק חפר",
    "region_en": "Emek Hefer",
    "time": "דקה",
    "time_en": "A minute",
    "countdown": 60,
    "lat": 32.168345,
    "lng": 35.071126,
    "value": "א.ת תנובות (עמק חפר 150)"
  },
  {
    "name": "אבו ג'אבר",
    "name_en": "Abu Jabr",
    "zone": "נגב 287",
    "zone_en": "Negev 287",
    "codes": [
      287
    ],
    "region": "נגב",
    "region_en": "Negev",
    "time": "דקה",
    "time_en": "A minute",
    "countdown": 60,
    "lat": 31.31525999999999,
    "lng": 34.868677,
    "value": "אבו ג'אבר (נגב 287)"
  },
  {
    "name": "אבו ג'ווייעד",
    "name_en": "Abu Ja'wayid",
    "zone": "נגב 299",
    "zone_en": "Negev 299",
    "codes": [
      299
    ],
    "region": "נגב",
    "region_en": "Negev",
    "time": "דקה",
    "time_en": "A minute",
    "countdown": 60,
    "lat": 31.180663,
    "lng": 35.072843,
    "value": "אבו ג'ווייעד (נגב 299)"
  },
  {
    "name": "אבו ג'ויעד",
    "name_en": "Abu Ja'wayid",
    "zone": "נגב 299",
    "zone_en": "Negev 299",
    "codes": [
      299
    ],
    "region": "נגב",
    "region_en": "Negev",
    "time": "דקה",
    "time_en": "A minute",
    "countdown": 60,
    "lat": 31.244839,
    "lng": 35.016059,
    "value": "אבו ג'ויעד (נגב 299)"
  },
  {
    "name": "אבו גוש",
    "name_en": "Abu Gosh",
    "zone": "בית שמש 189",
    "zone_en": "Beit Shemesh 189",
    "codes": [
      189
    ],
    "region": "בית שמש",
    "region_en": "Beit Shemesh",
    "time": "דקה",
    "time_en": "A minute",
    "countdown": 60,
    "lat": 31.806293,
    "lng": 35.109193,
    "value": "אבו גוש (בית שמש 189)"
  },
  {
    "name": "אבו דיאב",
    "name_en": "Abu Diab",
    "zone": "גליל תחתון 63",
    "zone_en": "Lower Galilee 63",
    "codes": [
      63
    ],
    "region": "גליל תחתון",
    "region_en": "Lower Galilee",
    "time": "דקה",
    "time_en": "A minute",
    "countdown": 60,
    "lat": 32.76924400000001,
    "lng": 35.17954400000001,
    "value": "אבו דיאב (גליל תחתון 63)"
  },
  {
    "name": "אבו דיס",
    "name_en": "Abu Dis",
    "zone": "ירושלים 194",
    "zone_en": "Jerusalem 194",
    "codes": [
      194
    ],
    "region": "ירושלים",
    "region_en": "Jerusalem",
    "time": "דקה",
    "time_en": "A minute",
    "countdown": 60,
    "lat": 31.763582,
    "lng": 35.257722,
    "value": "אבו דיס (ירושלים 194)"
  },
  {
    "name": "אבו טראש",
    "name_en": "Abu Tarash",
    "zone": "נגב 287",
    "zone_en": "Negev 287",
    "codes": [
      287
    ],
    "region": "נגב",
    "region_en": "Negev",
    "time": "דקה",
    "time_en": "A minute",
    "countdown": 60,
    "lat": 31.289045,
    "lng": 34.854024,
    "value": "אבו טראש (נגב 287)"
  },
  {
    "name": "אבו כף אום בטין",
    "name_en": "Umm Batin",
    "zone": "נגב 287",
    "zone_en": "Negev 287",
    "codes": [
      287
    ],
    "region": "נגב",
    "region_en": "Negev",
    "time": "דקה",
    "time_en": "A minute",
    "countdown": 60,
    "lat": 31.27674369999999,
    "lng": 34.8829215,
    "shelters": 4,
    "value": "אבו כף אום בטין (נגב 287)"
  },
  {
    "name": "אבו נוג'ים",
    "name_en": "Abu Nojim",
    "zone": "יהודה 200",
    "zone_en": "Judea 200",
    "codes": [
      200
    ],
    "region": "יהודה",
    "region_en": "Judea",
    "time": "דקה",
    "time_en": "A minute",
    "countdown": 60,
    "lat": 31.66192,
    "lng": 35.199291,
    "value": "אבו נוג'ים (יהודה 200)"
  },
  {
    "name": "אבו סלמאן",
    "name_en": "Barkan Industrial Park",
    "zone": "שומרון 121",
    "zone_en": "Samaria 121",
    "codes": [
      121
    ],
    "region": "שומרון",
    "region_en": "Samaria",
    "time": "דקה",
    "time_en": "A minute",
    "countdown": 60,
    "lat": 32.140361,
    "lng": 34.998989,
    "value": "אבו סלמאן (שומרון 121)"
  },
  {
    "name": "אבו סנאן",
    "name_en": "Abu S'nen",
    "zone": "גליל עליון 38",
    "zone_en": "Upper Galilee 38",
    "codes": [
      38
    ],
    "region": "גליל עליון",
    "region_en": "Upper Galilee",
    "time": "30 שניות",
    "time_en": "30 seconds",
    "countdown": 90,
    "lat": 32.95803,
    "lng": 35.171969,
    "value": "אבו סנאן (גליל עליון 38)"
  },
  {
    "name": "אבו סריחאן",
    "name_en": "Abu Srikhan",
    "zone": "נגב 287",
    "zone_en": "Negev 287",
    "codes": [
      287
    ],
    "region": "נגב",
    "region_en": "Negev",
    "time": "דקה",
    "time_en": "A minute",
    "countdown": 60,
    "lat": 31.254333,
    "lng": 34.881407,
    "value": "אבו סריחאן (נגב 287)"
  },
  {
    "name": "אבו עבדון",
    "name_en": "Abu Abdun",
    "zone": "נגב 287",
    "zone_en": "Negev 287",
    "codes": [
      287
    ],
    "region": "נגב",
    "region_en": "Negev",
    "time": "דקה",
    "time_en": "A minute",
    "countdown": 60,
    "lat": 31.30139699999999,
    "lng": 34.841655,
    "value": "אבו עבדון (נגב 287)"
  },
  {
    "name": "אבו עמאר",
    "name_en": "Abu Amar",
    "zone": "נגב 287",
    "zone_en": "Negev 287",
    "codes": [
      287
    ],
    "region": "נגב",
    "region_en": "Negev",
    "time": "דקה",
    "time_en": "A minute",
    "countdown": 60,
    "lat": 31.138356,
    "lng": 34.954032,
    "value": "אבו עמאר (נגב 287)"
  },
  {
    "name": "אבו עסא",
    "name_en": "Abu Assa",
    "zone": "נגב 287",
    "zone_en": "Negev 287",
    "codes": [
      287
    ],
    "region": "נגב",
    "region_en": "Negev",
    "time": "דקה",
    "time_en": "A minute",
    "countdown": 60,
    "lat": 31.250246,
    "lng": 34.873389,
    "value": "אבו עסא (נגב 287)"
  },
  {
    "name": "אבו עפאש",
    "name_en": "Abu Afash",
    "zone": "נגב 300",
    "zone_en": "Negev 300",
    "codes": [
      300
    ],
    "region": "נגב",
    "region_en": "Negev",
    "time": "דקה",
    "time_en": "A minute",
    "countdown": 60,
    "lat": 31.15986,
    "lng": 34.808983,
    "value": "אבו עפאש (נגב 300)"
  },
  {
    "name": "אבו קוידר",
    "name_en": "Abu Koidar",
    "zone": "נגב 297",
    "zone_en": "Negev 297",
    "codes": [
      297
    ],
    "region": "נגב",
    "region_en": "Negev",
    "time": "דקה",
    "time_en": "A minute",
    "countdown": 60,
    "lat": 31.206836,
    "lng": 34.923483,
    "value": "אבו קוידר (נגב 297)"
  },
  {
    "name": "אבו קורינאת והפזורה",
    "name_en": "Abu Kurinat",
    "zone": "דרום הנגב 301",
    "zone_en": "Southern Negev 301",
    "codes": [
      301
    ],
    "region": "דרום הנגב",
    "region_en": "Southern Negev",
    "time": "דקה",
    "time_en": "A minute",
    "countdown": 60,
    "lat": 31.103115,
    "lng": 34.952003,
    "value": "אבו קורינאת והפזורה (דרום הנגב 301)"
  },
  {
    "name": "אבו קש",
    "name_en": "Abu Kash",
    "zone": "שומרון 126",
    "zone_en": "Samaria 126",
    "codes": [
      126
    ],
    "region": "שומרון",
    "region_en": "Samaria",
    "time": "דקה",
    "time_en": "A minute",
    "countdown": 60,
    "lat": 31.3409594,
    "lng": 35.1009942,
    "value": "אבו קש (שומרון 126)"
  },
  {
    "name": "אבו רביעה",
    "name_en": "Aby Rabiya",
    "zone": "נגב 299",
    "zone_en": "Negev 299",
    "codes": [
      299
    ],
    "region": "נגב",
    "region_en": "Negev",
    "time": "דקה",
    "time_en": "A minute",
    "countdown": 60,
    "lat": 31.230811,
    "lng": 35.064209,
    "value": "אבו רביעה (נגב 299)"
  },
  {
    "name": "אבו רביעה צפונית לכסיפה",
    "name_en": "Abu Rabiya North of Kasifa",
    "zone": "נגב 299",
    "zone_en": "Negev 299",
    "codes": [
      299
    ],
    "region": "נגב",
    "region_en": "Negev",
    "time": "דקה",
    "time_en": "A minute",
    "countdown": 60,
    "lat": 31.282016,
    "lng": 35.039105,
    "value": "אבו רביעה צפונית לכסיפה (נגב 299)"
  },
  {
    "name": "אבו ריקייק",
    "name_en": "Abu Rekaiek",
    "zone": "נגב 287",
    "zone_en": "Negev 287",
    "codes": [
      287
    ],
    "region": "נגב",
    "region_en": "Negev",
    "time": "דקה",
    "time_en": "A minute",
    "countdown": 60,
    "lat": 31.3409594,
    "lng": 35.1009942,
    "value": "אבו ריקייק (נגב 287)"
  },
  {
    "name": "אבו שחידם",
    "name_en": "Abu Shahidim",
    "zone": "שומרון 126",
    "zone_en": "Samaria 126",
    "codes": [
      126
    ],
    "region": "שומרון",
    "region_en": "Samaria",
    "time": "דקה",
    "time_en": "A minute",
    "countdown": 60,
    "lat": 31.3409594,
    "lng": 35.1009942,
    "value": "אבו שחידם (שומרון 126)"
  },
  {
    "name": "אבו תלול והפזורה",
    "name_en": "Abu Talul",
    "zone": "דרום הנגב 297",
    "zone_en": "Southern Negev 297",
    "codes": [
      297
    ],
    "region": "דרום הנגב",
    "region_en": "Southern Negev",
    "time": "דקה",
    "time_en": "A minute",
    "countdown": 60,
    "lat": 31.142612,
    "lng": 34.913514,
    "value": "אבו תלול והפזורה (דרום הנגב 297)"
  },
  {
    "name": "אבטין",
    "name_en": "Abatin",
    "zone": "הקריות 86",
    "zone_en": "Krayot 86",
    "codes": [
      86
    ],
    "region": "הקריות",
    "region_en": "Krayot",
    "time": "דקה",
    "time_en": "A minute",
    "countdown": 60,
    "lat": 32.759963,
    "lng": 35.114601,
    "value": "אבטין (הקריות 86)"
  },
  {
    "name": "אבטליון",
    "name_en": "Avtalion",
    "zone": "גליל תחתון 60",
    "zone_en": "Lower Galilee 60",
    "codes": [
      60
    ],
    "region": "גליל תחתון",
    "region_en": "Lower Galilee",
    "time": "דקה",
    "time_en": "A minute",
    "countdown": 60,
    "lat": 32.835781,
    "lng": 35.350442,
    "value": "אבטליון (גליל תחתון 60)"
  },
  {
    "name": "אביאל",
    "name_en": "Aviel",
    "zone": "מנשה 104",
    "zone_en": "Menashe 104",
    "codes": [
      104
    ],
    "region": "מנשה",
    "region_en": "Menashe",
    "time": "דקה",
    "time_en": "A minute",
    "countdown": 60,
    "lat": 32.531346,
    "lng": 34.993493,
    "value": "אביאל (מנשה 104)"
  },
  {
    "name": "אביבים",
    "name_en": "Avivim",
    "zone": "קו העימות 22",
    "zone_en": "Confrontation Line 22",
    "codes": [
      22
    ],
    "region": "קו העימות",
    "region_en": "Confrontation Line",
    "time": "מיידי",
    "time_en": "Immediately",
    "countdown": 0,
    "lat": 33.089381,
    "lng": 35.470338,
    "value": "אביבים (קו העימות 22)"
  },
  {
    "name": "אביגדור",
    "name_en": "Avigdor",
    "zone": "לכיש 275",
    "zone_en": "Lakhish 275",
    "codes": [
      275
    ],
    "region": "לכיש",
    "region_en": "Lakhish",
    "time": "45 שניות",
    "time_en": "45 seconds",
    "countdown": 45,
    "lat": 31.711901,
    "lng": 34.740369,
    "value": "אביגדור (לכיש 275)"
  },
  {
    "name": "אביחיל",
    "name_en": "Avihail",
    "zone": "שרון 138",
    "zone_en": "Sharon 138",
    "codes": [
      138
    ],
    "region": "שרון",
    "region_en": "Sharon",
    "time": "דקה",
    "time_en": "A minute",
    "countdown": 60,
    "lat": 32.350708,
    "lng": 34.871229,
    "value": "אביחיל (שרון 138)"
  },
  {
    "name": "אביטל",
    "name_en": "Avital",
    "zone": "עמק יזרעאל 93",
    "zone_en": "Jezreel Valley 93",
    "codes": [
      93
    ],
    "region": "עמק יזרעאל",
    "region_en": "Jezreel Valley",
    "time": "דקה",
    "time_en": "A minute",
    "countdown": 60,
    "lat": 32.557676,
    "lng": 35.306412,
    "value": "אביטל (עמק יזרעאל 93)"
  },
  {
    "name": "אביעזר",
    "name_en": "Aviezer",
    "zone": "בית שמש 188",
    "zone_en": "Beit Shemesh 188",
    "codes": [
      188
    ],
    "region": "בית שמש",
    "region_en": "Beit Shemesh",
    "time": "דקה",
    "time_en": "A minute",
    "countdown": 60,
    "lat": 31.681996,
    "lng": 35.018821,
    "value": "אביעזר (בית שמש 188)"
  },
  {
    "name": "אבירים",
    "name_en": "Abirim",
    "zone": "קו העימות 17",
    "zone_en": "Confrontation Line 17",
    "codes": [
      17
    ],
    "region": "קו העימות",
    "region_en": "Confrontation Line",
    "time": "מיידי",
    "time_en": "Immediately",
    "countdown": 0,
    "lat": 33.038086,
    "lng": 35.286044,
    "value": "אבירים (קו העימות 17)"
  },
  {
    "name": "אבן יהודה",
    "name_en": "Even Yehudah",
    "zone": "שרון 142",
    "zone_en": "Sharon 142",
    "codes": [
      142
    ],
    "region": "שרון",
    "region_en": "Sharon",
    "time": "דקה",
    "time_en": "A minute",
    "countdown": 60,
    "lat": 32.276648,
    "lng": 34.885087,
    "value": "אבן יהודה (שרון 142)"
  },
  {
    "name": "אבן מנחם",
    "name_en": "Even Menachem",
    "zone": "קו העימות 16",
    "zone_en": "Confrontation Line 16",
    "codes": [
      16
    ],
    "region": "קו העימות",
    "region_en": "Confrontation Line",
    "time": "מיידי",
    "time_en": "Immediately",
    "countdown": 0,
    "lat": 33.075143,
    "lng": 35.295219,
    "value": "אבן מנחם (קו העימות 16)"
  },
  {
    "name": "אבן ספיר",
    "name_en": "Even Sapir",
    "zone": "בית שמש 191",
    "zone_en": "Beit Shemesh 191",
    "codes": [
      191
    ],
    "region": "בית שמש",
    "region_en": "Beit Shemesh",
    "time": "דקה",
    "time_en": "A minute",
    "countdown": 60,
    "lat": 31.7625,
    "lng": 35.134991,
    "value": "אבן ספיר (בית שמש 191)"
  },
  {
    "name": "אבן שמואל",
    "name_en": "Even Shmuel",
    "zone": "לכיש 281",
    "zone_en": "Lakhish 281",
    "codes": [
      281
    ],
    "region": "לכיש",
    "region_en": "Lakhish",
    "time": "30 שניות",
    "time_en": "30 seconds",
    "countdown": 90,
    "lat": 31.576429,
    "lng": 34.762963,
    "value": "אבן שמואל (לכיש 281)"
  },
  {
    "name": "אבני איתן",
    "name_en": "Avnei Eitan",
    "zone": "גולן 5",
    "zone_en": "Golan 5",
    "codes": [
      5
    ],
    "region": "גולן",
    "region_en": "Golan",
    "time": "מיידי",
    "time_en": "Immediately",
    "countdown": 0,
    "lat": 32.824808,
    "lng": 35.765777,
    "value": "אבני איתן (גולן 5)"
  },
  {
    "name": "אבני חפץ",
    "name_en": "Avnei Hefetz",
    "zone": "שומרון 120",
    "zone_en": "Samaria 120",
    "codes": [
      120
    ],
    "region": "שומרון",
    "region_en": "Samaria",
    "time": "דקה",
    "time_en": "A minute",
    "countdown": 60,
    "lat": 32.284628,
    "lng": 35.074551,
    "value": "אבני חפץ (שומרון 120)"
  },
  {
    "name": "אבנת",
    "name_en": "Avnat",
    "zone": "ים המלח 210",
    "zone_en": "Dead Sea 210",
    "codes": [
      210
    ],
    "region": "ים המלח",
    "region_en": "Dead Sea",
    "time": "דקה",
    "time_en": "A minute",
    "countdown": 60,
    "lat": 31.679039,
    "lng": 35.436945,
    "value": "אבנת (ים המלח 210)"
  },
  {
    "name": "אבשלום",
    "name_en": "Avshalom",
    "zone": "עוטף עזה 238",
    "zone_en": "Gaza Containment Zone 238",
    "codes": [
      238
    ],
    "region": "עוטף עזה",
    "region_en": "Gaza Containment Zone",
    "time": "15 שניות",
    "time_en": "15 seconds",
    "countdown": 15,
    "lat": 31.195397,
    "lng": 34.3312,
    "value": "אבשלום (עוטף עזה 238)"
  },
  {
    "name": "אדורה",
    "name_en": "Adurah",
    "zone": "יהודה 207",
    "zone_en": "Judea 207",
    "codes": [
      207
    ],
    "region": "יהודה",
    "region_en": "Judea",
    "time": "דקה",
    "time_en": "A minute",
    "countdown": 60,
    "lat": 31.552219,
    "lng": 35.017634,
    "value": "אדורה (יהודה 207)"
  },
  {
    "name": "אדירים",
    "name_en": "Adirim",
    "zone": "עמק יזרעאל 93",
    "zone_en": "Jezreel Valley 93",
    "codes": [
      93
    ],
    "region": "עמק יזרעאל",
    "region_en": "Jezreel Valley",
    "time": "דקה",
    "time_en": "A minute",
    "countdown": 60,
    "lat": 32.54894100000001,
    "lng": 35.271637,
    "value": "אדירים (עמק יזרעאל 93)"
  },
  {
    "name": "אדם",
    "name_en": "Adam",
    "zone": "בקעה 133",
    "zone_en": "Syro-African Rift 133",
    "codes": [
      133
    ],
    "region": "בקעה",
    "region_en": "Syro-African Rift",
    "time": "דקה",
    "time_en": "A minute",
    "countdown": 60,
    "lat": 32.0507687,
    "lng": 34.7548459,
    "value": "אדם (בקעה 133)"
  },
  {
    "name": "אדמית",
    "name_en": "Admit",
    "zone": "קו העימות 15",
    "zone_en": "Confrontation Line 15",
    "codes": [
      15
    ],
    "region": "קו העימות",
    "region_en": "Confrontation Line",
    "time": "מיידי",
    "time_en": "Immediately",
    "countdown": 0,
    "lat": 33.078842,
    "lng": 35.20951,
    "value": "אדמית (קו העימות 15)"
  },
  {
    "name": "אדרת",
    "name_en": "Aderet",
    "zone": "בית שמש 188",
    "zone_en": "Beit Shemesh 188",
    "codes": [
      188
    ],
    "region": "בית שמש",
    "region_en": "Beit Shemesh",
    "time": "דקה",
    "time_en": "A minute",
    "countdown": 60,
    "lat": 31.659715,
    "lng": 34.99444,
    "value": "אדרת (בית שמש 188)"
  },
  {
    "name": "אודים",
    "name_en": "Udim",
    "zone": "שרון 142",
    "zone_en": "Sharon 142",
    "codes": [
      142
    ],
    "region": "שרון",
    "region_en": "Sharon",
    "time": "דקה",
    "time_en": "A minute",
    "countdown": 60,
    "lat": 32.266865,
    "lng": 34.846995,
    "value": "אודים (שרון 142)"
  },
  {
    "name": "אודלה",
    "name_en": "Odela",
    "zone": "שומרון 120",
    "zone_en": "Samaria 120",
    "codes": [
      120
    ],
    "region": "שומרון",
    "region_en": "Samaria",
    "time": "דקה",
    "time_en": "A minute",
    "countdown": 60,
    "lat": 32.0828285,
    "lng": 34.7712664,
    "value": "אודלה (שומרון 120)"
  },
  {
    "name": "אודם",
    "name_en": "Odem",
    "zone": "גולן 2",
    "zone_en": "Golan 2",
    "codes": [
      2
    ],
    "region": "גולן",
    "region_en": "Golan",
    "time": "מיידי",
    "time_en": "Immediately",
    "countdown": 0,
    "lat": 33.1933716,
    "lng": 35.7495651,
    "value": "אודם (גולן 2)"
  },
  {
    "name": "אוהד",
    "name_en": "Ohad",
    "zone": "מרכז הנגב 234",
    "zone_en": "Central Negev 234",
    "codes": [
      234
    ],
    "region": "מרכז הנגב",
    "region_en": "Central Negev",
    "time": "15 שניות",
    "time_en": "15 seconds",
    "countdown": 15,
    "lat": 31.238436,
    "lng": 34.431893,
    "value": "אוהד (מרכז הנגב 234)"
  },
  {
    "name": "אוהלו",
    "name_en": "Ohalo",
    "zone": "תבור 98",
    "zone_en": "Tabor 98",
    "codes": [
      98
    ],
    "region": "תבור",
    "region_en": "Tabor",
    "time": "דקה",
    "time_en": "A minute",
    "countdown": 60,
    "lat": 32.71588,
    "lng": 35.572916,
    "value": "אוהלו (תבור 98)"
  },
  {
    "name": "אולפני נווה אילן",
    "name_en": "Ulpanei Nave Ilan",
    "zone": "בית שמש 189",
    "zone_en": "Beit Shemesh 189",
    "codes": [
      189
    ],
    "region": "בית שמש",
    "region_en": "Beit Shemesh",
    "time": "דקה",
    "time_en": "A minute",
    "countdown": 60,
    "lat": 31.807585,
    "lng": 35.080922,
    "value": "אולפני נווה אילן (בית שמש 189)"
  },
  {
    "name": "אום א טלע",
    "name_en": "Umm Et-Tala",
    "zone": "יהודה 200",
    "zone_en": "Judea 200",
    "codes": [
      200
    ],
    "region": "יהודה",
    "region_en": "Judea",
    "time": "דקה",
    "time_en": "A minute",
    "countdown": 60,
    "lat": 31.696829,
    "lng": 35.262868,
    "value": "אום א טלע (יהודה 200)"
  },
  {
    "name": "אום א סח'אלי",
    "name_en": "Umm Al Sahali",
    "zone": "גליל תחתון 63",
    "zone_en": "Lower Galilee 63",
    "codes": [
      63
    ],
    "region": "גליל תחתון",
    "region_en": "Lower Galilee",
    "time": "דקה",
    "time_en": "A minute",
    "countdown": 60,
    "lat": 32.77055,
    "lng": 35.177513,
    "value": "אום א סח'אלי (גליל תחתון 63)"
  },
  {
    "name": "אום א ריחאן",
    "name_en": "Um A-Reihan",
    "zone": "שומרון 118",
    "zone_en": "Samaria 118",
    "codes": [
      118
    ],
    "region": "שומרון",
    "region_en": "Samaria",
    "time": "דקה",
    "time_en": "A minute",
    "countdown": 60,
    "lat": 32.4834036,
    "lng": 35.14165670000001,
    "value": "אום א ריחאן (שומרון 118)"
  },
  {
    "name": "אום א תות",
    "name_en": "Umm A Tut",
    "zone": "שומרון 119",
    "zone_en": "Samaria 119",
    "codes": [
      119
    ],
    "region": "שומרון",
    "region_en": "Samaria",
    "time": "דקה",
    "time_en": "A minute",
    "countdown": 60,
    "lat": 32.431732,
    "lng": 35.344147,
    "value": "אום א תות (שומרון 119)"
  },
  {
    "name": "אום אל פחם",
    "name_en": "Umm El Faham",
    "zone": "ואדי ערה 113",
    "zone_en": "Wadi Ara 113",
    "codes": [
      113
    ],
    "region": "ואדי ערה",
    "region_en": "Wadi Ara",
    "time": "דקה",
    "time_en": "A minute",
    "countdown": 60,
    "lat": 32.517127,
    "lng": 35.148529,
    "value": "אום אל פחם (ואדי ערה 113)"
  },
  {
    "name": "אום אל קוטוף",
    "name_en": "Umm El Qutuf",
    "zone": "ואדי ערה 112",
    "zone_en": "Wadi Ara 112",
    "codes": [
      112
    ],
    "region": "ואדי ערה",
    "region_en": "Wadi Ara",
    "time": "דקה",
    "time_en": "A minute",
    "countdown": 60,
    "lat": 32.468084,
    "lng": 35.059149,
    "value": "אום אל קוטוף (ואדי ערה 112)"
  },
  {
    "name": "אום בטין והפזורה",
    "name_en": "Umm Batin",
    "zone": "דרום הנגב 297",
    "zone_en": "Southern Negev 297",
    "codes": [
      297
    ],
    "region": "דרום הנגב",
    "region_en": "Southern Negev",
    "time": "דקה",
    "time_en": "A minute",
    "countdown": 60,
    "lat": 31.27674369999999,
    "lng": 34.8829215,
    "shelters": 4,
    "value": "אום בטין והפזורה (דרום הנגב 297)"
  },
  {
    "name": "אום דאר",
    "name_en": "Um Dahr",
    "zone": "שומרון 118",
    "zone_en": "Samaria 118",
    "codes": [
      118
    ],
    "region": "שומרון",
    "region_en": "Samaria",
    "time": "דקה",
    "time_en": "A minute",
    "countdown": 60,
    "lat": 32.457529,
    "lng": 35.138167,
    "value": "אום דאר (שומרון 118)"
  },
  {
    "name": "אום סלמונה",
    "name_en": "Um Salmona",
    "zone": "יהודה 200",
    "zone_en": "Judea 200",
    "codes": [
      200
    ],
    "region": "יהודה",
    "region_en": "Judea",
    "time": "דקה",
    "time_en": "A minute",
    "countdown": 60,
    "lat": 31.645665,
    "lng": 35.165229,
    "value": "אום סלמונה (יהודה 200)"
  },
  {
    "name": "אום ספא",
    "name_en": "Umm Safa",
    "zone": "שומרון 124",
    "zone_en": "Samaria 124",
    "codes": [
      124
    ],
    "region": "שומרון",
    "region_en": "Samaria",
    "time": "דקה",
    "time_en": "A minute",
    "countdown": 60,
    "lat": 31.046051,
    "lng": 34.851612,
    "value": "אום ספא (שומרון 124)"
  },
  {
    "name": "אום עלאס",
    "name_en": "Umm Alas",
    "zone": "יהודה 188",
    "zone_en": "Judea 188",
    "codes": [
      188
    ],
    "region": "יהודה",
    "region_en": "Judea",
    "time": "דקה וחצי",
    "time_en": "A minute and a half",
    "countdown": 90,
    "lat": 31.602078,
    "lng": 35.012471,
    "value": "אום עלאס (יהודה 188)"
  },
  {
    "name": "אום עסלה",
    "name_en": "Um Asla",
    "zone": "יהודה 200",
    "zone_en": "Judea 200",
    "codes": [
      200
    ],
    "region": "יהודה",
    "region_en": "Judea",
    "time": "דקה",
    "time_en": "A minute",
    "countdown": 60,
    "lat": 31.699141,
    "lng": 35.281913,
    "value": "אום עסלה (יהודה 200)"
  },
  {
    "name": "אומן",
    "name_en": "Oman",
    "zone": "עמק יזרעאל 93",
    "zone_en": "Jezreel Valley 93",
    "codes": [
      93
    ],
    "region": "עמק יזרעאל",
    "region_en": "Jezreel Valley",
    "time": "דקה",
    "time_en": "A minute",
    "countdown": 60,
    "lat": 32.564279,
    "lng": 35.241941,
    "value": "אומן (עמק יזרעאל 93)"
  },
  {
    "name": "אומץ",
    "name_en": "Ometz",
    "zone": "חפר 148",
    "zone_en": "Hefer 148",
    "codes": [
      148
    ],
    "region": "חפר",
    "region_en": "Hefer",
    "time": "דקה",
    "time_en": "A minute",
    "countdown": 60,
    "lat": 32.369216,
    "lng": 34.993129,
    "value": "אומץ (חפר 148)"
  },
  {
    "name": "אופקים",
    "name_en": "Ofakim",
    "zone": "מרכז הנגב 288",
    "zone_en": "Central Negev 288",
    "codes": [
      288
    ],
    "region": "מרכז הנגב",
    "region_en": "Central Negev",
    "time": "45 שניות",
    "time_en": "45 seconds",
    "countdown": 45,
    "lat": 31.311337,
    "lng": 34.622824,
    "value": "אופקים (מרכז הנגב 288)"
  },
  {
    "name": "אור הגנוז",
    "name_en": "Or Haganuz",
    "zone": "גליל עליון 44",
    "zone_en": "Upper Galilee 44",
    "codes": [
      44
    ],
    "region": "גליל עליון",
    "region_en": "Upper Galilee",
    "time": "30 שניות",
    "time_en": "30 seconds",
    "countdown": 90,
    "lat": 33.005183,
    "lng": 35.446736,
    "value": "אור הגנוז (גליל עליון 44)"
  },
  {
    "name": "אור הנר",
    "name_en": "Or HaNer",
    "zone": "עוטף עזה 219",
    "zone_en": "Gaza Containment Zone 219",
    "codes": [
      219
    ],
    "region": "עוטף עזה",
    "region_en": "Gaza Containment Zone",
    "time": "15 שניות",
    "time_en": "15 seconds",
    "countdown": 15,
    "lat": 31.556197,
    "lng": 34.602305,
    "value": "אור הנר (עוטף עזה 219)"
  },
  {
    "name": "אור יהודה",
    "name_en": "Or Yehuda",
    "zone": "דן 161",
    "zone_en": "Dan 161",
    "codes": [
      161
    ],
    "region": "דן",
    "region_en": "Dan",
    "time": "דקה",
    "time_en": "A minute",
    "countdown": 60,
    "lat": 32.029748,
    "lng": 34.85617300000001,
    "value": "אור יהודה (דן 161)"
  },
  {
    "name": "אור עקיבא",
    "name_en": "Or Akiva",
    "zone": "מנשה 105",
    "zone_en": "Menashe 105",
    "codes": [
      105
    ],
    "region": "מנשה",
    "region_en": "Menashe",
    "time": "דקה",
    "time_en": "A minute",
    "countdown": 60,
    "lat": 32.509965,
    "lng": 34.920394,
    "value": "אור עקיבא (מנשה 105)"
  },
  {
    "name": "אורה",
    "name_en": "Ora",
    "zone": "בית שמש 191",
    "zone_en": "Beit Shemesh 191",
    "codes": [
      191
    ],
    "region": "בית שמש",
    "region_en": "Beit Shemesh",
    "time": "דקה",
    "time_en": "A minute",
    "countdown": 60,
    "lat": 31.752109,
    "lng": 35.150165,
    "value": "אורה (בית שמש 191)"
  },
  {
    "name": "אורון",
    "name_en": "Oron",
    "zone": "דרום הנגב 301",
    "zone_en": "Southern Negev 301",
    "codes": [
      301
    ],
    "region": "דרום הנגב",
    "region_en": "Southern Negev",
    "time": "דקה",
    "time_en": "A minute",
    "countdown": 60,
    "lat": 30.910143,
    "lng": 35.017804,
    "value": "אורון (דרום הנגב 301)"
  },
  {
    "name": "אורות",
    "name_en": "Orot",
    "zone": "לכיש 275",
    "zone_en": "Lakhish 275",
    "codes": [
      275
    ],
    "region": "לכיש",
    "region_en": "Lakhish",
    "time": "45 שניות",
    "time_en": "45 seconds",
    "countdown": 45,
    "lat": 31.740364,
    "lng": 34.7356,
    "value": "אורות (לכיש 275)"
  },
  {
    "name": "אורטל",
    "name_en": "Ortal",
    "zone": "גולן 3",
    "zone_en": "Golan 3",
    "codes": [
      3
    ],
    "region": "גולן",
    "region_en": "Golan",
    "time": "מיידי",
    "time_en": "Immediately",
    "countdown": 0,
    "lat": 33.086236,
    "lng": 35.758661,
    "value": "אורטל (גולן 3)"
  },
  {
    "name": "אורים",
    "name_en": "Orim",
    "zone": "מרכז הנגב 256",
    "zone_en": "Central Negev 256",
    "codes": [
      256
    ],
    "region": "מרכז הנגב",
    "region_en": "Central Negev",
    "time": "30 שניות",
    "time_en": "30 seconds",
    "countdown": 90,
    "lat": 31.304094,
    "lng": 34.524868,
    "value": "אורים (מרכז הנגב 256)"
  },
  {
    "name": "אורנים",
    "name_en": "Oranim",
    "zone": "הקריות 86",
    "zone_en": "Krayot 86",
    "codes": [
      86
    ],
    "region": "הקריות",
    "region_en": "Krayot",
    "time": "דקה",
    "time_en": "A minute",
    "countdown": 60,
    "lat": 32.711224,
    "lng": 35.109579,
    "value": "אורנים (הקריות 86)"
  },
  {
    "name": "אורנית",
    "name_en": "Oranit",
    "zone": "שרון 143",
    "zone_en": "Sharon 143",
    "codes": [
      143
    ],
    "region": "שרון",
    "region_en": "Sharon",
    "time": "דקה",
    "time_en": "A minute",
    "countdown": 60,
    "lat": 32.131924,
    "lng": 34.99081,
    "value": "אורנית (שרון 143)"
  },
  {
    "name": "אושה",
    "name_en": "Usha",
    "zone": "הקריות 71",
    "zone_en": "Hakrayot 71",
    "codes": [
      71
    ],
    "region": "הקריות",
    "region_en": "Hakrayot",
    "time": "דקה",
    "time_en": "A minute",
    "countdown": 60,
    "lat": 32.796458,
    "lng": 35.114584,
    "value": "אושה (הקריות 71)"
  },
  {
    "name": "אזור",
    "name_en": "Azur",
    "zone": "דן 162",
    "zone_en": "Dan 162",
    "codes": [
      162
    ],
    "region": "דן",
    "region_en": "Dan",
    "time": "דקה",
    "time_en": "A minute",
    "countdown": 60,
    "lat": 32.029558,
    "lng": 34.799648,
    "value": "אזור (דן 162)"
  },
  {
    "name": "אזור תעסוקה מיתרים",
    "name_en": "Metarim Employment Region",
    "zone": "יהודה 207",
    "zone_en": "Judea 207",
    "codes": [
      207
    ],
    "region": "יהודה",
    "region_en": "Judea",
    "time": "דקה",
    "time_en": "A minute",
    "countdown": 60,
    "lat": 31.327011,
    "lng": 34.943213,
    "value": "אזור תעסוקה מיתרים (יהודה 207)"
  },
  {
    "name": "אזור תעשיות צבאים",
    "name_en": "Military Industrial Area",
    "zone": "בקעת בית שאן 128",
    "zone_en": "Beit Sha'an Valley 128",
    "codes": [
      128
    ],
    "region": "בקעת בית שאן",
    "region_en": "Beit Sha'an Valley",
    "time": "דקה",
    "time_en": "A minute",
    "countdown": 60,
    "lat": 32.542374,
    "lng": 35.503156,
    "value": "אזור תעשיות צבאים (בקעת בית שאן 128)"
  },
  {
    "name": "אזור תעשייה אכזיב מילואות",
    "name_en": "Achziv Miluot Industrial Area",
    "zone": "קו העימות 14",
    "zone_en": "Confrontation Line 14",
    "codes": [
      14
    ],
    "region": "קו העימות",
    "region_en": "Confrontation Line",
    "time": "מיידי",
    "time_en": "Immediately",
    "countdown": 0,
    "lat": 33.068374,
    "lng": 35.110211,
    "value": "אזור תעשייה אכזיב מילואות (קו העימות 14)"
  },
  {
    "name": "אזור תעשייה אלון התבור",
    "name_en": "Alon Tabor Industrial Park",
    "zone": "עמק יזרעאל 90",
    "zone_en": "Jezreel Valley 90",
    "codes": [
      90
    ],
    "region": "עמק יזרעאל",
    "region_en": "Jezreel Valley",
    "time": "דקה",
    "time_en": "A minute",
    "countdown": 60,
    "lat": 32.635176,
    "lng": 35.362307,
    "value": "אזור תעשייה אלון התבור (עמק יזרעאל 90)"
  },
  {
    "name": "אזור תעשייה בני יהודה",
    "name_en": "Bnei Yehudah Industrial Park",
    "zone": "גולן 2",
    "zone_en": "Golan 2",
    "codes": [
      2
    ],
    "region": "גולן",
    "region_en": "Golan",
    "time": "מיידי",
    "time_en": "Immediately",
    "countdown": 0,
    "lat": 32.798262,
    "lng": 35.69107,
    "value": "אזור תעשייה בני יהודה (גולן 2)"
  },
  {
    "name": "אזור תעשייה נ.ע.מ",
    "name_en": "N.A.M. Industrial Park",
    "zone": "אשקלון 254",
    "zone_en": "Ashkelon 254",
    "codes": [
      254
    ],
    "region": "אשקלון",
    "region_en": "Ashkelon",
    "time": "30 שניות",
    "time_en": "30 seconds",
    "countdown": 90,
    "lat": 31.415082,
    "lng": 34.614484,
    "value": "אזור תעשייה נ.ע.מ (אשקלון 254)"
  },
  {
    "name": "אזור תעשייה נעמן",
    "name_en": "Naaman Industrial Zone",
    "zone": "הקריות 70",
    "zone_en": "Hakrayot 70",
    "codes": [
      70
    ],
    "region": "הקריות",
    "region_en": "Hakrayot",
    "time": "דקה",
    "time_en": "A minute",
    "countdown": 60,
    "lat": 32.882892,
    "lng": 35.093887,
    "value": "אזור תעשייה נעמן (הקריות 70)"
  },
  {
    "name": "אזור תעשייה רמת בקע",
    "name_en": "Ramat Beka Industrial Zone",
    "zone": "נגב 300",
    "zone_en": "Negev 300",
    "codes": [
      300
    ],
    "region": "נגב",
    "region_en": "Negev",
    "time": "דקה",
    "time_en": "A minute",
    "countdown": 60,
    "lat": 31.046051,
    "lng": 34.851612,
    "value": "אזור תעשייה רמת בקע (נגב 300)"
  },
  {
    "name": "אזור תעשייה שגיא 2000",
    "name_en": "Saghi 2000 Industrial Park",
    "zone": "עמק יזרעאל 87",
    "zone_en": "Jezreel Valley 87",
    "codes": [
      87
    ],
    "region": "עמק יזרעאל",
    "region_en": "Jezreel Valley",
    "time": "דקה",
    "time_en": "A minute",
    "countdown": 60,
    "lat": 32.655251,
    "lng": 35.238152,
    "value": "אזור תעשייה שגיא 2000 (עמק יזרעאל 87)"
  },
  {
    "name": "אזור תעשייה שער בנימין",
    "name_en": "Sha'ar Benjamin Industrial Park",
    "zone": "שומרון 125",
    "zone_en": "Samaria 125",
    "codes": [
      125
    ],
    "region": "שומרון",
    "region_en": "Samaria",
    "time": "דקה",
    "time_en": "A minute",
    "countdown": 60,
    "lat": 31.9485955,
    "lng": 35.1708741,
    "value": "אזור תעשייה שער בנימין (שומרון 125)",
    "shelters": 1
  },
  {
    "name": "אזור תעשייה תנובות",
    "name_en": "Tnuvot Industrial Park",
    "zone": "עמק חפר 150",
    "zone_en": "Emek Hefer 150",
    "codes": [
      150
    ],
    "region": "עמק חפר",
    "region_en": "Emek Hefer",
    "time": "דקה",
    "time_en": "A minute",
    "countdown": 60,
    "lat": 32.312609,
    "lng": 34.963101,
    "value": "אזור תעשייה תנובות (עמק חפר 150)"
  },
  {
    "name": "אחווה",
    "name_en": "Achva",
    "zone": "לכיש 275",
    "zone_en": "Lakhish 275",
    "codes": [
      275
    ],
    "region": "לכיש",
    "region_en": "Lakhish",
    "time": "45 שניות",
    "time_en": "45 seconds",
    "countdown": 45,
    "lat": 31.742893,
    "lng": 34.767848,
    "value": "אחווה (לכיש 275)"
  },
  {
    "name": "אחוזם",
    "name_en": "Achuzam",
    "zone": "לכיש 281",
    "zone_en": "Lakhish 281",
    "codes": [
      281
    ],
    "region": "לכיש",
    "region_en": "Lakhish",
    "time": "30 שניות",
    "time_en": "30 seconds",
    "countdown": 90,
    "lat": 31.552682,
    "lng": 34.770151,
    "value": "אחוזם (לכיש 281)"
  },
  {
    "name": "אחוזת ברק",
    "name_en": "Achuzat Barak",
    "zone": "עמק יזרעאל 90",
    "zone_en": "Jezreel Valley 90",
    "codes": [
      90
    ],
    "region": "עמק יזרעאל",
    "region_en": "Jezreel Valley",
    "time": "דקה",
    "time_en": "A minute",
    "countdown": 60,
    "lat": 32.643101,
    "lng": 35.338893,
    "value": "אחוזת ברק (עמק יזרעאל 90)"
  },
  {
    "name": "אחוזת שושנה",
    "name_en": "Ahuzat Shoshana",
    "zone": "בקעת בית שאן 128",
    "zone_en": "Beit Sha'an Valley 128",
    "codes": [
      128
    ],
    "region": "בקעת בית שאן",
    "region_en": "Beit Sha'an Valley",
    "time": "דקה",
    "time_en": "A minute",
    "countdown": 60,
    "lat": 32.591026,
    "lng": 35.521247,
    "value": "אחוזת שושנה (בקעת בית שאן 128)"
  },
  {
    "name": "אחיה",
    "name_en": "Achiya",
    "zone": "שומרון 125",
    "zone_en": "Samaria 125",
    "codes": [
      125
    ],
    "region": "שומרון",
    "region_en": "Samaria",
    "time": "דקה",
    "time_en": "A minute",
    "countdown": 60,
    "lat": 32.076593,
    "lng": 34.8321587,
    "value": "אחיה (שומרון 125)"
  },
  {
    "name": "אחיהוד",
    "name_en": "Ahihud",
    "zone": "גליל תחתון 63",
    "zone_en": "Lower Galilee 63",
    "codes": [
      63
    ],
    "region": "גליל תחתון",
    "region_en": "Lower Galilee",
    "time": "דקה",
    "time_en": "A minute",
    "countdown": 60,
    "lat": 32.907405,
    "lng": 35.171715,
    "value": "אחיהוד (גליל תחתון 63)"
  },
  {
    "name": "אחיטוב",
    "name_en": "Achitov",
    "zone": "חפר 148",
    "zone_en": "Hefer 148",
    "codes": [
      148
    ],
    "region": "חפר",
    "region_en": "Hefer",
    "time": "דקה",
    "time_en": "A minute",
    "countdown": 60,
    "lat": 32.387701,
    "lng": 34.990826,
    "value": "אחיטוב (חפר 148)"
  },
  {
    "name": "אחיסמך",
    "name_en": "Ahisemech",
    "zone": "השפלה 179",
    "zone_en": "Shfela 179",
    "codes": [
      179
    ],
    "region": "השפלה",
    "region_en": "Shfela",
    "time": "דקה",
    "time_en": "A minute",
    "countdown": 60,
    "lat": 31.931906,
    "lng": 34.908576,
    "value": "אחיסמך (השפלה 179)"
  },
  {
    "name": "אחיעזר",
    "name_en": "Achiezer",
    "zone": "השפלה 174",
    "zone_en": "Shfela 174",
    "codes": [
      174
    ],
    "region": "השפלה",
    "region_en": "Shfela",
    "time": "דקה",
    "time_en": "A minute",
    "countdown": 60,
    "lat": 31.981671,
    "lng": 34.871821,
    "value": "אחיעזר (השפלה 174)"
  },
  {
    "name": "איבי הנחל",
    "name_en": "Ebay Hanachal",
    "zone": "יהודה 205",
    "zone_en": "Judea 205",
    "codes": [
      205
    ],
    "region": "יהודה",
    "region_en": "Judea",
    "time": "דקה",
    "time_en": "A minute",
    "countdown": 60,
    "lat": 31.046051,
    "lng": 34.851612,
    "value": "איבי הנחל (יהודה 205)"
  },
  {
    "name": "איבים",
    "name_en": "Ivim",
    "zone": "עוטף עזה 220",
    "zone_en": "Gaza Containment Zone 220",
    "codes": [
      220
    ],
    "region": "עוטף עזה",
    "region_en": "Gaza Containment Zone",
    "time": "15 שניות",
    "time_en": "15 seconds",
    "countdown": 15,
    "lat": 31.533597,
    "lng": 34.609697,
    "value": "איבים (עוטף עזה 220)",
    "shelters": 1
  },
  {
    "name": "איג'ניסיניא",
    "name_en": "Ijnisinia",
    "zone": "שומרון 119",
    "zone_en": "Samaria 119",
    "codes": [
      119
    ],
    "region": "שומרון",
    "region_en": "Samaria",
    "time": "דקה",
    "time_en": "A minute",
    "countdown": 60,
    "lat": 32.273099,
    "lng": 35.216532,
    "value": "איג'ניסיניא (שומרון 119)"
  },
  {
    "name": "אידמית",
    "name_en": "Idmit",
    "zone": "קו העימות 15",
    "zone_en": "Confrontation Line 15",
    "codes": [
      15
    ],
    "region": "קו העימות",
    "region_en": "Confrontation Line",
    "time": "מיידי",
    "time_en": "Immediately",
    "countdown": 0,
    "lat": 33.080013,
    "lng": 35.199967,
    "value": "אידמית (קו העימות 15)"
  },
  {
    "name": "איזור תעשייה אשקלון",
    "name_en": "Ashkelon Industrial Area",
    "zone": "לכיש 247",
    "zone_en": "Lakhish 247",
    "codes": [
      247
    ],
    "region": "לכיש",
    "region_en": "Lakhish",
    "time": "30 שניות",
    "time_en": "30 seconds",
    "countdown": 90,
    "lat": 31.636089,
    "lng": 34.554535,
    "value": "איזור תעשייה אשקלון (לכיש 247)"
  },
  {
    "name": "אייל",
    "name_en": "Eyal",
    "zone": "חפר 139",
    "zone_en": "Hefer 139",
    "codes": [
      139
    ],
    "region": "חפר",
    "region_en": "Hefer",
    "time": "דקה",
    "time_en": "A minute",
    "countdown": 60,
    "lat": 32.210711,
    "lng": 34.978259,
    "value": "אייל (חפר 139)"
  },
  {
    "name": "איילת השחר",
    "name_en": "Ayelet Hashachar",
    "zone": "גליל עליון 47",
    "zone_en": "Upper Galilee 47",
    "codes": [
      47
    ],
    "region": "גליל עליון",
    "region_en": "Upper Galilee",
    "time": "30 שניות",
    "time_en": "30 seconds",
    "countdown": 90,
    "lat": 33.021115,
    "lng": 35.576732,
    "value": "איילת השחר (גליל עליון 47)"
  },
  {
    "name": "איכתאבא",
    "name_en": "Iktaba",
    "zone": "שומרון 119",
    "zone_en": "Samaria 119",
    "codes": [
      119
    ],
    "region": "שומרון",
    "region_en": "Samaria",
    "time": "דקה",
    "time_en": "A minute",
    "countdown": 60,
    "lat": 32.326014,
    "lng": 35.054225,
    "value": "איכתאבא (שומרון 119)"
  },
  {
    "name": "אילון",
    "name_en": "Eylon",
    "zone": "קו העימות 15",
    "zone_en": "Confrontation Line 15",
    "codes": [
      15
    ],
    "region": "קו העימות",
    "region_en": "Confrontation Line",
    "time": "מיידי",
    "time_en": "Immediately",
    "countdown": 0,
    "lat": 33.062526,
    "lng": 35.219162,
    "value": "אילון (קו העימות 15)"
  },
  {
    "name": "אילות",
    "name_en": "Eilot",
    "zone": "אילת 311",
    "zone_en": "Eilat 311",
    "codes": [
      311
    ],
    "region": "אילת",
    "region_en": "Eilat",
    "time": "30 שניות",
    "time_en": "30 seconds",
    "countdown": 90,
    "lat": 29.580548,
    "lng": 34.963023,
    "value": "אילות (אילת 311)"
  },
  {
    "name": "אילנות",
    "name_en": "Ilanot",
    "zone": "חפר 139",
    "zone_en": "Hefer 139",
    "codes": [
      139
    ],
    "region": "חפר",
    "region_en": "Hefer",
    "time": "דקה",
    "time_en": "A minute",
    "countdown": 60,
    "lat": 32.518328,
    "lng": 35.018304,
    "value": "אילנות (חפר 139)"
  },
  {
    "name": "אילניה",
    "name_en": "Ilaniah",
    "zone": "תבור 96",
    "zone_en": "Tabor 96",
    "codes": [
      96
    ],
    "region": "תבור",
    "region_en": "Tabor",
    "time": "דקה",
    "time_en": "A minute",
    "countdown": 60,
    "lat": 32.753908,
    "lng": 35.408188,
    "value": "אילניה (תבור 96)"
  },
  {
    "name": "אילת",
    "name_en": "Eilat",
    "zone": "אילת 311",
    "zone_en": "Eilat 311",
    "codes": [
      311
    ],
    "region": "אילת",
    "region_en": "Eilat",
    "time": "30 שניות",
    "time_en": "30 seconds",
    "countdown": 90,
    "lat": 29.557669,
    "lng": 34.951925,
    "value": "אילת (אילת 311)"
  },
  {
    "name": "אימאתין",
    "name_en": "Imatin",
    "zone": "שומרון 120",
    "zone_en": "Samaria 120",
    "codes": [
      120
    ],
    "region": "שומרון",
    "region_en": "Samaria",
    "time": "דקה",
    "time_en": "A minute",
    "countdown": 60,
    "lat": 32.192361,
    "lng": 35.159475,
    "value": "אימאתין (שומרון 120)"
  },
  {
    "name": "אימריש",
    "name_en": "Imrish",
    "zone": "יהודה 207",
    "zone_en": "Judea 207",
    "codes": [
      207
    ],
    "region": "יהודה",
    "region_en": "Judea",
    "time": "דקה",
    "time_en": "A minute",
    "countdown": 60,
    "lat": 31.470305,
    "lng": 34.999744,
    "value": "אימריש (יהודה 207)"
  },
  {
    "name": "איסכאכא",
    "name_en": "Iskaka",
    "zone": "שומרון 124",
    "zone_en": "Samaria 124",
    "codes": [
      124
    ],
    "region": "שומרון",
    "region_en": "Samaria",
    "time": "דקה",
    "time_en": "A minute",
    "countdown": 60,
    "lat": 32.102921,
    "lng": 35.224549,
    "value": "איסכאכא (שומרון 124)"
  },
  {
    "name": "אירוס",
    "name_en": "Irus",
    "zone": "השפלה 183",
    "zone_en": "Shfela 183",
    "codes": [
      183
    ],
    "region": "השפלה",
    "region_en": "Shfela",
    "time": "דקה וחצי",
    "time_en": "A minute and a half",
    "countdown": 90,
    "lat": 31.928595,
    "lng": 34.776605,
    "value": "אירוס (השפלה 183)"
  },
  {
    "name": "אירתאח",
    "name_en": "Irtah",
    "zone": "שומרון 119",
    "zone_en": "Samaria 119",
    "codes": [
      119
    ],
    "region": "שומרון",
    "region_en": "Samaria",
    "time": "דקה",
    "time_en": "A minute",
    "countdown": 60,
    "lat": 32.297763,
    "lng": 35.016529,
    "value": "אירתאח (שומרון 119)"
  },
  {
    "name": "איתמר",
    "name_en": "Itamar",
    "zone": "שומרון 120",
    "zone_en": "Samaria 120",
    "codes": [
      120
    ],
    "region": "שומרון",
    "region_en": "Samaria",
    "time": "דקה",
    "time_en": "A minute",
    "countdown": 60,
    "lat": 32.173869,
    "lng": 35.308029,
    "value": "איתמר (שומרון 120)"
  },
  {
    "name": "איתן",
    "name_en": "Eitan",
    "zone": "לכיש 281",
    "zone_en": "Lakhish 281",
    "codes": [
      281
    ],
    "region": "לכיש",
    "region_en": "Lakhish",
    "time": "30 שניות",
    "time_en": "30 seconds",
    "countdown": 90,
    "lat": 31.572213,
    "lng": 34.747909,
    "value": "איתן (לכיש 281)"
  },
  {
    "name": "איתנים",
    "name_en": "Eitaim",
    "zone": "בית שמש 189",
    "zone_en": "Beit Shemesh 189",
    "codes": [
      189
    ],
    "region": "בית שמש",
    "region_en": "Beit Shemesh",
    "time": "דקה",
    "time_en": "A minute",
    "countdown": 60,
    "lat": 31.7786992,
    "lng": 35.0950205,
    "value": "איתנים (בית שמש 189)"
  },
  {
    "name": "אכסאל",
    "name_en": "Achsa'el",
    "zone": "תבור 95",
    "zone_en": "Tabor 95",
    "codes": [
      95
    ],
    "region": "תבור",
    "region_en": "Tabor",
    "time": "דקה",
    "time_en": "A minute",
    "countdown": 60,
    "lat": 32.682085,
    "lng": 35.320743,
    "value": "אכסאל (תבור 95)"
  },
  {
    "name": "אל אסד",
    "name_en": "El Assad",
    "zone": "נגב 287",
    "zone_en": "Negev 287",
    "codes": [
      287
    ],
    "region": "נגב",
    "region_en": "Negev",
    "time": "דקה",
    "time_en": "A minute",
    "countdown": 60,
    "lat": 32.93445,
    "lng": 35.268394,
    "value": "אל אסד (נגב 287)"
  },
  {
    "name": "אל בירה",
    "name_en": "El Bireh",
    "zone": "שומרון 126",
    "zone_en": "Samaria 126",
    "codes": [
      126
    ],
    "region": "שומרון",
    "region_en": "Samaria",
    "time": "דקה",
    "time_en": "A minute",
    "countdown": 60,
    "lat": 31.912563,
    "lng": 35.221717,
    "value": "אל בירה (שומרון 126)"
  },
  {
    "name": "אל בירה בהר חברון",
    "name_en": "El Bireh At Mt Hebron",
    "zone": "באר שבע 285",
    "zone_en": "Beer Sheva 285",
    "codes": [
      285
    ],
    "region": "באר שבע",
    "region_en": "Beer Sheva",
    "time": "דקה",
    "time_en": "A minute",
    "countdown": 60,
    "lat": 31.4361213,
    "lng": 34.9256527,
    "value": "אל בירה בהר חברון (באר שבע 285)"
  },
  {
    "name": "אל ג'ארושיה",
    "name_en": "Al-Jaroshia",
    "zone": "שומרון 119",
    "zone_en": "Samaria 119",
    "codes": [
      119
    ],
    "region": "שומרון",
    "region_en": "Samaria",
    "time": "דקה",
    "time_en": "A minute",
    "countdown": 60,
    "lat": 32.34695,
    "lng": 35.049763,
    "value": "אל ג'ארושיה (שומרון 119)"
  },
  {
    "name": "אל ג'וויני",
    "name_en": "Al Jawiani",
    "zone": "נגב 299",
    "zone_en": "Negev 299",
    "codes": [
      299
    ],
    "region": "נגב",
    "region_en": "Negev",
    "time": "דקה",
    "time_en": "A minute",
    "countdown": 60,
    "lat": 31.209706,
    "lng": 35.108483,
    "value": "אל ג'וויני (נגב 299)"
  },
  {
    "name": "אל ג'נאמי",
    "name_en": "Al Janami",
    "zone": "נגב 299",
    "zone_en": "Negev 299",
    "codes": [
      299
    ],
    "region": "נגב",
    "region_en": "Negev",
    "time": "דקה",
    "time_en": "A minute",
    "countdown": 60,
    "lat": 31.216664,
    "lng": 35.093023,
    "value": "אל ג'נאמי (נגב 299)"
  },
  {
    "name": "אל ג'רג'אווי",
    "name_en": "El J'arja'wai",
    "zone": "נגב 300",
    "zone_en": "Negev 300",
    "codes": [
      300
    ],
    "region": "נגב",
    "region_en": "Negev",
    "time": "דקה",
    "time_en": "A minute",
    "countdown": 60,
    "lat": 31.147081,
    "lng": 34.819719,
    "value": "אל ג'רג'אווי (נגב 300)"
  },
  {
    "name": "אל הג'רה",
    "name_en": "Al Hajra",
    "zone": "יהודה 207",
    "zone_en": "Judea 207",
    "codes": [
      207
    ],
    "region": "יהודה",
    "region_en": "Judea",
    "time": "דקה",
    "time_en": "A minute",
    "countdown": 60,
    "lat": 31.488507,
    "lng": 35.05476,
    "value": "אל הג'רה (יהודה 207)"
  },
  {
    "name": "אל הייל",
    "name_en": "Al Hail",
    "zone": "באר שבע 286",
    "zone_en": "Beer Sheva 286",
    "codes": [
      286
    ],
    "region": "באר שבע",
    "region_en": "Beer Sheva",
    "time": "45 שניות",
    "time_en": "45 seconds",
    "countdown": 45,
    "lat": 31.408423,
    "lng": 34.748283,
    "value": "אל הייל (באר שבע 286)"
  },
  {
    "name": "אל ולג'ה",
    "name_en": "Al-Walja",
    "zone": "ירושלים 194",
    "zone_en": "Jerusalem 194",
    "codes": [
      194
    ],
    "region": "ירושלים",
    "region_en": "Jerusalem",
    "time": "דקה",
    "time_en": "A minute",
    "countdown": 60,
    "lat": 31.729394,
    "lng": 35.15853,
    "value": "אל ולג'ה (ירושלים 194)"
  },
  {
    "name": "אל ולידי",
    "name_en": "Al-Walidi",
    "zone": "נגב 300",
    "zone_en": "Negev 300",
    "codes": [
      300
    ],
    "region": "נגב",
    "region_en": "Negev",
    "time": "דקה",
    "time_en": "A minute",
    "countdown": 60,
    "lat": 31.177992,
    "lng": 34.815901,
    "value": "אל ולידי (נגב 300)"
  },
  {
    "name": "אל ח'דר",
    "name_en": "Al Hadar",
    "zone": "יהודה 200",
    "zone_en": "Judea 200",
    "codes": [
      200
    ],
    "region": "יהודה",
    "region_en": "Judea",
    "time": "דקה",
    "time_en": "A minute",
    "countdown": 60,
    "lat": 31.694811,
    "lng": 35.170745,
    "value": "אל ח'דר (יהודה 200)"
  },
  {
    "name": "אל ח'וואלד מערב",
    "name_en": "West El Hawald",
    "zone": "הקריות 71",
    "zone_en": "Hakrayot 71",
    "codes": [
      71
    ],
    "region": "הקריות",
    "region_en": "Hakrayot",
    "time": "דקה",
    "time_en": "A minute",
    "countdown": 60,
    "lat": 32.770196,
    "lng": 35.136203,
    "value": "אל ח'וואלד מערב (הקריות 71)"
  },
  {
    "name": "אל חדב",
    "name_en": "Al Hadav",
    "zone": "יהודה 207",
    "zone_en": "Judea 207",
    "codes": [
      207
    ],
    "region": "יהודה",
    "region_en": "Judea",
    "time": "דקה",
    "time_en": "A minute",
    "countdown": 60,
    "lat": 31.476157,
    "lng": 35.055239,
    "value": "אל חדב (יהודה 207)"
  },
  {
    "name": "אל חוקוק",
    "name_en": "El Hokok",
    "zone": "באר שבע 286",
    "zone_en": "Beer Sheva 286",
    "codes": [
      286
    ],
    "region": "באר שבע",
    "region_en": "Beer Sheva",
    "time": "45 שניות",
    "time_en": "45 seconds",
    "countdown": 45,
    "lat": 31.379304,
    "lng": 34.740385,
    "value": "אל חוקוק (באר שבע 286)"
  },
  {
    "name": "אל חמידי",
    "name_en": "Al Hamidi",
    "zone": "נגב 297",
    "zone_en": "Negev 297",
    "codes": [
      297
    ],
    "region": "נגב",
    "region_en": "Negev",
    "time": "דקה",
    "time_en": "A minute",
    "countdown": 60,
    "lat": 31.204259,
    "lng": 34.87237400000001,
    "value": "אל חמידי (נגב 297)"
  },
  {
    "name": "אל כלאב",
    "name_en": "Al Klab",
    "zone": "נגב 300",
    "zone_en": "Negev 300",
    "codes": [
      300
    ],
    "region": "נגב",
    "region_en": "Negev",
    "time": "דקה",
    "time_en": "A minute",
    "countdown": 60,
    "lat": 31.107915,
    "lng": 34.850613,
    "value": "אל כלאב (נגב 300)"
  },
  {
    "name": "אל מאג'ור",
    "name_en": "Al Majur",
    "zone": "יהודה 207",
    "zone_en": "Judea 207",
    "codes": [
      207
    ],
    "region": "יהודה",
    "region_en": "Judea",
    "time": "דקה",
    "time_en": "A minute",
    "countdown": 60,
    "lat": 31.490175,
    "lng": 35.032481,
    "value": "אל מאג'ור (יהודה 207)"
  },
  {
    "name": "אל מודוור",
    "name_en": "Oranit",
    "zone": "שומרון 121",
    "zone_en": "Samaria 121",
    "codes": [
      121
    ],
    "region": "שומרון",
    "region_en": "Samaria",
    "time": "דקה",
    "time_en": "A minute",
    "countdown": 60,
    "lat": 32.143218,
    "lng": 35.01222600000001,
    "value": "אל מודוור (שומרון 121)"
  },
  {
    "name": "אל מוטילה",
    "name_en": "Al-Motila",
    "zone": "שומרון 119",
    "zone_en": "Samaria 119",
    "codes": [
      119
    ],
    "region": "שומרון",
    "region_en": "Samaria",
    "time": "דקה",
    "time_en": "A minute",
    "countdown": 60,
    "lat": 32.420861,
    "lng": 35.407319,
    "value": "אל מוטילה (שומרון 119)"
  },
  {
    "name": "אל מוע'ייר",
    "name_en": "Al-Mo'air",
    "zone": "שומרון 119",
    "zone_en": "Samaria 119",
    "codes": [
      119
    ],
    "region": "שומרון",
    "region_en": "Samaria",
    "time": "דקה",
    "time_en": "A minute",
    "countdown": 60,
    "lat": 32.421701,
    "lng": 35.386433,
    "value": "אל מוע'ייר (שומרון 119)"
  },
  {
    "name": "אל מועלקה",
    "name_en": "El Mualkeh",
    "zone": "ואדי ערה 112",
    "zone_en": "Wadi Ara 112",
    "codes": [
      112
    ],
    "region": "ואדי ערה",
    "region_en": "Wadi Ara",
    "time": "דקה",
    "time_en": "A minute",
    "countdown": 60,
    "lat": 32.503678,
    "lng": 35.125089,
    "value": "אל מועלקה (ואדי ערה 112)"
  },
  {
    "name": "אל מראג'ם",
    "name_en": "El Maraj'am",
    "zone": "יהודה 207",
    "zone_en": "Judea 207",
    "codes": [
      207
    ],
    "region": "יהודה",
    "region_en": "Judea",
    "time": "דקה",
    "time_en": "A minute",
    "countdown": 60,
    "lat": 31.490163,
    "lng": 35.021646,
    "value": "אל מראג'ם (יהודה 207)"
  },
  {
    "name": "אל סייד",
    "name_en": "Al -Said",
    "zone": "נגב 296",
    "zone_en": "Negev 296",
    "codes": [
      296
    ],
    "region": "נגב",
    "region_en": "Negev",
    "time": "דקה",
    "time_en": "A minute",
    "countdown": 60,
    "lat": 31.281719,
    "lng": 34.916298,
    "value": "אל סייד (נגב 296)"
  },
  {
    "name": "אל ע'ול",
    "name_en": "El Ull",
    "zone": "נגב 301",
    "zone_en": "Negev 301",
    "codes": [
      301
    ],
    "region": "נגב",
    "region_en": "Negev",
    "time": "דקה",
    "time_en": "A minute",
    "countdown": 60,
    "lat": 31.100949,
    "lng": 35.005401,
    "value": "אל ע'ול (נגב 301)"
  },
  {
    "name": "אל עביד",
    "name_en": "El Abid",
    "zone": "נגב 299",
    "zone_en": "Negev 299",
    "codes": [
      299
    ],
    "region": "נגב",
    "region_en": "Negev",
    "time": "דקה",
    "time_en": "A minute",
    "countdown": 60,
    "lat": 31.265044,
    "lng": 35.091313,
    "value": "אל עביד (נגב 299)"
  },
  {
    "name": "אל עזי",
    "name_en": "El Azi",
    "zone": "לכיש 275",
    "zone_en": "Lakhish 275",
    "codes": [
      275
    ],
    "region": "לכיש",
    "region_en": "Lakhish",
    "time": "45 שניות",
    "time_en": "45 seconds",
    "countdown": 45,
    "lat": 31.71886799999999,
    "lng": 34.814254,
    "value": "אל עזי (לכיש 275)"
  },
  {
    "name": "אל עטאונה",
    "name_en": "Al Atauna",
    "zone": "נגב 296",
    "zone_en": "Negev 296",
    "codes": [
      296
    ],
    "region": "נגב",
    "region_en": "Negev",
    "time": "דקה",
    "time_en": "A minute",
    "countdown": 60,
    "lat": 31.302482,
    "lng": 34.916719,
    "value": "אל עטאונה (נגב 296)"
  },
  {
    "name": "אל עלקה אל פוקא",
    "name_en": "El Alka El Fuka'a",
    "zone": "יהודה 207",
    "zone_en": "Judea 207",
    "codes": [
      207
    ],
    "region": "יהודה",
    "region_en": "Judea",
    "time": "דקה",
    "time_en": "A minute",
    "countdown": 60,
    "lat": 31.460376,
    "lng": 35.009196,
    "value": "אל עלקה אל פוקא (יהודה 207)"
  },
  {
    "name": "אל עמראני",
    "name_en": "El Amrani",
    "zone": "נגב 301",
    "zone_en": "Negev 301",
    "codes": [
      301
    ],
    "region": "נגב",
    "region_en": "Negev",
    "time": "דקה",
    "time_en": "A minute",
    "countdown": 60,
    "lat": 31.165894,
    "lng": 34.969459,
    "value": "אל עמראני (נגב 301)"
  },
  {
    "name": "אל ערוב",
    "name_en": "Al-Arrub",
    "zone": "יהודה 206",
    "zone_en": "Judea 206",
    "codes": [
      206
    ],
    "region": "יהודה",
    "region_en": "Judea",
    "time": "דקה",
    "time_en": "A minute",
    "countdown": 60,
    "lat": 31.62260199999999,
    "lng": 35.13812600000001,
    "value": "אל ערוב (יהודה 206)"
  },
  {
    "name": "אל עריאן",
    "name_en": "El Iriyan",
    "zone": "ואדי ערה 112",
    "zone_en": "Wadi Ara 112",
    "codes": [
      112
    ],
    "region": "ואדי ערה",
    "region_en": "Wadi Ara",
    "time": "דקה",
    "time_en": "A minute",
    "countdown": 60,
    "lat": 32.498076,
    "lng": 35.125094,
    "value": "אל עריאן (ואדי ערה 112)"
  },
  {
    "name": "אל עת'אמין",
    "name_en": "Al Atamin",
    "zone": "נגב 297",
    "zone_en": "Negev 297",
    "codes": [
      297
    ],
    "region": "נגב",
    "region_en": "Negev",
    "time": "דקה",
    "time_en": "A minute",
    "countdown": 60,
    "lat": 31.218575,
    "lng": 34.897369,
    "value": "אל עת'אמין (נגב 297)"
  },
  {
    "name": "אל עתאיקה",
    "name_en": "Al Ataika",
    "zone": "באר שבע 286",
    "zone_en": "Beer Sheva 286",
    "codes": [
      286
    ],
    "region": "באר שבע",
    "region_en": "Beer Sheva",
    "time": "45 שניות",
    "time_en": "45 seconds",
    "countdown": 45,
    "lat": 31.376914,
    "lng": 34.746405,
    "value": "אל עתאיקה (באר שבע 286)"
  },
  {
    "name": "אל פוואר",
    "name_en": "Al-Fawar",
    "zone": "יהודה 207",
    "zone_en": "Judea 207",
    "codes": [
      207
    ],
    "region": "יהודה",
    "region_en": "Judea",
    "time": "דקה",
    "time_en": "A minute",
    "countdown": 60,
    "lat": 31.478368,
    "lng": 35.065511,
    "value": "אל פוואר (יהודה 207)"
  },
  {
    "name": "אל פונדוק",
    "name_en": "Al Funduk",
    "zone": "שומרון 120",
    "zone_en": "Samaria 120",
    "codes": [
      120
    ],
    "region": "שומרון",
    "region_en": "Samaria",
    "time": "דקה",
    "time_en": "A minute",
    "countdown": 60,
    "lat": 32.1906123,
    "lng": 35.13397399999999,
    "value": "אל פונדוק (שומרון 120)"
  },
  {
    "name": "אל קוסור",
    "name_en": "El Kosur",
    "zone": "יהודה 207",
    "zone_en": "Judea 207",
    "codes": [
      207
    ],
    "region": "יהודה",
    "region_en": "Judea",
    "time": "דקה",
    "time_en": "A minute",
    "countdown": 60,
    "lat": 31.500089,
    "lng": 35.011176,
    "value": "אל קוסור (יהודה 207)"
  },
  {
    "name": "אל קורעאן ב",
    "name_en": "El Korayyin B",
    "zone": "נגב 299",
    "zone_en": "Negev 299",
    "codes": [
      299
    ],
    "region": "נגב",
    "region_en": "Negev",
    "time": "דקה",
    "time_en": "A minute",
    "countdown": 60,
    "lat": 31.22964,
    "lng": 35.10205,
    "value": "אל קורעאן ב (נגב 299)"
  },
  {
    "name": "אל קילא",
    "name_en": "Al Kila",
    "zone": "יהודה 188",
    "zone_en": "Judea 188",
    "codes": [
      188
    ],
    "region": "יהודה",
    "region_en": "Judea",
    "time": "דקה וחצי",
    "time_en": "A minute and a half",
    "countdown": 90,
    "lat": 31.611646,
    "lng": 35.004847,
    "value": "אל קילא (יהודה 188)"
  },
  {
    "name": "אל קרישי",
    "name_en": "Al Karishi",
    "zone": "נגב 299",
    "zone_en": "Negev 299",
    "codes": [
      299
    ],
    "region": "נגב",
    "region_en": "Negev",
    "time": "דקה",
    "time_en": "A minute",
    "countdown": 60,
    "lat": 31.269167,
    "lng": 35.089047,
    "value": "אל קרישי (נגב 299)"
  },
  {
    "name": "אל קרעאן",
    "name_en": "El Karayin",
    "zone": "נגב 299",
    "zone_en": "Negev 299",
    "codes": [
      299
    ],
    "region": "נגב",
    "region_en": "Negev",
    "time": "דקה",
    "time_en": "A minute",
    "countdown": 60,
    "lat": 31.226467,
    "lng": 35.183196,
    "value": "אל קרעאן (נגב 299)"
  },
  {
    "name": "אל קשכר",
    "name_en": "El Kashkar",
    "zone": "נגב 299",
    "zone_en": "Negev 299",
    "codes": [
      299
    ],
    "region": "נגב",
    "region_en": "Negev",
    "time": "דקה",
    "time_en": "A minute",
    "countdown": 60,
    "lat": 31.171185,
    "lng": 35.093502,
    "value": "אל קשכר (נגב 299)"
  },
  {
    "name": "אל רום",
    "name_en": "El Rom",
    "zone": "גולן 2",
    "zone_en": "Golan 2",
    "codes": [
      2
    ],
    "region": "גולן",
    "region_en": "Golan",
    "time": "מיידי",
    "time_en": "Immediately",
    "countdown": 0,
    "lat": 33.180519,
    "lng": 35.770095,
    "value": "אל רום (גולן 2)"
  },
  {
    "name": "אלומה",
    "name_en": "Aluma",
    "zone": "לכיש 280",
    "zone_en": "Lakhish 280",
    "codes": [
      280
    ],
    "region": "לכיש",
    "region_en": "Lakhish",
    "time": "45 שניות",
    "time_en": "45 seconds",
    "countdown": 45,
    "lat": 31.65204099999999,
    "lng": 34.742872,
    "value": "אלומה (לכיש 280)"
  },
  {
    "name": "אלומות",
    "name_en": "Alumot",
    "zone": "תבור 98",
    "zone_en": "Tabor 98",
    "codes": [
      98
    ],
    "region": "תבור",
    "region_en": "Tabor",
    "time": "דקה",
    "time_en": "A minute",
    "countdown": 60,
    "lat": 32.706628,
    "lng": 35.546088,
    "value": "אלומות (תבור 98)"
  },
  {
    "name": "אלון",
    "name_en": "Alon",
    "zone": "בקעה 133",
    "zone_en": "Syro-African Rift 133",
    "codes": [
      133
    ],
    "region": "בקעה",
    "region_en": "Syro-African Rift",
    "time": "דקה",
    "time_en": "A minute",
    "countdown": 60,
    "lat": 31.833354,
    "lng": 35.353557,
    "value": "אלון (בקעה 133)"
  },
  {
    "name": "אלון הגליל",
    "name_en": "Alon Hagalil",
    "zone": "גליל תחתון 63",
    "zone_en": "Lower Galilee 63",
    "codes": [
      63
    ],
    "region": "גליל תחתון",
    "region_en": "Lower Galilee",
    "time": "דקה",
    "time_en": "A minute",
    "countdown": 60,
    "lat": 32.756874,
    "lng": 35.220294,
    "value": "אלון הגליל (גליל תחתון 63)"
  },
  {
    "name": "אלון מורה",
    "name_en": "Alon Moreh",
    "zone": "שומרון 120",
    "zone_en": "Samaria 120",
    "codes": [
      120
    ],
    "region": "שומרון",
    "region_en": "Samaria",
    "time": "דקה",
    "time_en": "A minute",
    "countdown": 60,
    "lat": 32.234418,
    "lng": 35.331201,
    "value": "אלון מורה (שומרון 120)"
  },
  {
    "name": "אלון שבות",
    "name_en": "Alon Shvut",
    "zone": "יהודה 206",
    "zone_en": "Judea 206",
    "codes": [
      206
    ],
    "region": "יהודה",
    "region_en": "Judea",
    "time": "דקה",
    "time_en": "A minute",
    "countdown": 60,
    "lat": 31.654871,
    "lng": 35.125256,
    "value": "אלון שבות (יהודה 206)"
  },
  {
    "name": "אלוני אבא",
    "name_en": "Alonei Aba",
    "zone": "עמק יזרעאל 87",
    "zone_en": "Jezreel Valley 87",
    "codes": [
      87
    ],
    "region": "עמק יזרעאל",
    "region_en": "Jezreel Valley",
    "time": "דקה",
    "time_en": "A minute",
    "countdown": 60,
    "lat": 32.730945,
    "lng": 35.172028,
    "value": "אלוני אבא (עמק יזרעאל 87)"
  },
  {
    "name": "אלוני הבשן",
    "name_en": "Alonei Habashan",
    "zone": "גולן 3",
    "zone_en": "Golan 3",
    "codes": [
      3
    ],
    "region": "גולן",
    "region_en": "Golan",
    "time": "מיידי",
    "time_en": "Immediately",
    "countdown": 0,
    "lat": 33.044087,
    "lng": 35.838507,
    "value": "אלוני הבשן (גולן 3)"
  },
  {
    "name": "אלוני יצחק",
    "name_en": "Alonei Itzhak",
    "zone": "מנשה 104",
    "zone_en": "Menashe 104",
    "codes": [
      104
    ],
    "region": "מנשה",
    "region_en": "Menashe",
    "time": "דקה",
    "time_en": "A minute",
    "countdown": 60,
    "lat": 32.509997,
    "lng": 35.00519999999999,
    "value": "אלוני יצחק (מנשה 104)"
  },
  {
    "name": "אלונים",
    "name_en": "Alonim",
    "zone": "הקריות 86",
    "zone_en": "Krayot 86",
    "codes": [
      86
    ],
    "region": "הקריות",
    "region_en": "Krayot",
    "time": "דקה",
    "time_en": "A minute",
    "countdown": 60,
    "lat": 32.721459,
    "lng": 35.143399,
    "value": "אלונים (הקריות 86)"
  },
  {
    "name": "אלי עד",
    "name_en": "Elei Ad",
    "zone": "גולן 5",
    "zone_en": "Golan 5",
    "codes": [
      5
    ],
    "region": "גולן",
    "region_en": "Golan",
    "time": "מיידי",
    "time_en": "Immediately",
    "countdown": 0,
    "lat": 32.806583,
    "lng": 35.73657499999999,
    "value": "אלי עד (גולן 5)"
  },
  {
    "name": "אליהב",
    "name_en": "Eliav",
    "zone": "לכיש 285",
    "zone_en": "Lakhish 285",
    "codes": [
      285
    ],
    "region": "לכיש",
    "region_en": "Lakhish",
    "time": "דקה",
    "time_en": "A minute",
    "countdown": 60,
    "lat": 31.530203,
    "lng": 34.928414,
    "value": "אליהב (לכיש 285)"
  },
  {
    "name": "אליכין",
    "name_en": "Alikhin",
    "zone": "חפר 137",
    "zone_en": "Hefer 137",
    "codes": [
      137
    ],
    "region": "חפר",
    "region_en": "Hefer",
    "time": "דקה",
    "time_en": "A minute",
    "countdown": 60,
    "lat": 32.407659,
    "lng": 34.925028,
    "value": "אליכין (חפר 137)"
  },
  {
    "name": "אליפז",
    "name_en": "Elipaz",
    "zone": "ערבה 310",
    "zone_en": "Arabah 310",
    "codes": [
      310
    ],
    "region": "ערבה",
    "region_en": "Arabah",
    "time": "3 דקות",
    "time_en": "3 minutes",
    "countdown": 180,
    "lat": 29.79624799999999,
    "lng": 35.012094,
    "value": "אליפז (ערבה 310)"
  },
  {
    "name": "אליפלט",
    "name_en": "Elifelet",
    "zone": "גליל עליון 50",
    "zone_en": "Upper Galilee 50",
    "codes": [
      50
    ],
    "region": "גליל עליון",
    "region_en": "Upper Galilee",
    "time": "30 שניות",
    "time_en": "30 seconds",
    "countdown": 90,
    "lat": 32.947834,
    "lng": 35.548516,
    "value": "אליפלט (גליל עליון 50)"
  },
  {
    "name": "אליקים",
    "name_en": "Elyakim",
    "zone": "מנשה 103",
    "zone_en": "Menashe 103",
    "codes": [
      103
    ],
    "region": "מנשה",
    "region_en": "Menashe",
    "time": "דקה",
    "time_en": "A minute",
    "countdown": 60,
    "lat": 32.633345,
    "lng": 35.067613,
    "value": "אליקים (מנשה 103)"
  },
  {
    "name": "אלישיב",
    "name_en": "Elyashiv",
    "zone": "חפר 137",
    "zone_en": "Hefer 137",
    "codes": [
      137
    ],
    "region": "חפר",
    "region_en": "Hefer",
    "time": "דקה",
    "time_en": "A minute",
    "countdown": 60,
    "lat": 32.380196,
    "lng": 34.909945,
    "value": "אלישיב (חפר 137)"
  },
  {
    "name": "אלישמע",
    "name_en": "Elishama",
    "zone": "שרון 143",
    "zone_en": "Sharon 143",
    "codes": [
      143
    ],
    "region": "שרון",
    "region_en": "Sharon",
    "time": "דקה",
    "time_en": "A minute",
    "countdown": 60,
    "lat": 32.154778,
    "lng": 34.930461,
    "value": "אלישמע (שרון 143)"
  },
  {
    "name": "אלמגור",
    "name_en": "Almagor",
    "zone": "גליל עליון 50",
    "zone_en": "Upper Galilee 50",
    "codes": [
      50
    ],
    "region": "גליל עליון",
    "region_en": "Upper Galilee",
    "time": "30 שניות",
    "time_en": "30 seconds",
    "countdown": 90,
    "lat": 32.912709,
    "lng": 35.60231,
    "value": "אלמגור (גליל עליון 50)"
  },
  {
    "name": "אלמוג",
    "name_en": "Almog",
    "zone": "בקעה 133",
    "zone_en": "Syro-African Rift 133",
    "codes": [
      133
    ],
    "region": "בקעה",
    "region_en": "Syro-African Rift",
    "time": "דקה",
    "time_en": "A minute",
    "countdown": 60,
    "lat": 32.811031,
    "lng": 34.96160190000001,
    "value": "אלמוג (בקעה 133)"
  },
  {
    "name": "אלעד",
    "name_en": "Elad",
    "zone": "ירקון 169",
    "zone_en": "Yarkon 169",
    "codes": [
      169
    ],
    "region": "ירקון",
    "region_en": "Yarkon",
    "time": "דקה",
    "time_en": "A minute",
    "countdown": 60,
    "lat": 32.04953,
    "lng": 34.95075,
    "value": "אלעד (ירקון 169)"
  },
  {
    "name": "אלעזר",
    "name_en": "Elazar",
    "zone": "יהודה 206",
    "zone_en": "Judea 206",
    "codes": [
      206
    ],
    "region": "יהודה",
    "region_en": "Judea",
    "time": "דקה",
    "time_en": "A minute",
    "countdown": 60,
    "lat": 31.659676,
    "lng": 35.143074,
    "value": "אלעזר (יהודה 206)"
  },
  {
    "name": "אלפי מנשה",
    "name_en": "Alon Moreh",
    "zone": "שומרון 121",
    "zone_en": "Samaria 121",
    "codes": [
      121
    ],
    "region": "שומרון",
    "region_en": "Samaria",
    "time": "דקה",
    "time_en": "A minute",
    "countdown": 60,
    "lat": 32.170631,
    "lng": 35.014858,
    "value": "אלפי מנשה (שומרון 121)"
  },
  {
    "name": "אלקוש",
    "name_en": "Alkush",
    "zone": "קו העימות 17",
    "zone_en": "Confrontation Line 17",
    "codes": [
      17
    ],
    "region": "קו העימות",
    "region_en": "Confrontation Line",
    "time": "מיידי",
    "time_en": "Immediately",
    "countdown": 0,
    "lat": 33.034294,
    "lng": 35.326348,
    "value": "אלקוש (קו העימות 17)"
  },
  {
    "name": "אלקנה",
    "name_en": "Elkana",
    "zone": "שומרון 121",
    "zone_en": "Samaria 121",
    "codes": [
      121
    ],
    "region": "שומרון",
    "region_en": "Samaria",
    "time": "דקה",
    "time_en": "A minute",
    "countdown": 60,
    "lat": 32.110566,
    "lng": 35.032054,
    "value": "אלקנה (שומרון 121)"
  },
  {
    "name": "אמונים",
    "name_en": "Emunim",
    "zone": "לכיש 272",
    "zone_en": "Lakhish 272",
    "codes": [
      272
    ],
    "region": "לכיש",
    "region_en": "Lakhish",
    "time": "45 שניות",
    "time_en": "45 seconds",
    "countdown": 45,
    "lat": 31.743885,
    "lng": 34.674492,
    "value": "אמונים (לכיש 272)"
  },
  {
    "name": "אמירים",
    "name_en": "Amirim",
    "zone": "גליל עליון 44",
    "zone_en": "Upper Galilee 44",
    "codes": [
      44
    ],
    "region": "גליל עליון",
    "region_en": "Upper Galilee",
    "time": "30 שניות",
    "time_en": "30 seconds",
    "countdown": 90,
    "lat": 32.937351,
    "lng": 35.45036500000001,
    "value": "אמירים (גליל עליון 44)"
  },
  {
    "name": "אמנון",
    "name_en": "Amnon",
    "zone": "גליל עליון 50",
    "zone_en": "Upper Galilee 50",
    "codes": [
      50
    ],
    "region": "גליל עליון",
    "region_en": "Upper Galilee",
    "time": "30 שניות",
    "time_en": "30 seconds",
    "countdown": 90,
    "lat": 32.904989,
    "lng": 35.571136,
    "value": "אמנון (גליל עליון 50)"
  },
  {
    "name": "אמציה",
    "name_en": "Amatzia",
    "zone": "לכיש 285",
    "zone_en": "Lakhish 285",
    "codes": [
      285
    ],
    "region": "לכיש",
    "region_en": "Lakhish",
    "time": "דקה",
    "time_en": "A minute",
    "countdown": 60,
    "lat": 31.531176,
    "lng": 34.914463,
    "value": "אמציה (לכיש 285)"
  },
  {
    "name": "אניעם",
    "name_en": "Ani'am",
    "zone": "קצרין 10",
    "zone_en": "Katzrin 10",
    "codes": [
      10
    ],
    "region": "קצרין",
    "region_en": "Katzrin",
    "time": "15 שניות",
    "time_en": "15 seconds",
    "countdown": 15,
    "lat": 32.956638,
    "lng": 35.739718,
    "value": "אניעם (קצרין 10)"
  },
  {
    "name": "אספר",
    "name_en": "Asfar",
    "zone": "יהודה 200",
    "zone_en": "Judea 200",
    "codes": [
      200
    ],
    "region": "יהודה",
    "region_en": "Judea",
    "time": "דקה",
    "time_en": "A minute",
    "countdown": 60,
    "lat": 31.586152,
    "lng": 35.187594,
    "value": "אספר (יהודה 200)"
  },
  {
    "name": "אעבלין",
    "name_en": "I'billin",
    "zone": "גליל תחתון 63",
    "zone_en": "Lower Galilee 63",
    "codes": [
      63
    ],
    "region": "גליל תחתון",
    "region_en": "Lower Galilee",
    "time": "דקה",
    "time_en": "A minute",
    "countdown": 60,
    "lat": 32.821799,
    "lng": 35.19012,
    "value": "אעבלין (גליל תחתון 63)"
  },
  {
    "name": "אעצם",
    "name_en": "E'atzem",
    "zone": "נגב 296",
    "zone_en": "Negev 296",
    "codes": [
      296
    ],
    "region": "נגב",
    "region_en": "Negev",
    "time": "דקה",
    "time_en": "A minute",
    "countdown": 60,
    "lat": 31.295816,
    "lng": 34.903102,
    "value": "אעצם (נגב 296)"
  },
  {
    "name": "אפיניש",
    "name_en": "Afinish",
    "zone": "יהודה 207",
    "zone_en": "Judea 207",
    "codes": [
      207
    ],
    "region": "יהודה",
    "region_en": "Judea",
    "time": "דקה",
    "time_en": "A minute",
    "countdown": 60,
    "lat": 31.316183,
    "lng": 34.996386,
    "value": "אפיניש (יהודה 207)"
  },
  {
    "name": "אפיק",
    "name_en": "Afik",
    "zone": "גולן 5",
    "zone_en": "Golan 5",
    "codes": [
      5
    ],
    "region": "גולן",
    "region_en": "Golan",
    "time": "מיידי",
    "time_en": "Immediately",
    "countdown": 0,
    "lat": 32.779428,
    "lng": 35.702994,
    "value": "אפיק (גולן 5)"
  },
  {
    "name": "אפיקים",
    "name_en": "Afikim",
    "zone": "תבור 98",
    "zone_en": "Tabor 98",
    "codes": [
      98
    ],
    "region": "תבור",
    "region_en": "Tabor",
    "time": "דקה",
    "time_en": "A minute",
    "countdown": 60,
    "lat": 32.680564,
    "lng": 35.57773,
    "value": "אפיקים (תבור 98)"
  },
  {
    "name": "אפק",
    "name_en": "Afek",
    "zone": "הקריות 71",
    "zone_en": "Hakrayot 71",
    "codes": [
      71
    ],
    "region": "הקריות",
    "region_en": "Hakrayot",
    "time": "דקה",
    "time_en": "A minute",
    "countdown": 60,
    "lat": 32.838316,
    "lng": 35.12778,
    "value": "אפק (הקריות 71)"
  },
  {
    "name": "אפרת",
    "name_en": "Efrat",
    "zone": "יהודה 206",
    "zone_en": "Judea 206",
    "codes": [
      206
    ],
    "region": "יהודה",
    "region_en": "Judea",
    "time": "דקה",
    "time_en": "A minute",
    "countdown": 60,
    "lat": 31.653589,
    "lng": 35.149934,
    "value": "אפרת (יהודה 206)",
    "shelters": 1
  },
  {
    "name": "אפרתה",
    "name_en": "Efrata",
    "zone": "יהודה 206",
    "zone_en": "Judea 206",
    "codes": [
      206
    ],
    "region": "יהודה",
    "region_en": "Judea",
    "time": "דקה",
    "time_en": "A minute",
    "countdown": 60,
    "lat": 31.653589,
    "lng": 35.149934,
    "value": "אפרתה (יהודה 206)"
  },
  {
    "name": "אקרע",
    "name_en": "Arka",
    "zone": "שומרון 119",
    "zone_en": "Samaria 119",
    "codes": [
      119
    ],
    "region": "שומרון",
    "region_en": "Samaria",
    "time": "דקה",
    "time_en": "A minute",
    "countdown": 60,
    "lat": 32.342457,
    "lng": 35.345071,
    "value": "אקרע (שומרון 119)"
  },
  {
    "name": "ארבל",
    "name_en": "Arbel",
    "zone": "גליל תחתון 55",
    "zone_en": "Lower Galilee 55",
    "codes": [
      55
    ],
    "region": "גליל תחתון",
    "region_en": "Lower Galilee",
    "time": "דקה",
    "time_en": "A minute",
    "countdown": 60,
    "lat": 32.812247,
    "lng": 35.486453,
    "value": "ארבל (גליל תחתון 55)"
  },
  {
    "name": "ארגמן",
    "name_en": "Argaman",
    "zone": "בקעה 130",
    "zone_en": "Syro-African Rift 130",
    "codes": [
      130
    ],
    "region": "בקעה",
    "region_en": "Syro-African Rift",
    "time": "דקה",
    "time_en": "A minute",
    "countdown": 60,
    "lat": 32.17334,
    "lng": 35.522285,
    "value": "ארגמן (בקעה 130)"
  },
  {
    "name": "ארז",
    "name_en": "Erez",
    "zone": "עוטף עזה 219",
    "zone_en": "Gaza Containment Zone 219",
    "codes": [
      219
    ],
    "region": "עוטף עזה",
    "region_en": "Gaza Containment Zone",
    "time": "15 שניות",
    "time_en": "15 seconds",
    "countdown": 15,
    "lat": 31.55984,
    "lng": 34.564889,
    "value": "ארז (עוטף עזה 219)",
    "shelters": 2
  },
  {
    "name": "ארטאס",
    "name_en": "Artas",
    "zone": "יהודה 200",
    "zone_en": "Judea 200",
    "codes": [
      200
    ],
    "region": "יהודה",
    "region_en": "Judea",
    "time": "דקה",
    "time_en": "A minute",
    "countdown": 60,
    "lat": 31.689957,
    "lng": 35.188236,
    "value": "ארטאס (יהודה 200)"
  },
  {
    "name": "אריאל",
    "name_en": "Alon",
    "zone": "שומרון 122",
    "zone_en": "Samaria 122",
    "codes": [
      122
    ],
    "region": "שומרון",
    "region_en": "Samaria",
    "time": "דקה",
    "time_en": "A minute",
    "countdown": 60,
    "lat": 32.104637,
    "lng": 35.17451399999999,
    "value": "אריאל (שומרון 122)"
  },
  {
    "name": "ארסוף",
    "name_en": "Arsuf",
    "zone": "שרון 142",
    "zone_en": "Sharon 142",
    "codes": [
      142
    ],
    "region": "שרון",
    "region_en": "Sharon",
    "time": "דקה",
    "time_en": "A minute",
    "countdown": 60,
    "lat": 32.212841,
    "lng": 34.815977,
    "value": "ארסוף (שרון 142)"
  },
  {
    "name": "אשבול",
    "name_en": "Eshbol",
    "zone": "מרכז הנגב 253",
    "zone_en": "Central Negev 253",
    "codes": [
      253
    ],
    "region": "מרכז הנגב",
    "region_en": "Central Negev",
    "time": "30 שניות",
    "time_en": "30 seconds",
    "countdown": 90,
    "lat": 31.44551599999999,
    "lng": 34.666654,
    "value": "אשבול (מרכז הנגב 253)"
  },
  {
    "name": "אשבל",
    "name_en": "Eshbal",
    "zone": "גליל תחתון 60",
    "zone_en": "Lower Galilee 60",
    "codes": [
      60
    ],
    "region": "גליל תחתון",
    "region_en": "Lower Galilee",
    "time": "דקה",
    "time_en": "A minute",
    "countdown": 60,
    "lat": 32.876984,
    "lng": 35.30601,
    "value": "אשבל (גליל תחתון 60)"
  },
  {
    "name": "אשדוד",
    "name_en": "Ashdod",
    "zone": "לכיש 271",
    "zone_en": "Lakhish 271",
    "codes": [
      271
    ],
    "region": "לכיש",
    "region_en": "Lakhish",
    "time": "45 שניות",
    "time_en": "45 seconds",
    "countdown": 45,
    "lat": 31.804381,
    "lng": 34.655314,
    "value": "אשדוד (לכיש 271)"
  },
  {
    "name": "אשדות יעקב איחוד",
    "name_en": "Ashdot Ya'akov Union",
    "zone": "תבור 98",
    "zone_en": "Tabor 98",
    "codes": [
      98
    ],
    "region": "תבור",
    "region_en": "Tabor",
    "time": "דקה",
    "time_en": "A minute",
    "countdown": 60,
    "lat": 32.65877,
    "lng": 35.579637,
    "value": "אשדות יעקב איחוד (תבור 98)"
  },
  {
    "name": "אשדות יעקב מאוחד",
    "name_en": "United Ashdot Ya'akov",
    "zone": "תבור 98",
    "zone_en": "Tabor 98",
    "codes": [
      98
    ],
    "region": "תבור",
    "region_en": "Tabor",
    "time": "דקה",
    "time_en": "A minute",
    "countdown": 60,
    "lat": 32.664808,
    "lng": 35.582769,
    "value": "אשדות יעקב מאוחד (תבור 98)"
  },
  {
    "name": "אשחר",
    "name_en": "Eshhar",
    "zone": "גליל תחתון 60",
    "zone_en": "Lower Galilee 60",
    "codes": [
      60
    ],
    "region": "גליל תחתון",
    "region_en": "Lower Galilee",
    "time": "דקה",
    "time_en": "A minute",
    "countdown": 60,
    "lat": 32.885084,
    "lng": 35.299622,
    "value": "אשחר (גליל תחתון 60)"
  },
  {
    "name": "אשכולות",
    "name_en": "Eshkolot",
    "zone": "לכיש 285",
    "zone_en": "Lakhish 285",
    "codes": [
      285
    ],
    "region": "לכיש",
    "region_en": "Lakhish",
    "time": "דקה",
    "time_en": "A minute",
    "countdown": 60,
    "lat": 31.391171,
    "lng": 34.904856,
    "value": "אשכולות (לכיש 285)"
  },
  {
    "name": "אשל הנשיא בי'ס אזורי",
    "name_en": "Eshel Hanasi Regional School",
    "zone": "באר שבע 289",
    "zone_en": "Beer Sheva 289",
    "codes": [
      289
    ],
    "region": "באר שבע",
    "region_en": "Beer Sheva",
    "time": "45 שניות",
    "time_en": "45 seconds",
    "countdown": 45,
    "lat": 31.326828,
    "lng": 34.697497,
    "value": "אשל הנשיא בי'ס אזורי (באר שבע 289)"
  },
  {
    "name": "אשלים",
    "name_en": "Ashalim",
    "zone": "דרום הנגב 302",
    "zone_en": "Southern Negev 302",
    "codes": [
      302
    ],
    "region": "דרום הנגב",
    "region_en": "Southern Negev",
    "time": "דקה",
    "time_en": "A minute",
    "countdown": 60,
    "lat": 30.964245,
    "lng": 34.699674,
    "value": "אשלים (דרום הנגב 302)"
  },
  {
    "name": "אשקלון",
    "name_en": "Ashkelon",
    "zone": "לכיש 246",
    "zone_en": "Lakhish 246",
    "codes": [
      246
    ],
    "region": "לכיש",
    "region_en": "Lakhish",
    "time": "30 שניות",
    "time_en": "30 seconds",
    "countdown": 90,
    "lat": 31.6687885,
    "lng": 34.5742523,
    "value": "אשקלון (לכיש 246)",
    "shelters": 27
  },
  {
    "name": "אשרת",
    "name_en": "Oshrat",
    "zone": "גליל עליון 38",
    "zone_en": "Upper Galilee 38",
    "codes": [
      38
    ],
    "region": "גליל עליון",
    "region_en": "Upper Galilee",
    "time": "30 שניות",
    "time_en": "30 seconds",
    "countdown": 90,
    "lat": 32.971645,
    "lng": 35.1557,
    "value": "אשרת (גליל עליון 38)",
    "shelters": 1
  },
  {
    "name": "אשתאול",
    "name_en": "Eshta'ul",
    "zone": "בית שמש 188",
    "zone_en": "Beit Shemesh 188",
    "codes": [
      188
    ],
    "region": "בית שמש",
    "region_en": "Beit Shemesh",
    "time": "דקה",
    "time_en": "A minute",
    "countdown": 60,
    "lat": 31.780385,
    "lng": 35.010102,
    "value": "אשתאול (בית שמש 188)"
  },
  {
    "name": "אתגר",
    "name_en": "Etgar",
    "zone": "גליל תחתון 63",
    "zone_en": "Lower Galilee 63",
    "codes": [
      63
    ],
    "region": "גליל תחתון",
    "region_en": "Lower Galilee",
    "time": "דקה",
    "time_en": "A minute",
    "countdown": 60,
    "lat": 32.164835,
    "lng": 34.812187,
    "value": "אתגר (גליל תחתון 63)"
  },
  {
    "name": "באקה",
    "name_en": "Baqa",
    "zone": "שומרון 120",
    "zone_en": "Samaria 120",
    "codes": [
      120
    ],
    "region": "שומרון",
    "region_en": "Samaria",
    "time": "דקה",
    "time_en": "A minute",
    "countdown": 60,
    "lat": 32.422891,
    "lng": 35.035764,
    "value": "באקה (שומרון 120)"
  },
  {
    "name": "באקה א שרקיה",
    "name_en": "Baka A-Sharkia",
    "zone": "שומרון 119",
    "zone_en": "Samaria 119",
    "codes": [
      119
    ],
    "region": "שומרון",
    "region_en": "Samaria",
    "time": "דקה",
    "time_en": "A minute",
    "countdown": 60,
    "lat": 32.411141,
    "lng": 35.071193,
    "value": "באקה א שרקיה (שומרון 119)"
  },
  {
    "name": "באקה אל ע'רביה",
    "name_en": "Baqa El Arabia",
    "zone": "ואדי ערה 149",
    "zone_en": "Wadi Ara 149",
    "codes": [
      149
    ],
    "region": "ואדי ערה",
    "region_en": "Wadi Ara",
    "time": "דקה",
    "time_en": "A minute",
    "countdown": 60,
    "lat": 32.422891,
    "lng": 35.035764,
    "value": "באקה אל ע'רביה (ואדי ערה 149)"
  },
  {
    "name": "באקה ג'ת",
    "name_en": "Baqa J'at",
    "zone": "ואדי ערה 149",
    "zone_en": "Wadi Ara 149",
    "codes": [
      149
    ],
    "region": "ואדי ערה",
    "region_en": "Wadi Ara",
    "time": "דקה",
    "time_en": "A minute",
    "countdown": 60,
    "lat": 32.4045594,
    "lng": 35.047091,
    "value": "באקה ג'ת (ואדי ערה 149)"
  },
  {
    "name": "באר אורה",
    "name_en": "Be'er Ora",
    "zone": "ערבה 310",
    "zone_en": "Arabah 310",
    "codes": [
      310
    ],
    "region": "ערבה",
    "region_en": "Arabah",
    "time": "3 דקות",
    "time_en": "3 minutes",
    "countdown": 180,
    "lat": 29.710166,
    "lng": 34.987218,
    "value": "באר אורה (ערבה 310)"
  },
  {
    "name": "באר גנים",
    "name_en": "Be'ere Ganim",
    "zone": "לכיש 246",
    "zone_en": "Lakhish 246",
    "codes": [
      246
    ],
    "region": "לכיש",
    "region_en": "Lakhish",
    "time": "30 שניות",
    "time_en": "30 seconds",
    "countdown": 90,
    "lat": 31.700354,
    "lng": 34.610934,
    "value": "באר גנים (לכיש 246)"
  },
  {
    "name": "באר טוביה",
    "name_en": "Be'er Tuvia",
    "zone": "לכיש 275",
    "zone_en": "Lakhish 275",
    "codes": [
      275
    ],
    "region": "לכיש",
    "region_en": "Lakhish",
    "time": "45 שניות",
    "time_en": "45 seconds",
    "countdown": 45,
    "lat": 31.737127,
    "lng": 34.72557,
    "value": "באר טוביה (לכיש 275)"
  },
  {
    "name": "באר יעקב",
    "name_en": "Beer Yaacov",
    "zone": "השפלה 178",
    "zone_en": "Shfela 178",
    "codes": [
      178
    ],
    "region": "השפלה",
    "region_en": "Shfela",
    "time": "דקה",
    "time_en": "A minute",
    "countdown": 60,
    "lat": 31.943507,
    "lng": 34.83904,
    "value": "באר יעקב (השפלה 178)"
  },
  {
    "name": "באר מילכה",
    "name_en": "Beer Milka",
    "zone": "דרום הנגב 302",
    "zone_en": "Southern Negev 302",
    "codes": [
      302
    ],
    "region": "דרום הנגב",
    "region_en": "Southern Negev",
    "time": "דקה",
    "time_en": "A minute",
    "countdown": 60,
    "lat": 30.934112,
    "lng": 34.405643,
    "value": "באר מילכה (דרום הנגב 302)"
  },
  {
    "name": "באר שבע",
    "name_en": "Beer Sheva",
    "zone": "מרכז הנגב 292",
    "zone_en": "Central Negev 292",
    "codes": [
      292
    ],
    "region": "מרכז הנגב",
    "region_en": "Central Negev",
    "time": "דקה",
    "time_en": "A minute",
    "countdown": 60,
    "lat": 31.252973,
    "lng": 34.791462,
    "value": "באר שבע (מרכז הנגב 292)",
    "shelters": 4
  },
  {
    "name": "בארות יצחק",
    "name_en": "Beerot Yitzhak",
    "zone": "ירקון 169",
    "zone_en": "Yarkon 169",
    "codes": [
      169
    ],
    "region": "ירקון",
    "region_en": "Yarkon",
    "time": "דקה",
    "time_en": "A minute",
    "countdown": 60,
    "lat": 32.042025,
    "lng": 34.910221,
    "value": "בארות יצחק (ירקון 169)"
  },
  {
    "name": "בארותיים",
    "name_en": "Be'erotayim",
    "zone": "חפר 150",
    "zone_en": "Hefer 150",
    "codes": [
      150
    ],
    "region": "חפר",
    "region_en": "Hefer",
    "time": "דקה",
    "time_en": "A minute",
    "countdown": 60,
    "lat": 32.321039,
    "lng": 34.98343,
    "value": "בארותיים (חפר 150)"
  },
  {
    "name": "בארי",
    "name_en": "Beeri",
    "zone": "עוטף עזה 227",
    "zone_en": "Gaza Containment Zone 227",
    "codes": [
      227
    ],
    "region": "עוטף עזה",
    "region_en": "Gaza Containment Zone",
    "time": "15 שניות",
    "time_en": "15 seconds",
    "countdown": 15,
    "lat": 31.424513,
    "lng": 34.492567,
    "value": "בארי (עוטף עזה 227)",
    "shelters": 2
  },
  {
    "name": "בד פלוח",
    "name_en": "Bad Paluch",
    "zone": "יהודה 200",
    "zone_en": "Judea 200",
    "codes": [
      200
    ],
    "region": "יהודה",
    "region_en": "Judea",
    "time": "דקה",
    "time_en": "A minute",
    "countdown": 60,
    "lat": 31.669249,
    "lng": 35.219529,
    "value": "בד פלוח (יהודה 200)"
  },
  {
    "name": "בודרוס",
    "name_en": "Budrus",
    "zone": "שפלה 181",
    "zone_en": "Shfela 181",
    "codes": [
      181
    ],
    "region": "שפלה",
    "region_en": "Shfela",
    "time": "דקה",
    "time_en": "A minute",
    "countdown": 60,
    "lat": 31.967678,
    "lng": 34.993693,
    "value": "בודרוס (שפלה 181)"
  },
  {
    "name": "בוסתן הגליל",
    "name_en": "Bustan Hagalil",
    "zone": "גליל עליון 37",
    "zone_en": "Upper Galilee 37",
    "codes": [
      37
    ],
    "region": "גליל עליון",
    "region_en": "Upper Galilee",
    "time": "30 שניות",
    "time_en": "30 seconds",
    "countdown": 90,
    "lat": 32.948636,
    "lng": 35.08068799999999,
    "value": "בוסתן הגליל (גליל עליון 37)",
    "shelters": 1
  },
  {
    "name": "בועיינה נוגיידאת",
    "name_en": "Bueine Nujeidat",
    "zone": "גליל תחתון 57",
    "zone_en": "Lower Galilee 57",
    "codes": [
      57
    ],
    "region": "גליל תחתון",
    "region_en": "Lower Galilee",
    "time": "דקה",
    "time_en": "A minute",
    "countdown": 60,
    "lat": 32.807711,
    "lng": 35.36527,
    "value": "בועיינה נוגיידאת (גליל תחתון 57)"
  },
  {
    "name": "בוקעתא",
    "name_en": "Buk'ata",
    "zone": "גולן 2",
    "zone_en": "Golan 2",
    "codes": [
      2
    ],
    "region": "גולן",
    "region_en": "Golan",
    "time": "מיידי",
    "time_en": "Immediately",
    "countdown": 0,
    "lat": 33.2026572,
    "lng": 35.7767723,
    "value": "בוקעתא (גולן 2)"
  },
  {
    "name": "בור אל מכסור",
    "name_en": "Bir Al-Maksur",
    "zone": "גליל תחתון 63",
    "zone_en": "Lower Galilee 63",
    "codes": [
      63
    ],
    "region": "גליל תחתון",
    "region_en": "Lower Galilee",
    "time": "דקה",
    "time_en": "A minute",
    "countdown": 60,
    "lat": 32.768618,
    "lng": 35.221196,
    "value": "בור אל מכסור (גליל תחתון 63)"
  },
  {
    "name": "בורג'",
    "name_en": "Buraj",
    "zone": "לכיש 285",
    "zone_en": "Lakhish 285",
    "codes": [
      285
    ],
    "region": "לכיש",
    "region_en": "Lakhish",
    "time": "דקה",
    "time_en": "A minute",
    "countdown": 60,
    "lat": 31.809703,
    "lng": 34.787671,
    "value": "בורג' (לכיש 285)"
  },
  {
    "name": "בורגתה",
    "name_en": "Burgata",
    "zone": "חפר 150",
    "zone_en": "Hefer 150",
    "codes": [
      150
    ],
    "region": "חפר",
    "region_en": "Hefer",
    "time": "דקה",
    "time_en": "A minute",
    "countdown": 60,
    "lat": 32.325972,
    "lng": 34.963848,
    "value": "בורגתה (חפר 150)"
  },
  {
    "name": "בורהאם",
    "name_en": "Borham",
    "zone": "שומרון 124",
    "zone_en": "Samaria 124",
    "codes": [
      124
    ],
    "region": "שומרון",
    "region_en": "Samaria",
    "time": "דקה",
    "time_en": "A minute",
    "countdown": 60,
    "lat": 31.046051,
    "lng": 34.851612,
    "value": "בורהאם (שומרון 124)"
  },
  {
    "name": "בורוקין",
    "name_en": "Borokin",
    "zone": "שומרון 124",
    "zone_en": "Samaria 124",
    "codes": [
      124
    ],
    "region": "שומרון",
    "region_en": "Samaria",
    "time": "דקה",
    "time_en": "A minute",
    "countdown": 60,
    "lat": 32.072613,
    "lng": 35.098406,
    "value": "בורוקין (שומרון 124)"
  },
  {
    "name": "בורין",
    "name_en": "Borin",
    "zone": "שומרון 120",
    "zone_en": "Samaria 120",
    "codes": [
      120
    ],
    "region": "שומרון",
    "region_en": "Samaria",
    "time": "דקה",
    "time_en": "A minute",
    "countdown": 60,
    "lat": 32.184659,
    "lng": 35.249229,
    "value": "בורין (שומרון 120)"
  },
  {
    "name": "בורקה",
    "name_en": "Buraka",
    "zone": "שומרון 126",
    "zone_en": "Samaria 126",
    "codes": [
      126
    ],
    "region": "שומרון",
    "region_en": "Samaria",
    "time": "דקה",
    "time_en": "A minute",
    "countdown": 60,
    "lat": 32.301365,
    "lng": 35.192933,
    "value": "בורקה (שומרון 126)"
  },
  {
    "name": "בורקה ליד שכם",
    "name_en": "Bor'eka Near Shechem (Nablus)",
    "zone": "שומרון 118",
    "zone_en": "Samaria 118",
    "codes": [
      118
    ],
    "region": "שומרון",
    "region_en": "Samaria",
    "time": "דקה",
    "time_en": "A minute",
    "countdown": 60,
    "lat": 32.301365,
    "lng": 35.192933,
    "value": "בורקה ליד שכם (שומרון 118)"
  },
  {
    "name": "בורקין",
    "name_en": "Borkin",
    "zone": "שומרון 118",
    "zone_en": "Samaria 118",
    "codes": [
      118
    ],
    "region": "שומרון",
    "region_en": "Samaria",
    "time": "דקה",
    "time_en": "A minute",
    "countdown": 60,
    "lat": 32.5139428,
    "lng": 34.9478317,
    "value": "בורקין (שומרון 118)"
  },
  {
    "name": "בזאריה",
    "name_en": "Bazariya",
    "zone": "שומרון 119",
    "zone_en": "Samaria 119",
    "codes": [
      119
    ],
    "region": "שומרון",
    "region_en": "Samaria",
    "time": "דקה",
    "time_en": "A minute",
    "countdown": 60,
    "lat": 32.307275,
    "lng": 35.163804,
    "value": "בזאריה (שומרון 119)"
  },
  {
    "name": "בחן",
    "name_en": "Bahan",
    "zone": "חפר 148",
    "zone_en": "Hefer 148",
    "codes": [
      148
    ],
    "region": "חפר",
    "region_en": "Hefer",
    "time": "דקה",
    "time_en": "A minute",
    "countdown": 60,
    "lat": 32.351831,
    "lng": 35.018542,
    "value": "בחן (חפר 148)"
  },
  {
    "name": "בטחה",
    "name_en": "Batcha",
    "zone": "מרכז הנגב 289",
    "zone_en": "Central Negev 289",
    "codes": [
      289
    ],
    "region": "מרכז הנגב",
    "region_en": "Central Negev",
    "time": "45 שניות",
    "time_en": "45 seconds",
    "countdown": 45,
    "lat": 31.333869,
    "lng": 34.634318,
    "value": "בטחה (מרכז הנגב 289)"
  },
  {
    "name": "בי'ס אזורי מקיף מטה אשר",
    "name_en": "Mateh Asher Regional Comprehensive School",
    "zone": "קו העימות 30",
    "zone_en": "Confrontation Line 30",
    "codes": [
      30
    ],
    "region": "קו העימות",
    "region_en": "Confrontation Line",
    "time": "מיידי",
    "time_en": "Immediately",
    "countdown": 0,
    "lat": 33.0108755,
    "lng": 35.1514076,
    "value": "בי'ס אזורי מקיף מטה אשר (קו העימות 30)"
  },
  {
    "name": "ביאדה",
    "name_en": "Biada",
    "zone": "ואדי ערה 113",
    "zone_en": "Wadi Ara 113",
    "codes": [
      113
    ],
    "region": "ואדי ערה",
    "region_en": "Wadi Ara",
    "time": "דקה",
    "time_en": "A minute",
    "countdown": 60,
    "lat": 32.556389,
    "lng": 35.165731,
    "value": "ביאדה (ואדי ערה 113)"
  },
  {
    "name": "בידו",
    "name_en": "Bido",
    "zone": "בית שמש 190",
    "zone_en": "Beit Shemesh 190",
    "codes": [
      190
    ],
    "region": "בית שמש",
    "region_en": "Beit Shemesh",
    "time": "דקה",
    "time_en": "A minute",
    "countdown": 60,
    "lat": 31.834407,
    "lng": 35.148239,
    "value": "בידו (בית שמש 190)"
  },
  {
    "name": "בידיה",
    "name_en": "Bidiya",
    "zone": "שומרון 121",
    "zone_en": "Samaria 121",
    "codes": [
      121
    ],
    "region": "שומרון",
    "region_en": "Samaria",
    "time": "דקה",
    "time_en": "A minute",
    "countdown": 60,
    "lat": 32.113366,
    "lng": 35.077465,
    "value": "בידיה (שומרון 121)"
  },
  {
    "name": "ביכורה",
    "name_en": "Bechora (Sataf)",
    "zone": "בקעת בית שאן 128",
    "zone_en": "Beit Sha'an Valley 128",
    "codes": [
      128
    ],
    "region": "בקעת בית שאן",
    "region_en": "Beit Sha'an Valley",
    "time": "דקה",
    "time_en": "A minute",
    "countdown": 60,
    "lat": 32.447214,
    "lng": 35.487443,
    "value": "ביכורה (בקעת בית שאן 128)"
  },
  {
    "name": "בילעין",
    "name_en": "Bilin",
    "zone": "שומרון 126",
    "zone_en": "Samaria 126",
    "codes": [
      126
    ],
    "region": "שומרון",
    "region_en": "Samaria",
    "time": "דקה",
    "time_en": "A minute",
    "countdown": 60,
    "lat": 31.92851599999999,
    "lng": 35.070954,
    "value": "בילעין (שומרון 126)"
  },