[
  {
    "name": "בחר הכל",
    "name_en": "Select All",
    "zone": "",
    "zone_en": "",
    "codes": [],
    "region": "",
    "time": "all",
    "countdown": 0,
    "lat": 0,
    "lng": 0,
    "value": "all"
  },
  {
    "name": "א דהאבשה",
    "name_en": "E-Dahabshe",
    "zone": "נגב 300",
    "zone_en": "Negev 300",
    "codes": [
      300
    ],
    "region": "נגב",
    "time": "דקה וחצי",
    "countdown": 90,
    "lat": 31.2260437,
    "lng": 35.1474838,
    "value": "א דהאבשה (נגב 300)"
  },
  {
    "name": "א דיראת",
    "name_en": "al Dayrat",
    "zone": "יהודה 207",
    "zone_en": "Judea 207",
    "codes": [
      207
    ],
    "region": "יהודה",
    "time": "דקה וחצי",
    "countdown": 90,
    "lat": 31.4438744,
    "lng": 35.15969,
    "value": "א דיראת (יהודה 207)"
  },
  {
    "name": "א דנפירי",
    "name_en": "E-Danfiri",
    "zone": "נגב 300",
    "zone_en": "Negev 300",
    "codes": [
      300
    ],
    "region": "נגב",
    "time": "דקה",
    "countdown": 60,
    "lat": 31.1277,
    "lng": 34.8139648,
    "value": "א דנפירי (נגב 300)"
  },
  {
    "name": "א זיאדנה דרומית לרהט",
    "name_en": "E-Ziyadna (South to Rahat)",
    "zone": "באר שבע 286",
    "zone_en": "Beer Sheva 286",
    "codes": [
      286
    ],
    "region": "באר שבע",
    "time": "45 שניות",
    "countdown": 45,
    "lat": 31.3670921,
    "lng": 34.7400932,
    "value": "א זיאדנה דרומית לרהט (באר שבע 286)"
  },
  {
    "name": "א זיאדנה צפונית לרהט",
    "name_en": "E-Ziyadna (North to Rahat)",
    "zone": "באר שבע 286",
    "zone_en": "Beer Sheva 286",
    "codes": [
      286
    ],
    "region": "באר שבע",
    "time": "45 שניות",
    "countdown": 45,
    "lat": 31.4144344,
    "lng": 34.77579,
    "value": "א זיאדנה צפונית לרהט (באר שבע 286)"
  },
  {
    "name": "א זעיים",
    "name_en": "alZa'im",
    "zone": "ירושלים 194",
    "zone_en": "Jerusalem 194",
    "codes": [
      194
    ],
    "region": "ירושלים",
    "time": "דקה וחצי",
    "countdown": 90,
    "lat": 31.7877,
    "lng": 35.26353,
    "value": "א זעיים (ירושלים 194)"
  },
  {
    "name": "א טבקה",
    "name_en": "alTabqa",
    "zone": "יהודה 207",
    "zone_en": "Judea 207",
    "codes": [
      207
    ],
    "region": "יהודה",
    "time": "דקה וחצי",
    "countdown": 90,
    "lat": 31.49649,
    "lng": 35.0164452,
    "value": "א טבקה (יהודה 207)"
  },
  {
    "name": "א טוואני",
    "name_en": "alTawani",
    "zone": "יהודה 207",
    "zone_en": "Judea 207",
    "codes": [
      207
    ],
    "region": "יהודה",
    "time": "דקה וחצי",
    "countdown": 90,
    "lat": 31.4137611,
    "lng": 35.1526566,
    "value": "א טוואני (יהודה 207)"
  },
  {
    "name": "א לובאן",
    "name_en": "Al-Lubban Al-Gharbi",
    "zone": "שומרון 123",
    "zone_en": "Samaria 123",
    "codes": [
      123
    ],
    "region": "שומרון",
    "time": "דקה וחצי",
    "countdown": 90,
    "lat": 32.0357742,
    "lng": 35.0383644,
    "value": "א לובאן (שומרון 123)"
  },
  {
    "name": "א נבארי",
    "name_en": "E-Nabari",
    "zone": "נגב 296",
    "zone_en": "Negev 296",
    "codes": [
      296
    ],
    "region": "נגב",
    "time": "דקה וחצי",
    "countdown": 90,
    "lat": 31.2824669,
    "lng": 34.9411,
    "value": "א נבארי (נגב 296)"
  },
  {
    "name": "א נוואקיר",
    "name_en": "al-Nawaqir",
    "zone": "קו העימות 15",
    "zone_en": "Confrontation line 15",
    "codes": [
      15
    ],
    "region": "קו העימות",
    "time": "מיידי",
    "countdown": 0,
    "lat": 33.09079,
    "lng": 35.21364,
    "value": "א נוואקיר (קו העימות 15)"
  },
  {
    "name": "א סייד",
    "name_en": "al-Sayyid",
    "zone": "דרום הנגב 296",
    "zone_en": "Southern Negev 296",
    "codes": [
      296
    ],
    "region": "דרום הנגב",
    "time": "דקה וחצי",
    "countdown": 90,
    "lat": 31.28172,
    "lng": 34.9162979,
    "value": "א סייד (דרום הנגב 296)"
  },
  {
    "name": "א סלבה",
    "name_en": "al-Saliba",
    "zone": "קצרין 7",
    "zone_en": "Katzrin 7",
    "codes": [
      7
    ],
    "region": "קצרין",
    "time": "15 שניות",
    "countdown": 15,
    "lat": 32.9293938,
    "lng": 35.7127647,
    "value": "א סלבה (קצרין 7)"
  },
  {
    "name": "א ראם",
    "name_en": "al-Ram",
    "zone": "שומרון 126",
    "zone_en": "Samaria 126",
    "codes": [
      126
    ],
    "region": "שומרון",
    "time": "דקה וחצי",
    "countdown": 90,
    "lat": 31.8492527,
    "lng": 35.23349,
    "value": "א ראם (שומרון 126)"
  },
  {
    "name": "א ראס",
    "name_en": "al-Ra's",
    "zone": "שומרון 120",
    "zone_en": "Samaria 120",
    "codes": [
      120
    ],
    "region": "שומרון",
    "time": "דקה וחצי",
    "countdown": 90,
    "lat": 32.2517471,
    "lng": 35.06292,
    "value": "א ראס (שומרון 120)"
  },
  {
    "name": "א ריחייה",
    "name_en": "al-Rayhiyya",
    "zone": "יהודה 207",
    "zone_en": "Judea 207",
    "codes": [
      207
    ],
    "region": "יהודה",
    "time": "דקה וחצי",
    "countdown": 90,
    "lat": 31.4704781,
    "lng": 35.0789032,
    "value": "א ריחייה (יהודה 207)"
  },
  {
    "name": "א שהאדה",
    "name_en": "alShahada",
    "zone": "שומרון 119",
    "zone_en": "Samaria 119",
    "codes": [
      119
    ],
    "region": "שומרון",
    "time": "דקה וחצי",
    "countdown": 90,
    "lat": 32.42999,
    "lng": 35.271843,
    "value": "א שהאדה (שומרון 119)"
  },
  {
    "name": "א שויוח",
    "name_en": "alShuyukh",
    "zone": "יהודה 206",
    "zone_en": "Judea 206",
    "codes": [
      206
    ],
    "region": "יהודה",
    "time": "דקה וחצי",
    "countdown": 90,
    "lat": 31.5749969,
    "lng": 35.14942,
    "value": "א שויוח (יהודה 206)"
  },
  {
    "name": "א שייח' אחמד",
    "name_en": "alShaykh Ahmad",
    "zone": "שומרון 121",
    "zone_en": "Samaria 121",
    "codes": [
      121
    ],
    "region": "שומרון",
    "time": "דקה וחצי",
    "countdown": 90,
    "lat": 32.1489449,
    "lng": 35.0011139,
    "value": "א שייח' אחמד (שומרון 121)"
  },
  {
    "name": "אבו ג'אבר",
    "name_en": "Abu Jaber",
    "zone": "נגב 287",
    "zone_en": "Negev 287",
    "codes": [
      287
    ],
    "region": "נגב",
    "time": "דקה וחצי",
    "countdown": 90,
    "lat": 31.31526,
    "lng": 34.8686752,
    "value": "אבו ג'אבר (נגב 287)"
  },
  {
    "name": "אבו ג'ווייעד",
    "name_en": "Abu Jwei'ad",
    "zone": "נגב 299",
    "zone_en": "Negev 299",
    "codes": [
      299
    ],
    "region": "נגב",
    "time": "דקה וחצי",
    "countdown": 90,
    "lat": 31.1806622,
    "lng": 35.07284,
    "value": "אבו ג'ווייעד (נגב 299)"
  },
  {
    "name": "אבו ג'ויעד",
    "name_en": "Abu Jwei'ed",
    "zone": "נגב 299",
    "zone_en": "Negev 299",
    "codes": [
      299
    ],
    "region": "נגב",
    "time": "דקה וחצי",
    "countdown": 90,
    "lat": 31.2448387,
    "lng": 35.01606,
    "value": "אבו ג'ויעד (נגב 299)"
  },
  {
    "name": "אבו גוש",
    "name_en": "Abu Ghosh",
    "zone": "בית שמש 189",
    "zone_en": "Beit Shemesh 189",
    "codes": [
      189
    ],
    "region": "בית שמש",
    "time": "דקה וחצי",
    "countdown": 90,
    "lat": 31.8062935,
    "lng": 35.10919,
    "value": "אבו גוש (בית שמש 189)"
  },
  {
    "name": "אבו דיאב",
    "name_en": "Abu Diyab",
    "zone": "גליל תחתון 63",
    "zone_en": "Lower Galilee 63",
    "codes": [
      63
    ],
    "region": "גליל תחתון",
    "time": "דקה",
    "countdown": 60,
    "lat": 32.7692451,
    "lng": 35.1795425,
    "value": "אבו דיאב (גליל תחתון 63)"
  },
  {
    "name": "אבו דיס",
    "name_en": "Abu Dis",
    "zone": "ירושלים 194",
    "zone_en": "Jerusalem 194",
    "codes": [
      194
    ],
    "region": "ירושלים",
    "time": "דקה וחצי",
    "countdown": 90,
    "lat": 31.7635822,
    "lng": 35.25772,
    "value": "אבו דיס (ירושלים 194)"
  },
  {
    "name": "אבו טראש",
    "name_en": "Abu Tarash",
    "zone": "נגב 287",
    "zone_en": "Negev 287",
    "codes": [
      287
    ],
    "region": "נגב",
    "time": "דקה וחצי",
    "countdown": 90,
    "lat": 31.2890453,
    "lng": 34.854023,
    "value": "אבו טראש (נגב 287)"
  },
  {
    "name": "אבו כף אום בטין",
    "name_en": "Abu Kaf Umm Batin",
    "zone": "נגב 287",
    "zone_en": "Negev 287",
    "codes": [
      287
    ],
    "region": "נגב",
    "time": "דקה וחצי",
    "countdown": 90,
    "lat": 31.2767429,
    "lng": 34.8829231,
    "value": "אבו כף אום בטין (נגב 287)"
  },
  {
    "name": "אבו נוג'ים",
    "name_en": "Abu Nujaym",
    "zone": "יהודה 200",
    "zone_en": "Judea 200",
    "codes": [
      200
    ],
    "region": "יהודה",
    "time": "דקה וחצי",
    "countdown": 90,
    "lat": 31.66192,
    "lng": 35.19929,
    "value": "אבו נוג'ים (יהודה 200)"
  },
  {
    "name": "אבו סלמאן",
    "name_en": "Abu Salman",
    "zone": "שומרון 121",
    "zone_en": "Samaria 121",
    "codes": [
      121
    ],
    "region": "שומרון",
    "time": "דקה וחצי",
    "countdown": 90,
    "lat": 32.14036,
    "lng": 34.99899,
    "value": "אבו סלמאן (שומרון 121)"
  },
  {
    "name": "אבו סנאן",
    "name_en": "Abu Snan",
    "zone": "גליל עליון 38",
    "zone_en": "Upper Galilee 38",
    "codes": [
      38
    ],
    "region": "גליל עליון",
    "time": "30 שניות",
    "countdown": 30,
    "lat": 32.95803,
    "lng": 35.17197,
    "value": "אבו סנאן (גליל עליון 38)"
  },
  {
    "name": "אבו סריחאן",
    "name_en": "Abu Sarikhan",
    "zone": "נגב 287",
    "zone_en": "Negev 287",
    "codes": [
      287
    ],
    "region": "נגב",
    "time": "דקה וחצי",
    "countdown": 90,
    "lat": 31.2543335,
    "lng": 34.88141,
    "value": "אבו סריחאן (נגב 287)"
  },
  {
    "name": "אבו עבדון",
    "name_en": "Abu 'Abdun",
    "zone": "נגב 287",
    "zone_en": "Negev 287",
    "codes": [
      287
    ],
    "region": "נגב",
    "time": "דקה וחצי",
    "countdown": 90,
    "lat": 31.3242722,
    "lng": 34.87412,
    "value": "אבו עבדון (נגב 287)"
  },
  {
    "name": "אבו עמאר",
    "name_en": "Abu Ammar",
    "zone": "נגב 287",
    "zone_en": "Negev 287",
    "codes": [
      287
    ],
    "region": "נגב",
    "time": "דקה וחצי",
    "countdown": 90,
    "lat": 31.1383553,
    "lng": 34.9540329,
    "value": "אבו עמאר (נגב 287)"
  },
  {
    "name": "אבו עסא",
    "name_en": "Abu Isa",
    "zone": "נגב 287",
    "zone_en": "Negev 287",
    "codes": [
      287
    ],
    "region": "נגב",
    "time": "דקה וחצי",
    "countdown": 90,
    "lat": 31.250246,
    "lng": 34.87339,
    "value": "אבו עסא (נגב 287)"
  },
  {
    "name": "אבו עפאש",
    "name_en": "Abu Afash",
    "zone": "נגב 300",
    "zone_en": "Negev 300",
    "codes": [
      300
    ],
    "region": "נגב",
    "time": "דקה",
    "countdown": 60,
    "lat": 31.15986,
    "lng": 34.8089828,
    "value": "אבו עפאש (נגב 300)"
  },
  {
    "name": "אבו קוידר",
    "name_en": "Abu Queider",
    "zone": "נגב 297",
    "zone_en": "Negev 297",
    "codes": [
      297
    ],
    "region": "נגב",
    "time": "דקה וחצי",
    "countdown": 90,
    "lat": 31.2068367,
    "lng": 34.9234848,
    "value": "אבו קוידר (נגב 297)"
  },
  {
    "name": "אבו קורינאת",
    "name_en": "Abu Qrenat",
    "zone": "דרום הנגב 301",
    "zone_en": "Southern Negev 301",
    "codes": [
      301
    ],
    "region": "דרום הנגב",
    "time": "דקה וחצי",
    "countdown": 90,
    "lat": 31.1031151,
    "lng": 34.9520035,
    "value": "אבו קורינאת (דרום הנגב 301)"
  },
  {
    "name": "אבו קש",
    "name_en": "Abu Qash",
    "zone": "שומרון 126",
    "zone_en": "Samaria 126",
    "codes": [
      126
    ],
    "region": "שומרון",
    "time": "דקה וחצי",
    "countdown": 90,
    "lat": 31.9507332,
    "lng": 35.18472,
    "value": "אבו קש (שומרון 126)"
  },
  {
    "name": "אבו רביעה",
    "name_en": "Abu Rbei'a",
    "zone": "נגב 299",
    "zone_en": "Negev 299",
    "codes": [
      299
    ],
    "region": "נגב",
    "time": "דקה וחצי",
    "countdown": 90,
    "lat": 31.23081,
    "lng": 35.06421,
    "value": "אבו רביעה (נגב 299)"
  },
  {
    "name": "אבו רביעה צפונית לכסיפה",
    "name_en": "Abu Rbei'a (North to Kseifa)",
    "zone": "נגב 299",
    "zone_en": "Negev 299",
    "codes": [
      299
    ],
    "region": "נגב",
    "time": "דקה וחצי",
    "countdown": 90,
    "lat": 31.2820168,
    "lng": 35.0391045,
    "value": "אבו רביעה צפונית לכסיפה (נגב 299)"
  },
  {
    "name": "אבו ריקייק",
    "name_en": "Abu Rikayik",
    "zone": "נגב 287",
    "zone_en": "Negev 287",
    "codes": [
      287
    ],
    "region": "נגב",
    "time": "דקה וחצי",
    "countdown": 90,
    "lat": 0,
    "lng": 0,
    "value": "אבו ריקייק (נגב 287)"
  },
  {
    "name": "אבו שחידם",
    "name_en": "Abu Shukhaydam",
    "zone": "שומרון 126",
    "zone_en": "Samaria 126",
    "codes": [
      126
    ],
    "region": "שומרון",
    "time": "דקה וחצי",
    "countdown": 90,
    "lat": 31.9665318,
    "lng": 35.1708145,
    "value": "אבו שחידם (שומרון 126)"
  },
  {
    "name": "אבו תלול",
    "name_en": "Abu Tulul",
    "zone": "דרום הנגב 297",
    "zone_en": "Southern Negev 297",
    "codes": [
      297
    ],
    "region": "דרום הנגב",
    "time": "דקה וחצי",
    "countdown": 90,
    "lat": 31.1426125,
    "lng": 34.9135132,
    "value": "אבו תלול (דרום הנגב 297)"
  },
  {
    "name": "אבטין",
    "name_en": "Ibtin",
    "zone": "חיפה והקריות 86",
    "zone_en": "Haifa and Hakrayot 86",
    "codes": [
      86
    ],
    "region": "חיפה והקריות",
    "time": "דקה",
    "countdown": 60,
    "lat": 32.759964,
    "lng": 35.1146,
    "value": "אבטין (חיפה והקריות 86)"
  },
  {
    "name": "אבטליון",
    "name_en": "Avtalion",
    "zone": "גליל תחתון 60",
    "zone_en": "Lower Galilee 60",
    "codes": [
      60
    ],
    "region": "גליל תחתון",
    "time": "דקה",
    "countdown": 60,
    "lat": 32.83578,
    "lng": 35.35044,
    "value": "אבטליון (גליל תחתון 60)"
  },
  {
    "name": "אביאל",
    "name_en": "Aviel",
    "zone": "מנשה 104",
    "zone_en": "Menashe 104",
    "codes": [
      104
    ],
    "region": "מנשה",
    "time": "דקה וחצי",
    "countdown": 90,
    "lat": 32.5313454,
    "lng": 34.9934921,
    "value": "אביאל (מנשה 104)"
  },
  {
    "name": "אביבים",
    "name_en": "Avivim",
    "zone": "קו העימות 22",
    "zone_en": "Confrontation line 22",
    "codes": [
      22
    ],
    "region": "קו העימות",
    "time": "מיידי",
    "countdown": 0,
    "lat": 33.0893822,
    "lng": 35.4703369,
    "value": "אביבים (קו העימות 22)"
  },
  {
    "name": "אביגדור",
    "name_en": "Avigdor",
    "zone": "לכיש 275",
    "zone_en": "Lakhish 275",
    "codes": [
      275
    ],
    "region": "לכיש",
    "time": "45 שניות",
    "countdown": 45,
    "lat": 31.7119,
    "lng": 34.7403679,
    "value": "אביגדור (לכיש 275)"
  },
  {
    "name": "אביחיל",
    "name_en": "Avihayil",
    "zone": "שרון 138",
    "zone_en": "Sharon 138",
    "codes": [
      138
    ],
    "region": "שרון",
    "time": "דקה וחצי",
    "countdown": 90,
    "lat": 32.350708,
    "lng": 34.8712273,
    "value": "אביחיל (שרון 138)"
  },
  {
    "name": "אביטל",
    "name_en": "Avital",
    "zone": "עמק יזרעאל 93",
    "zone_en": "Jezreel Valley 93",
    "codes": [
      93
    ],
    "region": "עמק יזרעאל",
    "time": "דקה",
    "countdown": 60,
    "lat": 32.5576744,
    "lng": 35.30641,
    "value": "אביטל (עמק יזרעאל 93)"
  },
  {
    "name": "אביעזר",
    "name_en": "Aviezer",
    "zone": "בית שמש-יהודה 188",
    "zone_en": "Beit Shemesh-Judea 188",
    "codes": [
      188
    ],
    "region": "בית שמש-יהודה",
    "time": "דקה וחצי",
    "countdown": 90,
    "lat": 31.6819954,
    "lng": 35.01882,
    "value": "אביעזר (בית שמש-יהודה 188)"
  },
  {
    "name": "אבירים",
    "name_en": "Abirim",
    "zone": "קו העימות 17",
    "zone_en": "Confrontation line 17",
    "codes": [
      17
    ],
    "region": "קו העימות",
    "time": "מיידי",
    "countdown": 0,
    "lat": 33.0380859,
    "lng": 35.2860451,
    "value": "אבירים (קו העימות 17)"
  },
  {
    "name": "אבן יהודה",
    "name_en": "Even Yehuda",
    "zone": "שרון 142",
    "zone_en": "Sharon 142",
    "codes": [
      142
    ],
    "region": "שרון",
    "time": "דקה וחצי",
    "countdown": 90,
    "lat": 32.27665,
    "lng": 34.8850861,
    "value": "אבן יהודה (שרון 142)"
  },
  {
    "name": "אבן מנחם",
    "name_en": "Even Menachem",
    "zone": "קו העימות 16",
    "zone_en": "Confrontation line 16",
    "codes": [
      16
    ],
    "region": "קו העימות",
    "time": "מיידי",
    "countdown": 0,
    "lat": 33.07514,
    "lng": 35.29522,
    "value": "אבן מנחם (קו העימות 16)"
  },
  {
    "name": "אבן ספיר",
    "name_en": "Even Sapir",
    "zone": "בית שמש 191",
    "zone_en": "Beit Shemesh 191",
    "codes": [
      191
    ],
    "region": "בית שמש",
    "time": "דקה וחצי",
    "countdown": 90,
    "lat": 31.7625,
    "lng": 35.13499,
    "value": "אבן ספיר (בית שמש 191)"
  },
  {
    "name": "אבן שמואל",
    "name_en": "Even Shmuel",
    "zone": "לכיש 281",
    "zone_en": "Lakhish 281",
    "codes": [
      281
    ],
    "region": "לכיש",
    "time": "30 שניות",
    "countdown": 30,
    "lat": 31.57643,
    "lng": 34.7629623,
    "value": "אבן שמואל (לכיש 281)"
  },
  {
    "name": "אבני איתן",
    "name_en": "Avnei Eitan",
    "zone": "גולן 5",
    "zone_en": "Golan 5",
    "codes": [
      5
    ],
    "region": "גולן",
    "time": "מיידי",
    "countdown": 0,
    "lat": 32.8248062,
    "lng": 35.7657776,
    "value": "אבני איתן (גולן 5)"
  },
  {
    "name": "אבני חפץ",
    "name_en": "Avnei Hefets",
    "zone": "שומרון 120",
    "zone_en": "Samaria 120",
    "codes": [
      120
    ],
    "region": "שומרון",
    "time": "דקה וחצי",
    "countdown": 90,
    "lat": 32.28463,
    "lng": 35.07455,
    "value": "אבני חפץ (שומרון 120)"
  },
  {
    "name": "אבנת",
    "name_en": "Ovnat",
    "zone": "ים המלח 210",
    "zone_en": "Dead Sea 210",
    "codes": [
      210
    ],
    "region": "ים המלח",
    "time": "דקה וחצי",
    "countdown": 90,
    "lat": 31.679039,
    "lng": 35.4369469,
    "value": "אבנת (ים המלח 210)"
  },
  {
    "name": "אבשלום",
    "name_en": "Avshalom",
    "zone": "מרכז הנגב-עוטף 238",
    "zone_en": "Central Negev-Gaza Perimeter 238",
    "codes": [
      238
    ],
    "region": "מרכז הנגב-עוטף",
    "time": "15 שניות",
    "countdown": 15,
    "lat": 31.1953964,
    "lng": 34.3312,
    "value": "אבשלום (מרכז הנגב-עוטף 238)"
  },
  {
    "name": "אדורה",
    "name_en": "Adora",
    "zone": "יהודה 207",
    "zone_en": "Judea 207",
    "codes": [
      207
    ],
    "region": "יהודה",
    "time": "דקה וחצי",
    "countdown": 90,
    "lat": 31.55222,
    "lng": 35.0176353,
    "value": "אדורה (יהודה 207)"
  },
  {
    "name": "אדירים",
    "name_en": "Adirim",
    "zone": "עמק יזרעאל 93",
    "zone_en": "Jezreel Valley 93",
    "codes": [
      93
    ],
    "region": "עמק יזרעאל",
    "time": "דקה",
    "countdown": 60,
    "lat": 32.5489426,
    "lng": 35.271637,
    "value": "אדירים (עמק יזרעאל 93)"
  },
  {
    "name": "אדם",
    "name_en": "Adam",
    "zone": "בקעה 133",
    "zone_en": "Syro-African Rift  133",
    "codes": [
      133
    ],
    "region": "בקעה",
    "time": "דקה וחצי",
    "countdown": 90,
    "lat": 31.8499985,
    "lng": 35.2738533,
    "value": "אדם (בקעה 133)"
  },
  {
    "name": "אדמית",
    "name_en": "Adamit",
    "zone": "קו העימות 15",
    "zone_en": "Confrontation line 15",
    "codes": [
      15
    ],
    "region": "קו העימות",
    "time": "מיידי",
    "countdown": 0,
    "lat": 33.0788422,
    "lng": 35.20951,
    "value": "אדמית (קו העימות 15)"
  },
  {
    "name": "אדרת",
    "name_en": "Aderet",
    "zone": "בית שמש-יהודה 188",
    "zone_en": "Beit Shemesh-Judea 188",
    "codes": [
      188
    ],
    "region": "בית שמש-יהודה",
    "time": "דקה וחצי",
    "countdown": 90,
    "lat": 31.6597157,
    "lng": 34.99444,
    "value": "אדרת (בית שמש-יהודה 188)"
  },
  {
    "name": "אודים",
    "name_en": "Udim",
    "zone": "שרון 142",
    "zone_en": "Sharon 142",
    "codes": [
      142
    ],
    "region": "שרון",
    "time": "דקה וחצי",
    "countdown": 90,
    "lat": 32.2668648,
    "lng": 34.8469963,
    "value": "אודים (שרון 142)"
  },
  {
    "name": "אודלה",
    "name_en": "Udala",
    "zone": "שומרון 120",
    "zone_en": "Samaria 120",
    "codes": [
      120
    ],
    "region": "שומרון",
    "time": "דקה וחצי",
    "countdown": 90,
    "lat": 32.1533737,
    "lng": 35.275528,
    "value": "אודלה (שומרון 120)"
  },
  {
    "name": "אודם",
    "name_en": "Odem",
    "zone": "גולן 2",
    "zone_en": "Golan 2",
    "codes": [
      2
    ],
    "region": "גולן",
    "time": "מיידי",
    "countdown": 0,
    "lat": 33.19337,
    "lng": 35.7495651,
    "value": "אודם (גולן 2)"
  },
  {
    "name": "אוהד",
    "name_en": "Ohad",
    "zone": "מרכז הנגב-עוטף 234",
    "zone_en": "Central Negev-Gaza Perimeter 234",
    "codes": [
      234
    ],
    "region": "מרכז הנגב-עוטף",
    "time": "15 שניות",
    "countdown": 15,
    "lat": 31.2384357,
    "lng": 34.4318924,
    "value": "אוהד (מרכז הנגב-עוטף 234)"
  },
  {
    "name": "אוהלו",
    "name_en": "Katsrin Oholo College",
    "zone": "תבור 98",
    "zone_en": "Tabor 98",
    "codes": [
      98
    ],
    "region": "תבור",
    "time": "דקה",
    "countdown": 60,
    "lat": 32.9897041,
    "lng": 35.69671,
    "value": "אוהלו (תבור 98)"
  },
  {
    "name": "אולפני נווה אילן",
    "name_en": "Neve Ilan Studios",
    "zone": "בית שמש 189",
    "zone_en": "Beit Shemesh 189",
    "codes": [
      189
    ],
    "region": "בית שמש",
    "time": "דקה וחצי",
    "countdown": 90,
    "lat": 31.8053188,
    "lng": 35.0918541,
    "value": "אולפני נווה אילן (בית שמש 189)"
  },
  {
    "name": "אום א טלע",
    "name_en": "Umm al-Tala'",
    "zone": "יהודה 200",
    "zone_en": "Judea 200",
    "codes": [
      200
    ],
    "region": "יהודה",
    "time": "דקה וחצי",
    "countdown": 90,
    "lat": 31.6968288,
    "lng": 35.262867,
    "value": "אום א טלע (יהודה 200)"
  },
  {
    "name": "אום א סח'אלי",
    "name_en": "Um e-Sakhali",
    "zone": "גליל תחתון 63",
    "zone_en": "Lower Galilee 63",
    "codes": [
      63
    ],
    "region": "גליל תחתון",
    "time": "דקה",
    "countdown": 60,
    "lat": 32.77055,
    "lng": 35.1775131,
    "value": "אום א סח'אלי (גליל תחתון 63)"
  },
  {
    "name": "אום א ריחאן",
    "name_en": "Umm al-Rihan",
    "zone": "שומרון 118",
    "zone_en": "Samaria 118",
    "codes": [
      118
    ],
    "region": "שומרון",
    "time": "דקה וחצי",
    "countdown": 90,
    "lat": 32.4845543,
    "lng": 35.14119,
    "value": "אום א ריחאן (שומרון 118)"
  },
  {
    "name": "אום א תות",
    "name_en": "Umm al-Tut",
    "zone": "שומרון 119",
    "zone_en": "Samaria 119",
    "codes": [
      119
    ],
    "region": "שומרון",
    "time": "דקה וחצי",
    "countdown": 90,
    "lat": 32.4317322,
    "lng": 35.3441467,
    "value": "אום א תות (שומרון 119)"
  },
  {
    "name": "אום אל פחם",
    "name_en": "Umm al-Fahm",
    "zone": "ואדי ערה 113",
    "zone_en": "Wadi Ara 113",
    "codes": [
      113
    ],
    "region": "ואדי ערה",
    "time": "דקה וחצי",
    "countdown": 90,
    "lat": 32.517128,
    "lng": 35.14853,
    "value": "אום אל פחם (ואדי ערה 113)"
  },
  {
    "name": "אום אל קוטוף",
    "name_en": "Umm al-Qutuf",
    "zone": "ואדי ערה 112",
    "zone_en": "Wadi Ara 112",
    "codes": [
      112
    ],
    "region": "ואדי ערה",
    "time": "דקה וחצי",
    "countdown": 90,
    "lat": 32.4680824,
    "lng": 35.05915,
    "value": "אום אל קוטוף (ואדי ערה 112)"
  },
  {
    "name": "אום בטין",
    "name_en": "Umm Batin",
    "zone": "דרום הנגב 297",
    "zone_en": "Southern Negev 297",
    "codes": [
      297
    ],
    "region": "דרום הנגב",
    "time": "דקה וחצי",
    "countdown": 90,
    "lat": 31.2767429,
    "lng": 34.8829231,
    "shelters": 4,
    "value": "אום בטין (דרום הנגב 297)"
  },
  {
    "name": "אום דאר",
    "name_en": "Umm Dar",
    "zone": "שומרון 118",
    "zone_en": "Samaria 118",
    "codes": [
      118
    ],
    "region": "שומרון",
    "time": "דקה וחצי",
    "countdown": 90,
    "lat": 32.4575272,
    "lng": 35.13817,
    "value": "אום דאר (שומרון 118)"
  },
  {
    "name": "אום סלמונה",
    "name_en": "Umm Salmuna",
    "zone": "יהודה 200",
    "zone_en": "Judea 200",
    "codes": [
      200
    ],
    "region": "יהודה",
    "time": "דקה וחצי",
    "countdown": 90,
    "lat": 31.6456642,
    "lng": 35.16523,
    "value": "אום סלמונה (יהודה 200)"
  },
  {
    "name": "אום ספא",
    "name_en": "Umm Safa",
    "zone": "שומרון 124",
    "zone_en": "Samaria 124",
    "codes": [
      124
    ],
    "region": "שומרון",
    "time": "דקה וחצי",
    "countdown": 90,
    "lat": 32.00887,
    "lng": 35.1656952,
    "value": "אום ספא (שומרון 124)"
  },
  {
    "name": "אום עלאס",
    "name_en": "Umm 'Allas",
    "zone": "יהודה 188",
    "zone_en": "Judea 188",
    "codes": [
      188
    ],
    "region": "יהודה",
    "time": "דקה וחצי",
    "countdown": 90,
    "lat": 31.6020775,
    "lng": 35.01247,
    "value": "אום עלאס (יהודה 188)"
  },
  {
    "name": "אום עסלה",
    "name_en": "Umm 'Asala",
    "zone": "יהודה 200",
    "zone_en": "Judea 200",
    "codes": [
      200
    ],
    "region": "יהודה",
    "time": "דקה וחצי",
    "countdown": 90,
    "lat": 31.69914,
    "lng": 35.2819138,
    "value": "אום עסלה (יהודה 200)"
  },
  {
    "name": "אומן",
    "name_en": "Merkaz Omen",
    "zone": "עמק יזרעאל 93",
    "zone_en": "Jezreel Valley 93",
    "codes": [
      93
    ],
    "region": "עמק יזרעאל",
    "time": "דקה",
    "countdown": 60,
    "lat": 32.5642776,
    "lng": 35.24194,
    "value": "אומן (עמק יזרעאל 93)"
  },
  {
    "name": "אומץ",
    "name_en": "Ometz",
    "zone": "חפר 148",
    "zone_en": "Hefer 148",
    "codes": [
      148
    ],
    "region": "חפר",
    "time": "דקה וחצי",
    "countdown": 90,
    "lat": 32.3692169,
    "lng": 34.99313,
    "value": "אומץ (חפר 148)"
  },
  {
    "name": "אופקים",
    "name_en": "Ofakim",
    "zone": "מרכז הנגב 288",
    "zone_en": "Central Negev 288",
    "codes": [
      288
    ],
    "region": "מרכז הנגב",
    "time": "45 שניות",
    "countdown": 45,
    "lat": 31.3113365,
    "lng": 34.6228256,
    "value": "אופקים (מרכז הנגב 288)"
  },
  {
    "name": "אור הגנוז",
    "name_en": "Or HaGanuz",
    "zone": "גליל עליון 44",
    "zone_en": "Upper Galilee 44",
    "codes": [
      44
    ],
    "region": "גליל עליון",
    "time": "30 שניות",
    "countdown": 30,
    "lat": 33.0051842,
    "lng": 35.4467354,
    "value": "אור הגנוז (גליל עליון 44)"
  },
  {
    "name": "אור הנר",
    "name_en": "Or HaNer",
    "zone": "עוטף עזה 219",
    "zone_en": "Gaza Perimeter 219",
    "codes": [
      219
    ],
    "region": "עוטף עזה",
    "time": "15 שניות",
    "countdown": 15,
    "lat": 31.5561962,
    "lng": 34.6023064,
    "value": "אור הנר (עוטף עזה 219)"
  },
  {
    "name": "אור יהודה",
    "name_en": "Or Yehuda",
    "zone": "דן 161",
    "zone_en": "Dan 161",
    "codes": [
      161
    ],
    "region": "דן",
    "time": "דקה וחצי",
    "countdown": 90,
    "lat": 32.029747,
    "lng": 34.8561745,
    "value": "אור יהודה (דן 161)"
  },
  {
    "name": "אור עקיבא",
    "name_en": "Or Akiva",
    "zone": "מנשה 105",
    "zone_en": "Menashe 105",
    "codes": [
      105
    ],
    "region": "מנשה",
    "time": "דקה וחצי",
    "countdown": 90,
    "lat": 32.509964,
    "lng": 34.9203949,
    "value": "אור עקיבא (מנשה 105)"
  },
  {
    "name": "אורה",
    "name_en": "Ora",
    "zone": "בית שמש 191",
    "zone_en": "Beit Shemesh 191",
    "codes": [
      191
    ],
    "region": "בית שמש",
    "time": "דקה וחצי",
    "countdown": 90,
    "lat": 31.75211,
    "lng": 35.1501656,
    "value": "אורה (בית שמש 191)"
  },
  {
    "name": "אורון",
    "name_en": "Oron",
    "zone": "דרום הנגב 301",
    "zone_en": "Southern Negev 301",
    "codes": [
      301
    ],
    "region": "דרום הנגב",
    "time": "דקה וחצי",
    "countdown": 90,
    "lat": 0,
    "lng": 0,
    "value": "אורון (דרום הנגב 301)"
  },
  {
    "name": "אורות",
    "name_en": "Orot",
    "zone": "לכיש 275",
    "zone_en": "Lakhish 275",
    "codes": [
      275
    ],
    "region": "לכיש",
    "time": "45 שניות",
    "countdown": 45,
    "lat": 31.7403641,
    "lng": 34.7356,
    "value": "אורות (לכיש 275)"
  },
  {
    "name": "אורטל",
    "name_en": "Ortal",
    "zone": "גולן 3",
    "zone_en": "Golan 3",
    "codes": [
      3
    ],
    "region": "גולן",
    "time": "מיידי",
    "countdown": 0,
    "lat": 33.086235,
    "lng": 35.75866,
    "value": "אורטל (גולן 3)"
  },
  {
    "name": "אורים",
    "name_en": "Urim",
    "zone": "מרכז הנגב 256",
    "zone_en": "Central Negev 256",
    "codes": [
      256
    ],
    "region": "מרכז הנגב",
    "time": "30 שניות",
    "countdown": 30,
    "lat": 31.3040943,
    "lng": 34.524868,
    "value": "אורים (מרכז הנגב 256)"
  },
  {
    "name": "אורנים",
    "name_en": "Oranim",
    "zone": "חיפה והקריות 86",
    "zone_en": "Haifa and Hakrayot 86",
    "codes": [
      86
    ],
    "region": "חיפה והקריות",
    "time": "דקה",
    "countdown": 60,
    "lat": 32.99765,
    "lng": 35.222,
    "value": "אורנים (חיפה והקריות 86)"
  },
  {
    "name": "אורנית",
    "name_en": "Oranit",
    "zone": "שרון 143",
    "zone_en": "Sharon 143",
    "codes": [
      143
    ],
    "region": "שרון",
    "time": "דקה וחצי",
    "countdown": 90,
    "lat": 32.1319237,
    "lng": 34.99081,
    "value": "אורנית (שרון 143)"
  },
  {
    "name": "אושה",
    "name_en": "Usha",
    "zone": "חיפה והקריות 71",
    "zone_en": "Haifa and Hakrayot 71",
    "codes": [
      71
    ],
    "region": "חיפה והקריות",
    "time": "דקה",
    "countdown": 60,
    "lat": 32.79646,
    "lng": 35.1145859,
    "value": "אושה (חיפה והקריות 71)"
  },
  {
    "name": "אזור",
    "name_en": "Azor",
    "zone": "דן 162",
    "zone_en": "Dan 162",
    "codes": [
      162
    ],
    "region": "דן",
    "time": "דקה וחצי",
    "countdown": 90,
    "lat": 32.0295563,
    "lng": 34.79965,
    "value": "אזור (דן 162)"
  },
  {
    "name": "אזור תעסוקה מיתרים",
    "name_en": "Meitarim",
    "zone": "יהודה 207",
    "zone_en": "Judea 207",
    "codes": [
      207
    ],
    "region": "יהודה",
    "time": "דקה וחצי",
    "countdown": 90,
    "lat": 0,
    "lng": 0,
    "value": "אזור תעסוקה מיתרים (יהודה 207)"
  },
  {
    "name": "אזור תעשיות צבאים",
    "name_en": "Tsva'im Industrial Zone",
    "zone": "בקעת בית שאן 128",
    "zone_en": "Beit Sha'an Valley 128",
    "codes": [
      128
    ],
    "region": "בקעת בית שאן",
    "time": "דקה",
    "countdown": 60,
    "lat": 0,
    "lng": 0,
    "value": "אזור תעשיות צבאים (בקעת בית שאן 128)"
  },
  {
    "name": "אזור תעשייה אכזיב מילואות",
    "name_en": "Achziv Miluot Industrial Zone",
    "zone": "קו העימות 14",
    "zone_en": "Confrontation line 14",
    "codes": [
      14
    ],
    "region": "קו העימות",
    "time": "מיידי",
    "countdown": 0,
    "lat": 0,
    "lng": 0,
    "value": "אזור תעשייה אכזיב מילואות (קו העימות 14)"
  },
  {
    "name": "אזור תעשייה אלון התבור",
    "name_en": "Alon ha-Tavor Industrial Zone",
    "zone": "עמק יזרעאל 90",
    "zone_en": "Jezreel Valley 90",
    "codes": [
      90
    ],
    "region": "עמק יזרעאל",
    "time": "דקה",
    "countdown": 60,
    "lat": 0,
    "lng": 0,
    "value": "אזור תעשייה אלון התבור (עמק יזרעאל 90)"
  },
  {
    "name": "אזור תעשייה בני יהודה",
    "name_en": "Bnei Yehuda Industrial Zone",
    "zone": "גולן 2",
    "zone_en": "Golan 2",
    "codes": [
      2
    ],
    "region": "גולן",
    "time": "מיידי",
    "countdown": 0,
    "lat": 32.8038063,
    "lng": 35.71642,
    "value": "אזור תעשייה בני יהודה (גולן 2)"
  },
  {
    "name": "אזור תעשייה נעמן",
    "name_en": "Na'aman Industrial Zone",
    "zone": "הקריות 70",
    "zone_en": "Hakrayot 70",
    "codes": [
      70
    ],
    "region": "הקריות",
    "time": "דקה",
    "countdown": 60,
    "lat": 0,
    "lng": 0,
    "value": "אזור תעשייה נעמן (הקריות 70)"
  },
  {
    "name": "אזור תעשייה ספיר",
    "name_en": "Sapir Industrial Zone",
    "zone": "ערבה 310",
    "zone_en": "Arabah 310",
    "codes": [
      310
    ],
    "region": "ערבה",
    "time": "דקה וחצי",
    "countdown": 90,
    "lat": 0,
    "lng": 0,
    "value": "אזור תעשייה ספיר (ערבה 310)"
  },
  {
    "name": "אזור תעשייה רמת בקע",
    "name_en": "Ramat Beka Industrial Zone",
    "zone": "נגב 300",
    "zone_en": "Negev 300",
    "codes": [
      300
    ],
    "region": "נגב",
    "time": "דקה",
    "countdown": 60,
    "lat": 0,
    "lng": 0,
    "value": "אזור תעשייה רמת בקע (נגב 300)"
  },
  {
    "name": "אזור תעשייה שגיא 2000",
    "name_en": "Sagi 2000 Industrial Zone",
    "zone": "עמק יזרעאל 87",
    "zone_en": "Jezreel Valley 87",
    "codes": [
      87
    ],
    "region": "עמק יזרעאל",
    "time": "דקה",
    "countdown": 60,
    "lat": 0,
    "lng": 0,
    "value": "אזור תעשייה שגיא 2000 (עמק יזרעאל 87)"
  },
  {
    "name": "אזור תעשייה שער בנימין",
    "name_en": "Sderot Binyamin Industrial Zone",
    "zone": "שומרון 125",
    "zone_en": "Samaria 125",
    "codes": [
      125
    ],
    "region": "שומרון",
    "time": "דקה וחצי",
    "countdown": 90,
    "lat": 0,
    "lng": 0,
    "shelters": 1,
    "value": "אזור תעשייה שער בנימין (שומרון 125)"
  },
  {
    "name": "אזור תעשייה תנובות",
    "name_en": "Tnuvot Industrial Zone",
    "zone": "עמק חפר 150",
    "zone_en": "Emek Hefer 150",
    "codes": [
      150
    ],
    "region": "עמק חפר",
    "time": "דקה וחצי",
    "countdown": 90,
    "lat": 32.3058624,
    "lng": 34.9625854,
    "value": "אזור תעשייה תנובות (עמק חפר 150)"
  },
  {
    "name": "אחווה",
    "name_en": "Ahva",
    "zone": "לכיש 275",
    "zone_en": "Lakhish 275",
    "codes": [
      275
    ],
    "region": "לכיש",
    "time": "45 שניות",
    "countdown": 45,
    "lat": 31.7428932,
    "lng": 34.76785,
    "value": "אחווה (לכיש 275)"
  },
  {
    "name": "אחוזם",
    "name_en": "Ahuzam",
    "zone": "אשדוד 281",
    "zone_en": "Ashdod 281",
    "codes": [
      281
    ],
    "region": "אשדוד",
    "time": "30 שניות",
    "countdown": 30,
    "lat": 31.5526829,
    "lng": 34.77015,
    "value": "אחוזם (אשדוד 281)"
  },
  {
    "name": "אחוזת ברק",
    "name_en": "Ahuzat Barak",
    "zone": "עמק יזרעאל 90",
    "zone_en": "Jezreel Valley 90",
    "codes": [
      90
    ],
    "region": "עמק יזרעאל",
    "time": "דקה",
    "countdown": 60,
    "lat": 32.6431,
    "lng": 35.3388939,
    "value": "אחוזת ברק (עמק יזרעאל 90)"
  },
  {
    "name": "אחוזת שושנה",
    "name_en": "Akhuzat Shoshana",
    "zone": "בקעת בית שאן 128",
    "zone_en": "Beit Sha'an Valley 128",
    "codes": [
      128
    ],
    "region": "בקעת בית שאן",
    "time": "דקה",
    "countdown": 60,
    "lat": 32.5910263,
    "lng": 35.5212479,
    "value": "אחוזת שושנה (בקעת בית שאן 128)"
  },
  {
    "name": "אחיה",
    "name_en": "Ahia",
    "zone": "שומרון 125",
    "zone_en": "Samaria 125",
    "codes": [
      125
    ],
    "region": "שומרון",
    "time": "דקה וחצי",
    "countdown": 90,
    "lat": 0,
    "lng": 0,
    "value": "אחיה (שומרון 125)"
  },
  {
    "name": "אחיהוד",
    "name_en": "Ahihud",
    "zone": "גליל תחתון 63",
    "zone_en": "Lower Galilee 63",
    "codes": [
      63
    ],
    "region": "גליל תחתון",
    "time": "דקה",
    "countdown": 60,
    "lat": 32.9074059,
    "lng": 35.1717148,
    "value": "אחיהוד (גליל תחתון 63)"
  },
  {
    "name": "אחיטוב",
    "name_en": "Ahituv",
    "zone": "חפר 148",
    "zone_en": "Hefer 148",
    "codes": [
      148
    ],
    "region": "חפר",
    "time": "דקה וחצי",
    "countdown": 90,
    "lat": 32.3877,
    "lng": 34.9908257,
    "value": "אחיטוב (חפר 148)"
  },
  {
    "name": "אחיסמך",
    "name_en": "Ahisamakh",
    "zone": "השפלה 179",
    "zone_en": "Shfela",
    "codes": [
      179
    ],
    "region": "השפלה",
    "time": "דקה וחצי",
    "countdown": 90,
    "lat": 31.9319057,
    "lng": 34.908577,
    "value": "אחיסמך (השפלה 179)"
  },
  {
    "name": "אחיעזר",
    "name_en": "Ahi'ezer",
    "zone": "השפלה 174",
    "zone_en": "Shfela",
    "codes": [
      174
    ],
    "region": "השפלה",
    "time": "דקה וחצי",
    "countdown": 90,
    "lat": 31.98167,
    "lng": 34.8718224,
    "value": "אחיעזר (השפלה 174)"
  },
  {
    "name": "איבי הנחל",
    "name_en": "Ibei ha-Nakhal",
    "zone": "יהודה 205",
    "zone_en": "Judea 205",
    "codes": [
      205
    ],
    "region": "יהודה",
    "time": "דקה וחצי",
    "countdown": 90,
    "lat": 0,
    "lng": 0,
    "value": "איבי הנחל (יהודה 205)"
  },
  {
    "name": "איבים",
    "name_en": "Ibim",
    "zone": "עוטף עזה 220",
    "zone_en": "Gaza Perimeter 220",
    "codes": [
      220
    ],
    "region": "עוטף עזה",
    "time": "15 שניות",
    "countdown": 15,
    "lat": 31.5335979,
    "lng": 34.6096954,
    "shelters": 1,
    "value": "איבים (עוטף עזה 220)"
  },
  {
    "name": "איג'ניסיניא",
    "name_en": "Ijnisinia",
    "zone": "שומרון 119",
    "zone_en": "Samaria 119",
    "codes": [
      119
    ],
    "region": "שומרון",
    "time": "דקה וחצי",
    "countdown": 90,
    "lat": 32.273098,
    "lng": 35.2165337,
    "value": "איג'ניסיניא (שומרון 119)"
  },
  {
    "name": "אידמית",
    "name_en": "Idmit",
    "zone": "קו העימות 15",
    "zone_en": "Confrontation line 15",
    "codes": [
      15
    ],
    "region": "קו העימות",
    "time": "מיידי",
    "countdown": 0,
    "lat": 33.0800133,
    "lng": 35.1999664,
    "value": "אידמית (קו העימות 15)"
  },
  {
    "name": "איזור תעשייה אשקלון",
    "name_en": "Ashkelon Industrial Zone",
    "zone": "לכיש 247",
    "zone_en": "Lakhish 247",
    "codes": [
      247
    ],
    "region": "לכיש",
    "time": "30 שניות",
    "countdown": 30,
    "lat": 0,
    "lng": 0,
    "value": "איזור תעשייה אשקלון (לכיש 247)"
  },
  {
    "name": "אייל",
    "name_en": "Eyal",
    "zone": "חפר 139",
    "zone_en": "Hefer 139",
    "codes": [
      139
    ],
    "region": "חפר",
    "time": "דקה וחצי",
    "countdown": 90,
    "lat": 32.2107124,
    "lng": 34.97826,
    "value": "אייל (חפר 139)"
  },
  {
    "name": "איילת השחר",
    "name_en": "Ayelet HaShahar",
    "zone": "גליל עליון 47",
    "zone_en": "Upper Galilee 47",
    "codes": [
      47
    ],
    "region": "גליל עליון",
    "time": "30 שניות",
    "countdown": 30,
    "lat": 33.0211143,
    "lng": 35.5767326,
    "value": "איילת השחר (גליל עליון 47)"
  },
  {
    "name": "איכתאבא",
    "name_en": "Iktaba",
    "zone": "שומרון 119",
    "zone_en": "Samaria 119",
    "codes": [
      119
    ],
    "region": "שומרון",
    "time": "דקה וחצי",
    "countdown": 90,
    "lat": 32.3260155,
    "lng": 35.0542259,
    "value": "איכתאבא (שומרון 119)"
  },
  {
    "name": "אילון",
    "name_en": "Eilon",
    "zone": "קו העימות 15",
    "zone_en": "Confrontation line 15",
    "codes": [
      15
    ],
    "region": "קו העימות",
    "time": "מיידי",
    "countdown": 0,
    "lat": 33.0625267,
    "lng": 35.219162,
    "value": "אילון (קו העימות 15)"
  },
  {
    "name": "אילות",
    "name_en": "Eilot",
    "zone": "אילת 311",
    "zone_en": "Eilat 311",
    "codes": [
      311
    ],
    "region": "אילת",
    "time": "30 שניות",
    "countdown": 30,
    "lat": 29.5805473,
    "lng": 34.9630241,
    "value": "אילות (אילת 311)"
  },
  {
    "name": "אילנות",
    "name_en": "Ilanot",
    "zone": "חפר 139",
    "zone_en": "Hefer 139",
    "codes": [
      139
    ],
    "region": "חפר",
    "time": "דקה וחצי",
    "countdown": 90,
    "lat": 32.51833,
    "lng": 35.0183029,
    "value": "אילנות (חפר 139)"
  },
  {
    "name": "אילניה",
    "name_en": "Ilaniya",
    "zone": "תבור 96",
    "zone_en": "Tabor 96",
    "codes": [
      96
    ],
    "region": "תבור",
    "time": "דקה",
    "countdown": 60,
    "lat": 32.7539063,
    "lng": 35.4081879,
    "value": "אילניה (תבור 96)"
  },
  {
    "name": "אילת",
    "name_en": "Eilat",
    "zone": "אילת 311",
    "zone_en": "Eilat 311",
    "codes": [
      311
    ],
    "region": "אילת",
    "time": "30 שניות",
    "countdown": 30,
    "lat": 29.5576687,
    "lng": 34.9519234,
    "value": "אילת (אילת 311)"
  },
  {
    "name": "אימאתין",
    "name_en": "Imatin",
    "zone": "שומרון 120",
    "zone_en": "Samaria 120",
    "codes": [
      120
    ],
    "region": "שומרון",
    "time": "דקה וחצי",
    "countdown": 90,
    "lat": 32.19236,
    "lng": 35.1594734,
    "value": "אימאתין (שומרון 120)"
  },
  {
    "name": "אימריש",
    "name_en": "Imrish",
    "zone": "יהודה 207",
    "zone_en": "Judea 207",
    "codes": [
      207
    ],
    "region": "יהודה",
    "time": "דקה וחצי",
    "countdown": 90,
    "lat": 31.4703045,
    "lng": 34.9997444,
    "value": "אימריש (יהודה 207)"
  },
  {
    "name": "איסכאכא",
    "name_en": "Iskaka",
    "zone": "שומרון 124",
    "zone_en": "Samaria 124",
    "codes": [
      124
    ],
    "region": "שומרון",
    "time": "דקה וחצי",
    "countdown": 90,
    "lat": 32.10292,
    "lng": 35.22455,
    "value": "איסכאכא (שומרון 124)"
  },
  {
    "name": "אירוס",
    "name_en": "Irus",
    "zone": "שפלה 182",
    "zone_en": "",
    "codes": [
      182
    ],
    "region": "שפלה",
    "time": "דקה וחצי",
    "countdown": 90,
    "lat": 31.9285946,
    "lng": 34.7766037,
    "value": "אירוס (שפלה 182)"
  },
  {
    "name": "אירתאח",
    "name_en": "Irtah",
    "zone": "שומרון 119",
    "zone_en": "Samaria 119",
    "codes": [
      119
    ],
    "region": "שומרון",
    "time": "דקה וחצי",
    "countdown": 90,
    "lat": 32.2977638,
    "lng": 35.01653,
    "value": "אירתאח (שומרון 119)"
  },
  {
    "name": "איתמר",
    "name_en": "Itamar",
    "zone": "שומרון 120",
    "zone_en": "Samaria 120",
    "codes": [
      120
    ],
    "region": "שומרון",
    "time": "דקה וחצי",
    "countdown": 90,
    "lat": 32.17387,
    "lng": 35.30803,
    "value": "איתמר (שומרון 120)"
  },
  {
    "name": "איתן",
    "name_en": "Eitan",
    "zone": "אשדוד 281",
    "zone_en": "",
    "codes": [
      281
    ],
    "region": "אשדוד",
    "time": "30 שניות",
    "countdown": 30,
    "lat": 31.5722122,
    "lng": 34.74791,
    "value": "איתן (אשדוד 281)"
  },
  {
    "name": "איתנים",
    "name_en": "Eitanim",
    "zone": "בית שמש 189",
    "zone_en": "Beit Shemesh 189",
    "codes": [
      189
    ],
    "region": "בית שמש",
    "time": "דקה וחצי",
    "countdown": 90,
    "lat": 31.7789,
    "lng": 35.09517,
    "value": "איתנים (בית שמש 189)"
  },
  {
    "name": "אכסאל",
    "name_en": "Iksal",
    "zone": "תבור 95",
    "zone_en": "Tabor 95",
    "codes": [
      95
    ],
    "region": "תבור",
    "time": "דקה",
    "countdown": 60,
    "lat": 32.6820831,
    "lng": 35.3207436,
    "value": "אכסאל (תבור 95)"
  },
  {
    "name": "אל אסד",
    "name_en": "El-Asad",
    "zone": "נגב 287",
    "zone_en": "Negev 287",
    "codes": [
      287
    ],
    "region": "נגב",
    "time": "דקה וחצי",
    "countdown": 90,
    "lat": 31.31528,
    "lng": 34.85234,
    "value": "אל אסד (נגב 287)"
  },
  {
    "name": "אל בורה",
    "name_en": "Al Bura",
    "zone": "באר שבע 285",
    "zone_en": "Beer Sheva 285",
    "codes": [
      285
    ],
    "region": "באר שבע",
    "time": "דקה",
    "countdown": 60,
    "lat": 0,
    "lng": 0,
    "value": "אל בורה (באר שבע 285)"
  },
  {
    "name": "אל בירה",
    "name_en": "Al-Bireh",
    "zone": "שומרון 126",
    "zone_en": "Samaria 126",
    "codes": [
      126
    ],
    "region": "שומרון",
    "time": "דקה וחצי",
    "countdown": 90,
    "lat": 31.9125633,
    "lng": 35.2217178,
    "value": "אל בירה (שומרון 126)"
  },
  {
    "name": "אל בירה בהר חברון",
    "name_en": "al Bira",
    "zone": "באר שבע 285",
    "zone_en": "Beer Sheva 285",
    "codes": [
      285
    ],
    "region": "באר שבע",
    "time": "דקה",
    "countdown": 60,
    "lat": 31.4355869,
    "lng": 34.9262276,
    "value": "אל בירה בהר חברון (באר שבע 285)"
  },
  {
    "name": "אל ג'ארושיה",
    "name_en": "al Jarushiyya",
    "zone": "שומרון 119",
    "zone_en": "Samaria 119",
    "codes": [
      119
    ],
    "region": "שומרון",
    "time": "דקה וחצי",
    "countdown": 90,
    "lat": 32.34695,
    "lng": 35.0497627,
    "value": "אל ג'ארושיה (שומרון 119)"
  },
  {
    "name": "אל ג'וויני",
    "name_en": "El-Jwini",
    "zone": "נגב 299",
    "zone_en": "Negev 299",
    "codes": [
      299
    ],
    "region": "נגב",
    "time": "דקה וחצי",
    "countdown": 90,
    "lat": 31.2097054,
    "lng": 35.1084824,
    "value": "אל ג'וויני (נגב 299)"
  },
  {
    "name": "אל ג'נאמי",
    "name_en": "El-Ghanami",
    "zone": "נגב 299",
    "zone_en": "Negev 299",
    "codes": [
      299
    ],
    "region": "נגב",
    "time": "דקה וחצי",
    "countdown": 90,
    "lat": 31.2166634,
    "lng": 35.09302,
    "value": "אל ג'נאמי (נגב 299)"
  },
  {
    "name": "אל ג'רג'אווי",
    "name_en": "El-Jarjawi",
    "zone": "נגב 300",
    "zone_en": "Negev 300",
    "codes": [
      300
    ],
    "region": "נגב",
    "time": "דקה",
    "countdown": 60,
    "lat": 31.1470814,
    "lng": 34.8197174,
    "value": "אל ג'רג'אווי (נגב 300)"
  },
  {
    "name": "אל הג'רה",
    "name_en": "al Hijra",
    "zone": "יהודה 207",
    "zone_en": "Judea 207",
    "codes": [
      207
    ],
    "region": "יהודה",
    "time": "דקה וחצי",
    "countdown": 90,
    "lat": 31.4885063,
    "lng": 35.05476,
    "value": "אל הג'רה (יהודה 207)"
  },
  {
    "name": "אל הייל",
    "name_en": "El-Heil",
    "zone": "באר שבע 286",
    "zone_en": "Beer Sheva 286",
    "codes": [
      286
    ],
    "region": "באר שבע",
    "time": "45 שניות",
    "countdown": 45,
    "lat": 31.4084225,
    "lng": 34.7482834,
    "value": "אל הייל (באר שבע 286)"
  },
  {
    "name": "אל ולג'ה",
    "name_en": "alWalaja",
    "zone": "ירושלים 194",
    "zone_en": "Jerusalem 194",
    "codes": [
      194
    ],
    "region": "ירושלים",
    "time": "דקה וחצי",
    "countdown": 90,
    "lat": 31.7293949,
    "lng": 35.15853,
    "value": "אל ולג'ה (ירושלים 194)"
  },
  {
    "name": "אל ולידי",
    "name_en": "El-Walidi",
    "zone": "נגב 300",
    "zone_en": "Negev 300",
    "codes": [
      300
    ],
    "region": "נגב",
    "time": "דקה",
    "countdown": 60,
    "lat": 31.1779919,
    "lng": 34.8159027,
    "value": "אל ולידי (נגב 300)"
  },
  {
    "name": "אל חדב",
    "name_en": "al Hadab",
    "zone": "יהודה 207",
    "zone_en": "Judea 207",
    "codes": [
      207
    ],
    "region": "יהודה",
    "time": "דקה וחצי",
    "countdown": 90,
    "lat": 31.4761562,
    "lng": 35.05524,
    "value": "אל חדב (יהודה 207)"
  },
  {
    "name": "אל ח'דר",
    "name_en": "al-Khadr",
    "zone": "יהודה 200",
    "zone_en": "Judea 200",
    "codes": [
      200
    ],
    "region": "יהודה",
    "time": "דקה וחצי",
    "countdown": 90,
    "lat": 31.69481,
    "lng": 35.1707458,
    "value": "אל ח'דר (יהודה 200)"
  },
  {
    "name": "אל ח'וואלד מערב",
    "name_en": "El-Khawaled West",
    "zone": "הקריות 71",
    "zone_en": "Hakrayot 71",
    "codes": [
      71
    ],
    "region": "הקריות",
    "time": "דקה",
    "countdown": 60,
    "lat": 32.770195,
    "lng": 35.1362038,
    "value": "אל ח'וואלד מערב (הקריות 71)"
  },
  {
    "name": "אל חוקוק",
    "name_en": "El-Huquq",
    "zone": "באר שבע 286",
    "zone_en": "Beer Sheva 286",
    "codes": [
      286
    ],
    "region": "באר שבע",
    "time": "45 שניות",
    "countdown": 45,
    "lat": 31.3793049,
    "lng": 34.7403831,
    "value": "אל חוקוק (באר שבע 286)"
  },
  {
    "name": "אל חמידי",
    "name_en": "El-Hamidi",
    "zone": "נגב 297",
    "zone_en": "Negev 297",
    "codes": [
      297
    ],
    "region": "נגב",
    "time": "דקה וחצי",
    "countdown": 90,
    "lat": 31.20426,
    "lng": 34.8723755,
    "value": "אל חמידי (נגב 297)"
  },
  {
    "name": "אל כלאב",
    "name_en": "El-Kilab",
    "zone": "נגב 300",
    "zone_en": "Negev 300",
    "codes": [
      300
    ],
    "region": "נגב",
    "time": "דקה",
    "countdown": 60,
    "lat": 31.1079159,
    "lng": 34.8506126,
    "value": "אל כלאב (נגב 300)"
  },
  {
    "name": "אל מאג'ור",
    "name_en": "al-Majur",
    "zone": "יהודה 207",
    "zone_en": "Judea 207",
    "codes": [
      207
    ],
    "region": "יהודה",
    "time": "דקה וחצי",
    "countdown": 90,
    "lat": 31.4901752,
    "lng": 35.0324821,
    "value": "אל מאג'ור (יהודה 207)"
  },
  {
    "name": "אל מודוור",
    "name_en": "al-Mudawwar",
    "zone": "שומרון 121",
    "zone_en": "Samaria 121",
    "codes": [
      121
    ],
    "region": "שומרון",
    "time": "דקה וחצי",
    "countdown": 90,
    "lat": 32.14322,
    "lng": 35.0122261,
    "value": "אל מודוור (שומרון 121)"
  },
  {
    "name": "אל מוטילה",
    "name_en": "al-Mutilla",
    "zone": "שומרון 119",
    "zone_en": "Samaria 119",
    "codes": [
      119
    ],
    "region": "שומרון",
    "time": "דקה וחצי",
    "countdown": 90,
    "lat": 32.42086,
    "lng": 35.40732,
    "value": "אל מוטילה (שומרון 119)"
  },
  {
    "name": "אל מוע'ייר",
    "name_en": "al-Mughayyer",
    "zone": "שומרון 119",
    "zone_en": "Samaria 119",
    "codes": [
      119
    ],
    "region": "שומרון",
    "time": "דקה וחצי",
    "countdown": 90,
    "lat": 32.4217,
    "lng": 35.3864326,
    "value": "אל מוע'ייר (שומרון 119)"
  },
  {
    "name": "אל מועלקה",
    "name_en": "El-Mu'alaqa",
    "zone": "ואדי ערה 112",
    "zone_en": "Wadi Ara 112",
    "codes": [
      112
    ],
    "region": "ואדי ערה",
    "time": "דקה וחצי",
    "countdown": 90,
    "lat": 32.5036774,
    "lng": 35.1250877,
    "value": "אל מועלקה (ואדי ערה 112)"
  },
  {
    "name": "אל מראג'ם",
    "name_en": "al-Marajem",
    "zone": "יהודה 207",
    "zone_en": "Judea 207",
    "codes": [
      207
    ],
    "region": "יהודה",
    "time": "דקה וחצי",
    "countdown": 90,
    "lat": 31.4901638,
    "lng": 35.0216446,
    "value": "אל מראג'ם (יהודה 207)"
  },
  {
    "name": "אל סייד",
    "name_en": "E-Sayed",
    "zone": "נגב 296",
    "zone_en": "Negev 296",
    "codes": [
      296
    ],
    "region": "נגב",
    "time": "דקה וחצי",
    "countdown": 90,
    "lat": 32.8602257,
    "lng": 35.30034,
    "value": "אל סייד (נגב 296)"
  },
  {
    "name": "אל עביד",
    "name_en": "El Abid",
    "zone": "נגב 299",
    "zone_en": "Negev 299",
    "codes": [
      299
    ],
    "region": "נגב",
    "time": "דקה וחצי",
    "countdown": 90,
    "lat": 31.2650433,
    "lng": 35.0913124,
    "value": "אל עביד (נגב 299)"
  },
  {
    "name": "אל ע'ול",
    "name_en": "El-Ghul (North to Dimona)",
    "zone": "נגב 301",
    "zone_en": "Negev 301",
    "codes": [
      301
    ],
    "region": "נגב",
    "time": "דקה וחצי",
    "countdown": 90,
    "lat": 31.1009483,
    "lng": 35.0054,
    "value": "אל ע'ול (נגב 301)"
  },
  {
    "name": "אל עזי",
    "name_en": "Al-'Azi",
    "zone": "לכיש 275",
    "zone_en": "Lakhish 275",
    "codes": [
      275
    ],
    "region": "לכיש",
    "time": "45 שניות",
    "countdown": 45,
    "lat": 31.7188683,
    "lng": 34.8142548,
    "value": "אל עזי (לכיש 275)"
  },
  {
    "name": "אל עטאונה",
    "name_en": "El-Atauna",
    "zone": "נגב 296",
    "zone_en": "Negev 296",
    "codes": [
      296
    ],
    "region": "נגב",
    "time": "דקה וחצי",
    "countdown": 90,
    "lat": 31.3024826,
    "lng": 34.9167175,
    "value": "אל עטאונה (נגב 296)"
  },
  {
    "name": "אל עלקה אל פוקא",
    "name_en": "al'Alaqa al Fawqa",
    "zone": "יהודה 207",
    "zone_en": "Judea 207",
    "codes": [
      207
    ],
    "region": "יהודה",
    "time": "דקה וחצי",
    "countdown": 90,
    "lat": 31.4603767,
    "lng": 35.0091972,
    "value": "אל עלקה אל פוקא (יהודה 207)"
  },
  {
    "name": "אל עמראני",
    "name_en": "El-Amrani",
    "zone": "נגב 301",
    "zone_en": "Negev 301",
    "codes": [
      301
    ],
    "region": "נגב",
    "time": "דקה וחצי",
    "countdown": 90,
    "lat": 31.1658936,
    "lng": 34.96946,
    "value": "אל עמראני (נגב 301)"
  },
  {
    "name": "אל ערוב",
    "name_en": "al'Arub",
    "zone": "יהודה 206",
    "zone_en": "Judea 206",
    "codes": [
      206
    ],
    "region": "יהודה",
    "time": "דקה וחצי",
    "countdown": 90,
    "lat": 31.61709,
    "lng": 35.14352,
    "value": "אל ערוב (יהודה 206)"
  },
  {
    "name": "אל עריאן",
    "name_en": "Al-Arian",
    "zone": "ואדי ערה 112",
    "zone_en": "Wadi Ara 112",
    "codes": [
      112
    ],
    "region": "ואדי ערה",
    "time": "דקה וחצי",
    "countdown": 90,
    "lat": 32.4980774,
    "lng": 35.1250954,
    "value": "אל עריאן (ואדי ערה 112)"
  },
  {
    "name": "אל עתאיקה",
    "name_en": "El-Ata'iqa",
    "zone": "באר שבע 286",
    "zone_en": "Beer Sheva 286",
    "codes": [
      286
    ],
    "region": "באר שבע",
    "time": "45 שניות",
    "countdown": 45,
    "lat": 31.3769131,
    "lng": 34.7464066,
    "value": "אל עתאיקה (באר שבע 286)"
  },
  {
    "name": "אל עת'אמין",
    "name_en": "El-Athamin (South to Nevatim)",
    "zone": "נגב 297",
    "zone_en": "Negev 297",
    "codes": [
      297
    ],
    "region": "נגב",
    "time": "דקה וחצי",
    "countdown": 90,
    "lat": 31.2061462,
    "lng": 34.87944,
    "value": "אל עת'אמין (נגב 297)"
  },
  {
    "name": "אל פוואר",
    "name_en": "al Fawar",
    "zone": "יהודה 207",
    "zone_en": "Judea 207",
    "codes": [
      207
    ],
    "region": "יהודה",
    "time": "דקה וחצי",
    "countdown": 90,
    "lat": 31.4783688,
    "lng": 35.06551,
    "value": "אל פוואר (יהודה 207)"
  },
  {
    "name": "אל פונדוק",
    "name_en": "al Funduq",
    "zone": "שומרון 120",
    "zone_en": "Samaria 120",
    "codes": [
      120
    ],
    "region": "שומרון",
    "time": "דקה וחצי",
    "countdown": 90,
    "lat": 32.1906166,
    "lng": 35.1339722,
    "value": "אל פונדוק (שומרון 120)"
  },
  {
    "name": "אל קוסור",
    "name_en": "al-Qusur",
    "zone": "יהודה 207",
    "zone_en": "Judea 207",
    "codes": [
      207
    ],
    "region": "יהודה",
    "time": "דקה וחצי",
    "countdown": 90,
    "lat": 31.50009,
    "lng": 35.0111771,
    "value": "אל קוסור (יהודה 207)"
  },
  {
    "name": "אל קורעאן ב",
    "name_en": "El-Qur'an B",
    "zone": "נגב 299",
    "zone_en": "Negev 299",
    "codes": [
      299
    ],
    "region": "נגב",
    "time": "דקה וחצי",
    "countdown": 90,
    "lat": 31.22964,
    "lng": 35.10205,
    "value": "אל קורעאן ב (נגב 299)"
  },
  {
    "name": "אל קילא",
    "name_en": "al-Qilla",
    "zone": "יהודה 188",
    "zone_en": "Judea 188",
    "codes": [
      188
    ],
    "region": "יהודה",
    "time": "דקה וחצי",
    "countdown": 90,
    "lat": 31.6116467,
    "lng": 35.00485,
    "value": "אל קילא (יהודה 188)"
  },
  {
    "name": "אל קרישי",
    "name_en": "El-Qureishi",
    "zone": "נגב 299",
    "zone_en": "Negev 299",
    "codes": [
      299
    ],
    "region": "נגב",
    "time": "דקה וחצי",
    "countdown": 90,
    "lat": 31.2691669,
    "lng": 35.0890465,
    "value": "אל קרישי (נגב 299)"
  },
  {
    "name": "אל קרעאן",
    "name_en": "El-Qar'an (South to Arad)",
    "zone": "נגב 299",
    "zone_en": "Negev 299",
    "codes": [
      299
    ],
    "region": "נגב",
    "time": "דקה וחצי",
    "countdown": 90,
    "lat": 31.2264671,
    "lng": 35.183197,
    "value": "אל קרעאן (נגב 299)"
  },
  {
    "name": "אל קשכר",
    "name_en": "El-Qashkar",
    "zone": "נגב 299",
    "zone_en": "Negev 299",
    "codes": [
      299
    ],
    "region": "נגב",
    "time": "דקה וחצי",
    "countdown": 90,
    "lat": 31.1711845,
    "lng": 35.093502,
    "value": "אל קשכר (נגב 299)"
  },
  {
    "name": "אל רום",
    "name_en": "El-Rum",
    "zone": "גולן 2",
    "zone_en": "Golan 2",
    "codes": [
      2
    ],
    "region": "גולן",
    "time": "מיידי",
    "countdown": 0,
    "lat": 33.18052,
    "lng": 35.7700958,
    "value": "אל רום (גולן 2)"
  },
  {
    "name": "אלומה",
    "name_en": "Aluma",
    "zone": "לכיש 280",
    "zone_en": "Lakhish 280",
    "codes": [
      280
    ],
    "region": "לכיש",
    "time": "45 שניות",
    "countdown": 45,
    "lat": 31.65204,
    "lng": 34.74287,
    "value": "אלומה (לכיש 280)"
  },
  {
    "name": "אלומות",
    "name_en": "Alumot",
    "zone": "תבור 98",
    "zone_en": "Tabor 98",
    "codes": [
      98
    ],
    "region": "תבור",
    "time": "דקה",
    "countdown": 60,
    "lat": 32.7066269,
    "lng": 35.54609,
    "value": "אלומות (תבור 98)"
  },
  {
    "name": "אלון",
    "name_en": "Alon",
    "zone": "בקעה 133",
    "zone_en": "Syro-African Rift  133",
    "codes": [
      133
    ],
    "region": "בקעה",
    "time": "דקה וחצי",
    "countdown": 90,
    "lat": 31.8333549,
    "lng": 35.3535576,
    "value": "אלון (בקעה 133)"
  },
  {
    "name": "אלון הגליל",
    "name_en": "Alon HaGalil",
    "zone": "גליל תחתון 63",
    "zone_en": "Lower Galilee 63",
    "codes": [
      63
    ],
    "region": "גליל תחתון",
    "time": "דקה",
    "countdown": 60,
    "lat": 32.7568741,
    "lng": 35.220295,
    "value": "אלון הגליל (גליל תחתון 63)"
  },
  {
    "name": "אלון מורה",
    "name_en": "Elon More",
    "zone": "שומרון 120",
    "zone_en": "Samaria 120",
    "codes": [
      120
    ],
    "region": "שומרון",
    "time": "דקה וחצי",
    "countdown": 90,
    "lat": 32.234417,
    "lng": 35.3312,
    "value": "אלון מורה (שומרון 120)"
  },
  {
    "name": "אלון שבות",
    "name_en": "Alon Shvut",
    "zone": "יהודה 206",
    "zone_en": "Judea 206",
    "codes": [
      206
    ],
    "region": "יהודה",
    "time": "דקה וחצי",
    "countdown": 90,
    "lat": 31.654871,
    "lng": 35.1252556,
    "value": "אלון שבות (יהודה 206)"
  },
  {
    "name": "אלוני אבא",
    "name_en": "Alonei Abba",
    "zone": "עמק יזרעאל 87",
    "zone_en": "Jezreel Valley 87",
    "codes": [
      87
    ],
    "region": "עמק יזרעאל",
    "time": "דקה",
    "countdown": 60,
    "lat": 32.7309456,
    "lng": 35.1720276,
    "value": "אלוני אבא (עמק יזרעאל 87)"
  },
  {
    "name": "אלוני הבשן",
    "name_en": "Alonei Habashan",
    "zone": "גולן 3",
    "zone_en": "Golan 3",
    "codes": [
      3
    ],
    "region": "גולן",
    "time": "מיידי",
    "countdown": 0,
    "lat": 33.0440865,
    "lng": 35.83851,
    "value": "אלוני הבשן (גולן 3)"
  },
  {
    "name": "אלוני יצחק",
    "name_en": "Alonei Yitzhak",
    "zone": "מנשה 104",
    "zone_en": "Menashe 104",
    "codes": [
      104
    ],
    "region": "מנשה",
    "time": "דקה וחצי",
    "countdown": 90,
    "lat": 32.51,
    "lng": 35.0052,
    "value": "אלוני יצחק (מנשה 104)"
  },
  {
    "name": "אלונים",
    "name_en": "Alonim",
    "zone": "חיפה והקריות 86",
    "zone_en": "Haifa and Hakrayot 86",
    "codes": [
      86
    ],
    "region": "חיפה והקריות",
    "time": "דקה",
    "countdown": 60,
    "lat": 32.72146,
    "lng": 35.1434,
    "value": "אלונים (חיפה והקריות 86)"
  },
  {
    "name": "אלי עד",
    "name_en": "Eliad",
    "zone": "גולן 5",
    "zone_en": "Golan 5",
    "codes": [
      5
    ],
    "region": "גולן",
    "time": "מיידי",
    "countdown": 0,
    "lat": 32.8065834,
    "lng": 35.7365761,
    "value": "אלי עד (גולן 5)"
  },
  {
    "name": "אליהב",
    "name_en": "Eliav",
    "zone": "לכיש 285",
    "zone_en": "Lakhish 285",
    "codes": [
      285
    ],
    "region": "לכיש",
    "time": "דקה",
    "countdown": 60,
    "lat": 31.5302029,
    "lng": 34.9284134,
    "value": "אליהב (לכיש 285)"
  },
  {
    "name": "אליכין",
    "name_en": "Elyakhin",
    "zone": "חפר 137",
    "zone_en": "Hefer 137",
    "codes": [
      137
    ],
    "region": "חפר",
    "time": "דקה וחצי",
    "countdown": 90,
    "lat": 32.4076576,
    "lng": 34.92503,
    "value": "אליכין (חפר 137)"
  },
  {
    "name": "אליפז",
    "name_en": "Elifaz",
    "zone": "ערבה 310",
    "zone_en": "Arabah 310",
    "codes": [
      310
    ],
    "region": "ערבה",
    "time": "3 דקות",
    "countdown": 180,
    "lat": 29.7962475,
    "lng": 35.0120926,
    "value": "אליפז (ערבה 310)"
  },
  {
    "name": "אליפלט",
    "name_en": "Elifelet",
    "zone": "גליל עליון 50",
    "zone_en": "Upper Galilee 50",
    "codes": [
      50
    ],
    "region": "גליל עליון",
    "time": "30 שניות",
    "countdown": 30,
    "lat": 32.947834,
    "lng": 35.5485153,
    "value": "אליפלט (גליל עליון 50)"
  },
  {
    "name": "אליקים",
    "name_en": "Eliakim",
    "zone": "מנשה 103",
    "zone_en": "Menashe 103",
    "codes": [
      103
    ],
    "region": "מנשה",
    "time": "דקה וחצי",
    "countdown": 90,
    "lat": 32.6333466,
    "lng": 35.06761,
    "value": "אליקים (מנשה 103)"
  },
  {
    "name": "אלישיב",
    "name_en": "Elyashiv",
    "zone": "חפר 137",
    "zone_en": "Hefer 137",
    "codes": [
      137
    ],
    "region": "חפר",
    "time": "דקה וחצי",
    "countdown": 90,
    "lat": 32.3801956,
    "lng": 34.9099464,
    "value": "אלישיב (חפר 137)"
  },
  {
    "name": "אלישמע",
    "name_en": "Elishama",
    "zone": "שרון 143",
    "zone_en": "Sharon 143",
    "codes": [
      143
    ],
    "region": "שרון",
    "time": "דקה וחצי",
    "countdown": 90,
    "lat": 32.1547775,
    "lng": 34.93046,
    "value": "אלישמע (שרון 143)"
  },
  {
    "name": "אלמגור",
    "name_en": "Almagor",
    "zone": "גליל עליון 50",
    "zone_en": "Upper Galilee 50",
    "codes": [
      50
    ],
    "region": "גליל עליון",
    "time": "30 שניות",
    "countdown": 30,
    "lat": 32.91271,
    "lng": 35.60231,
    "value": "אלמגור (גליל עליון 50)"
  },
  {
    "name": "אלמוג",
    "name_en": "Almog",
    "zone": "בקעה 133",
    "zone_en": "Syro-African Rift  133",
    "codes": [
      133
    ],
    "region": "בקעה",
    "time": "דקה וחצי",
    "countdown": 90,
    "lat": 31.7900333,
    "lng": 35.4619675,
    "value": "אלמוג (בקעה 133)"
  },
  {
    "name": "אלעד",
    "name_en": "El'ad",
    "zone": "ירקון 169",
    "zone_en": "Yarkon 169",
    "codes": [
      169
    ],
    "region": "ירקון",
    "time": "דקה וחצי",
    "countdown": 90,
    "lat": 32.04953,
    "lng": 34.95075,
    "value": "אלעד (ירקון 169)"
  },
  {
    "name": "אלעזר",
    "name_en": "El'azar",
    "zone": "יהודה 206",
    "zone_en": "Judea 206",
    "codes": [
      206
    ],
    "region": "יהודה",
    "time": "דקה וחצי",
    "countdown": 90,
    "lat": 31.6596756,
    "lng": 35.143074,
    "value": "אלעזר (יהודה 206)"
  },
  {
    "name": "אלפי מנשה",
    "name_en": "Alfei Menashe",
    "zone": "שומרון 121",
    "zone_en": "Samaria 121",
    "codes": [
      121
    ],
    "region": "שומרון",
    "time": "דקה וחצי",
    "countdown": 90,
    "lat": 32.17063,
    "lng": 35.01486,
    "value": "אלפי מנשה (שומרון 121)"
  },
  {
    "name": "אלקוש",
    "name_en": "Elkosh",
    "zone": "קו העימות 17",
    "zone_en": "Confrontation line 17",
    "codes": [
      17
    ],
    "region": "קו העימות",
    "time": "מיידי",
    "countdown": 0,
    "lat": 33.0342941,
    "lng": 35.3263474,
    "value": "אלקוש (קו העימות 17)"
  },
  {
    "name": "אלקנה",
    "name_en": "Elkana",
    "zone": "שומרון 121",
    "zone_en": "Samaria 121",
    "codes": [
      121
    ],
    "region": "שומרון",
    "time": "דקה וחצי",
    "countdown": 90,
    "lat": 32.1105652,
    "lng": 35.0320549,
    "value": "אלקנה (שומרון 121)"
  },
  {
    "name": "אמונים",
    "name_en": "Emunim",
    "zone": "לכיש 272",
    "zone_en": "Lakhish 272",
    "codes": [
      272
    ],
    "region": "לכיש",
    "time": "45 שניות",
    "countdown": 45,
    "lat": 31.743885,
    "lng": 34.67449,
    "value": "אמונים (לכיש 272)"
  },
  {
    "name": "אמירים",
    "name_en": "Amirim",
    "zone": "גליל עליון 44",
    "zone_en": "Upper Galilee 44",
    "codes": [
      44
    ],
    "region": "גליל עליון",
    "time": "30 שניות",
    "countdown": 30,
    "lat": 32.93735,
    "lng": 35.4503632,
    "value": "אמירים (גליל עליון 44)"
  },
  {
    "name": "אמנון",
    "name_en": "Amnun",
    "zone": "גליל עליון 50",
    "zone_en": "Upper Galilee 50",
    "codes": [
      50
    ],
    "region": "גליל עליון",
    "time": "30 שניות",
    "countdown": 30,
    "lat": 32.9049873,
    "lng": 35.5711365,
    "value": "אמנון (גליל עליון 50)"
  },
  {
    "name": "אמציה",
    "name_en": "Amatzia",
    "zone": "לכיש 285",
    "zone_en": "Lakhish 285",
    "codes": [
      285
    ],
    "region": "לכיש",
    "time": "דקה",
    "countdown": 60,
    "lat": 31.5311756,
    "lng": 34.914463,
    "value": "אמציה (לכיש 285)"
  },
  {
    "name": "אניעם",
    "name_en": "Ani'am",
    "zone": "קצרין 7",
    "zone_en": "Katzrin 7",
    "codes": [
      7
    ],
    "region": "קצרין",
    "time": "15 שניות",
    "countdown": 15,
    "lat": 32.95664,
    "lng": 35.73972,
    "value": "אניעם (קצרין 7)"
  },
  {
    "name": "אספר",
    "name_en": "Asfar",
    "zone": "יהודה 200",
    "zone_en": "Judea 200",
    "codes": [
      200
    ],
    "region": "יהודה",
    "time": "דקה וחצי",
    "countdown": 90,
    "lat": 31.5861511,
    "lng": 35.1875954,
    "value": "אספר (יהודה 200)"
  },
  {
    "name": "אעבלין",
    "name_en": "I'billin",
    "zone": "גליל תחתון 63",
    "zone_en": "Lower Galilee 63",
    "codes": [
      63
    ],
    "region": "גליל תחתון",
    "time": "דקה",
    "countdown": 60,
    "lat": 32.8218,
    "lng": 35.19012,
    "value": "אעבלין (גליל תחתון 63)"
  },
  {
    "name": "אעצם",
    "name_en": "A'sam",
    "zone": "נגב 296",
    "zone_en": "Negev 296",
    "codes": [
      296
    ],
    "region": "נגב",
    "time": "דקה וחצי",
    "countdown": 90,
    "lat": 31.2958164,
    "lng": 34.9031029,
    "value": "אעצם (נגב 296)"
  },
  {
    "name": "אפיניש",
    "name_en": "Afeinish",
    "zone": "יהודה 207",
    "zone_en": "Judea 207",
    "codes": [
      207
    ],
    "region": "יהודה",
    "time": "דקה וחצי",
    "countdown": 90,
    "lat": 31.3161831,
    "lng": 34.9963875,
    "value": "אפיניש (יהודה 207)"
  },
  {
    "name": "אפיק",
    "name_en": "Afik",
    "zone": "גולן 5",
    "zone_en": "Golan 5",
    "codes": [
      5
    ],
    "region": "גולן",
    "time": "מיידי",
    "countdown": 0,
    "lat": 32.7794266,
    "lng": 35.7029953,
    "value": "אפיק (גולן 5)"
  },
  {
    "name": "אפיקים",
    "name_en": "Afikim",
    "zone": "תבור 98",
    "zone_en": "Tabor 98",
    "codes": [
      98
    ],
    "region": "תבור",
    "time": "דקה",
    "countdown": 60,
    "lat": 32.6805649,
    "lng": 35.57773,
    "value": "אפיקים (תבור 98)"
  },
  {
    "name": "אפק",
    "name_en": "Afek",
    "zone": "חיפה והקריות 71",
    "zone_en": "Haifa and Hakrayot 71",
    "codes": [
      71
    ],
    "region": "חיפה והקריות",
    "time": "דקה",
    "countdown": 60,
    "lat": 32.8383179,
    "lng": 35.12778,
    "value": "אפק (חיפה והקריות 71)"
  },
  {
    "name": "אפרת",
    "name_en": "Efrat",
    "zone": "יהודה 206",
    "zone_en": "Judea 206",
    "codes": [
      206
    ],
    "region": "יהודה",
    "time": "דקה וחצי",
    "countdown": 90,
    "lat": 31.65359,
    "lng": 35.1499329,
    "shelters": 1,
    "value": "אפרת (יהודה 206)"
  },
  {
    "name": "אפרתה",
    "name_en": "Efrata",
    "zone": "יהודה 206",
    "zone_en": "Judea 206",
    "codes": [
      206
    ],
    "region": "יהודה",
    "time": "דקה וחצי",
    "countdown": 90,
    "lat": 31.65359,
    "lng": 35.1499329,
    "value": "אפרתה (יהודה 206)"
  },
  {
    "name": "אקרע",
    "name_en": "Aqra'",
    "zone": "שומרון 119",
    "zone_en": "Samaria 119",
    "codes": [
      119
    ],
    "region": "שומרון",
    "time": "דקה וחצי",
    "countdown": 90,
    "lat": 32.3424568,
    "lng": 35.34507,
    "value": "אקרע (שומרון 119)"
  },
  {
    "name": "ארבל",
    "name_en": "Arbel",
    "zone": "גליל תחתון 55",
    "zone_en": "Lower Galilee 55",
    "codes": [
      55
    ],
    "region": "גליל תחתון",
    "time": "דקה",
    "countdown": 60,
    "lat": 32.81225,
    "lng": 35.486454,
    "value": "ארבל (גליל תחתון 55)"
  },
  {
    "name": "ארגמן",
    "name_en": "Argaman",
    "zone": "בקעה 130",
    "zone_en": "Syro-African Rift  130",
    "codes": [
      130
    ],
    "region": "בקעה",
    "time": "דקה וחצי",
    "countdown": 90,
    "lat": 32.17334,
    "lng": 35.5222855,
    "value": "ארגמן (בקעה 130)"
  },
  {
    "name": "ארז",
    "name_en": "Erez",
    "zone": "עוטף עזה 219",
    "zone_en": "Gaza Perimeter 219",
    "codes": [
      219
    ],
    "region": "עוטף עזה",
    "time": "15 שניות",
    "countdown": 15,
    "lat": 31.55984,
    "lng": 34.564888,
    "shelters": 2,
    "value": "ארז (עוטף עזה 219)"
  },
  {
    "name": "ארטאס",
    "name_en": "Irtas",
    "zone": "יהודה 200",
    "zone_en": "Judea 200",
    "codes": [
      200
    ],
    "region": "יהודה",
    "time": "דקה וחצי",
    "countdown": 90,
    "lat": 31.6899567,
    "lng": 35.1882362,
    "value": "ארטאס (יהודה 200)"
  },
  {
    "name": "אריאל",
    "name_en": "Ari'el",
    "zone": "שומרון 122",
    "zone_en": "Samaria 122",
    "codes": [
      122
    ],
    "region": "שומרון",
    "time": "דקה וחצי",
    "countdown": 90,
    "lat": 32.1046371,
    "lng": 35.1745148,
    "value": "אריאל (שומרון 122)"
  },
  {
    "name": "ארסוף",
    "name_en": "Arsuf",
    "zone": "שרון 142",
    "zone_en": "Sharon 142",
    "codes": [
      142
    ],
    "region": "שרון",
    "time": "דקה וחצי",
    "countdown": 90,
    "lat": 32.21284,
    "lng": 34.8159752,
    "value": "ארסוף (שרון 142)"
  },
  {
    "name": "אשבול",
    "name_en": "Eshbol",
    "zone": "מרכז הנגב 253",
    "zone_en": "Central Negev 253",
    "codes": [
      253
    ],
    "region": "מרכז הנגב",
    "time": "30 שניות",
    "countdown": 30,
    "lat": 31.4455166,
    "lng": 34.6666527,
    "value": "אשבול (מרכז הנגב 253)"
  },
  {
    "name": "אשבל",
    "name_en": "Eshbal",
    "zone": "גליל תחתון 60",
    "zone_en": "Lower Galilee 60",
    "codes": [
      60
    ],
    "region": "גליל תחתון",
    "time": "דקה",
    "countdown": 60,
    "lat": 32.8769836,
    "lng": 35.30601,
    "value": "אשבל (גליל תחתון 60)"
  },
  {
    "name": "אשדוד",
    "name_en": "Ashdod",
    "zone": "לכיש 271",
    "zone_en": "Lakhish 271",
    "codes": [
      271
    ],
    "region": "לכיש",
    "time": "45 שניות",
    "countdown": 45,
    "lat": 31.80438,
    "lng": 34.6553154,
    "value": "אשדוד (לכיש 271)"
  },
  {
    "name": "אשדות יעקב איחוד",
    "name_en": "Ashdot Ya'akov Ihud",
    "zone": "תבור 98",
    "zone_en": "Tabor 98",
    "codes": [
      98
    ],
    "region": "תבור",
    "time": "דקה",
    "countdown": 60,
    "lat": 32.65877,
    "lng": 35.5796356,
    "value": "אשדות יעקב איחוד (תבור 98)"
  },
  {
    "name": "אשדות יעקב מאוחד",
    "name_en": "Ashdot Ya'akov Meuhad",
    "zone": "תבור 98",
    "zone_en": "Tabor 98",
    "codes": [
      98
    ],
    "region": "תבור",
    "time": "דקה",
    "countdown": 60,
    "lat": 32.6648064,
    "lng": 35.5827675,
    "value": "אשדות יעקב מאוחד (תבור 98)"
  },
  {
    "name": "אשחר",
    "name_en": "Eshhar",
    "zone": "גליל תחתון 60",
    "zone_en": "Lower Galilee 60",
    "codes": [
      60
    ],
    "region": "גליל תחתון",
    "time": "דקה",
    "countdown": 60,
    "lat": 32.8850822,
    "lng": 35.29962,
    "value": "אשחר (גליל תחתון 60)"
  },
  {
    "name": "אשכולות",
    "name_en": "Eshkolot",
    "zone": "לכיש 285",
    "zone_en": "Lakhish 285",
    "codes": [
      285
    ],
    "region": "לכיש",
    "time": "דקה",
    "countdown": 60,
    "lat": 31.39117,
    "lng": 34.9048576,
    "value": "אשכולות (לכיש 285)"
  },
  {
    "name": "אשל הנשיא בי\"ס אזורי",
    "name_en": "Eshel HaNasi Agricultural School",
    "zone": "באר שבע 289",
    "zone_en": "Beer Sheva 289",
    "codes": [
      289
    ],
    "region": "באר שבע",
    "time": "45 שניות",
    "countdown": 45,
    "lat": 31.3271847,
    "lng": 34.6967468,
    "value": "אשל הנשיא בי\"ס אזורי (באר שבע 289)"
  },
  {
    "name": "אשלים",
    "name_en": "Ashalim",
    "zone": "דרום הנגב 302",
    "zone_en": "Southern Negev 302",
    "codes": [
      302
    ],
    "region": "דרום הנגב",
    "time": "דקה וחצי",
    "countdown": 90,
    "lat": 30.9642448,
    "lng": 34.6996727,
    "value": "אשלים (דרום הנגב 302)"
  },
  {
    "name": "אשקלון",
    "name_en": "Ashqelon",
    "zone": "לכיש 246",
    "zone_en": "Lakhish 246",
    "codes": [
      246
    ],
    "region": "לכיש",
    "time": "30 שניות",
    "countdown": 30,
    "lat": 31.6687889,
    "lng": 34.5742531,
    "shelters": 27,
    "value": "אשקלון (לכיש 246)"
  },
  {
    "name": "אשרת",
    "name_en": "Oshrat",
    "zone": "גליל עליון 38",
    "zone_en": "Upper Galilee 38",
    "codes": [
      38
    ],
    "region": "גליל עליון",
    "time": "30 שניות",
    "countdown": 30,
    "lat": 32.9716454,
    "lng": 35.1557,
    "shelters": 1,
    "value": "אשרת (גליל עליון 38)"
  },
  {
    "name": "אשתאול",
    "name_en": "Eshtaol",
    "zone": "בית שמש-יהודה 188",
    "zone_en": "Beit Shemesh-Judea 188",
    "codes": [
      188
    ],
    "region": "בית שמש-יהודה",
    "time": "דקה וחצי",
    "countdown": 90,
    "lat": 31.7803841,
    "lng": 35.0101,
    "value": "אשתאול (בית שמש-יהודה 188)"
  },
  {
    "name": "אתגר",
    "name_en": "Etgar",
    "zone": "גליל תחתון 63",
    "zone_en": "Lower Galilee 63",
    "codes": [
      63
    ],
    "region": "גליל תחתון",
    "time": "דקה",
    "countdown": 60,
    "lat": 32.8593521,
    "lng": 35.256073,
    "value": "אתגר (גליל תחתון 63)"
  },
  {
    "name": "באקה",
    "name_en": "Baqa",
    "zone": "שומרון 120",
    "zone_en": "Samaria 120",
    "codes": [
      120
    ],
    "region": "שומרון",
    "time": "דקה וחצי",
    "countdown": 90,
    "lat": 32.20665,
    "lng": 35.1150856,
    "value": "באקה (שומרון 120)"
  },
  {
    "name": "באקה א שרקיה",
    "name_en": "Baqa al-Sharqiyya",
    "zone": "שומרון 119",
    "zone_en": "Samaria 119",
    "codes": [
      119
    ],
    "region": "שומרון",
    "time": "דקה וחצי",
    "countdown": 90,
    "lat": 32.41114,
    "lng": 35.0711937,
    "value": "באקה א שרקיה (שומרון 119)"
  },
  {
    "name": "באקה אל ע'רביה",
    "name_en": "Baqa al-Gharbiyye",
    "zone": "ואדי ערה 149",
    "zone_en": "Wadi Ara 149",
    "codes": [
      149
    ],
    "region": "ואדי ערה",
    "time": "דקה וחצי",
    "countdown": 90,
    "lat": 32.42289,
    "lng": 35.0357628,
    "value": "באקה אל ע'רביה (ואדי ערה 149)"
  },
  {
    "name": "באקה ג'ת",
    "name_en": "Baqa-Jatt",
    "zone": "ואדי ערה 149",
    "zone_en": "Wadi Ara 149",
    "codes": [
      149
    ],
    "region": "ואדי ערה",
    "time": "דקה וחצי",
    "countdown": 90,
    "lat": 32.40456,
    "lng": 35.0470924,
    "value": "באקה ג'ת (ואדי ערה 149)"
  },
  {
    "name": "באר אורה",
    "name_en": "Be'er Ora",
    "zone": "ערבה 310",
    "zone_en": "Arabah 310",
    "codes": [
      310
    ],
    "region": "ערבה",
    "time": "3 דקות",
    "countdown": 180,
    "lat": 29.7101669,
    "lng": 34.9872169,
    "value": "באר אורה (ערבה 310)"
  },
  {
    "name": "באר גנים",
    "name_en": "Be'er Ganim",
    "zone": "לכיש 246",
    "zone_en": "Lakhish 246",
    "codes": [
      246
    ],
    "region": "לכיש",
    "time": "30 שניות",
    "countdown": 30,
    "lat": 31.7003536,
    "lng": 34.6109352,
    "value": "באר גנים (לכיש 246)"
  },
  {
    "name": "באר טוביה",
    "name_en": "Be'er Tuvia",
    "zone": "לכיש 275",
    "zone_en": "Lakhish 275",
    "codes": [
      275
    ],
    "region": "לכיש",
    "time": "45 שניות",
    "countdown": 45,
    "lat": 31.7371273,
    "lng": 34.72557,
    "value": "באר טוביה (לכיש 275)"
  },
  {
    "name": "באר יעקב",
    "name_en": "Be'er Ya'akov",
    "zone": "השפלה 178",
    "zone_en": "Default",
    "codes": [
      178
    ],
    "region": "השפלה",
    "time": "דקה וחצי",
    "countdown": 90,
    "lat": 31.9435062,
    "lng": 34.83904,
    "value": "באר יעקב (השפלה 178)"
  },
  {
    "name": "באר מילכה",
    "name_en": "Be'er Milka",
    "zone": "דרום הנגב 302",
    "zone_en": "Southern Negev 302",
    "codes": [
      302
    ],
    "region": "דרום הנגב",
    "time": "דקה",
    "countdown": 60,
    "lat": 30.9341125,
    "lng": 34.4056435,
    "value": "באר מילכה (דרום הנגב 302)"
  },
  {
    "name": "באר שבע",
    "name_en": "Be'er Sheva",
    "zone": "מרכז הנגב 292",
    "zone_en": "Central Negev 292",
    "codes": [
      292
    ],
    "region": "מרכז הנגב",
    "time": "דקה",
    "countdown": 60,
    "lat": 31.2529736,
    "lng": 34.7914619,
    "shelters": 4,
    "value": "באר שבע (מרכז הנגב 292)"
  },
  {
    "name": "בארות יצחק",
    "name_en": "Be'erot Yitzhak",
    "zone": "ירקון 169",
    "zone_en": "Yarkon 169",
    "codes": [
      169
    ],
    "region": "ירקון",
    "time": "דקה וחצי",
    "countdown": 90,
    "lat": 32.0420265,
    "lng": 34.91022,
    "value": "בארות יצחק (ירקון 169)"
  },
  {
    "name": "בארותיים",
    "name_en": "Be'erotayim",
    "zone": "חפר 150",
    "zone_en": "Hefer 150",
    "codes": [
      150
    ],
    "region": "חפר",
    "time": "דקה וחצי",
    "countdown": 90,
    "lat": 32.3210373,
    "lng": 34.98343,
    "value": "בארותיים (חפר 150)"
  },
  {
    "name": "בארי",
    "name_en": "Be'eri",
    "zone": "עוטף עזה 227",
    "zone_en": "Gaza Perimeter 227",
    "codes": [
      227
    ],
    "region": "עוטף עזה",
    "time": "15 שניות",
    "countdown": 15,
    "lat": 31.4245129,
    "lng": 34.4925652,
    "shelters": 2,
    "value": "בארי (עוטף עזה 227)"
  },
  {
    "name": "בד פלוח",
    "name_en": "Bad Fluh",
    "zone": "יהודה 200",
    "zone_en": "Judea 200",
    "codes": [
      200
    ],
    "region": "יהודה",
    "time": "דקה וחצי",
    "countdown": 90,
    "lat": 31.6692486,
    "lng": 35.21953,
    "value": "בד פלוח (יהודה 200)"
  },
  {
    "name": "בודרוס",
    "name_en": "Budrus",
    "zone": "שפלה 181",
    "zone_en": "Shfela 181",
    "codes": [
      181
    ],
    "region": "שפלה",
    "time": "דקה וחצי",
    "countdown": 90,
    "lat": 31.9676781,
    "lng": 34.9936943,
    "value": "בודרוס (שפלה 181)"
  },
  {
    "name": "בווידיעה",
    "name_en": "Buwaidi'a",
    "zone": "יהודה 200",
    "zone_en": "Judea 200",
    "codes": [
      200
    ],
    "region": "יהודה",
    "time": "דקה וחצי",
    "countdown": 90,
    "lat": 31.6839466,
    "lng": 35.2284126,
    "value": "בווידיעה (יהודה 200)"
  },
  {
    "name": "בוסתן הגליל",
    "name_en": "Bustan HaGalil",
    "zone": "גליל עליון 37",
    "zone_en": "Upper Galilee 37",
    "codes": [
      37
    ],
    "region": "גליל עליון",
    "time": "30 שניות",
    "countdown": 30,
    "lat": 32.9486351,
    "lng": 35.08069,
    "shelters": 1,
    "value": "בוסתן הגליל (גליל עליון 37)"
  },
  {
    "name": "בועיינה נוגיידאת",
    "name_en": "Bu'eine Nujeidat",
    "zone": "גליל תחתון 57",
    "zone_en": "Lower Galilee 57",
    "codes": [
      57
    ],
    "region": "גליל תחתון",
    "time": "דקה",
    "countdown": 60,
    "lat": 32.8077126,
    "lng": 35.36527,
    "value": "בועיינה נוגיידאת (גליל תחתון 57)"
  },
  {
    "name": "בוקעתא",
    "name_en": "Buq'ata",
    "zone": "גולן 2",
    "zone_en": "Golan 2",
    "codes": [
      2
    ],
    "region": "גולן",
    "time": "מיידי",
    "countdown": 0,
    "lat": 33.2026558,
    "lng": 35.77677,
    "value": "בוקעתא (גולן 2)"
  },
  {
    "name": "בור אל מכסור",
    "name_en": "Bur al-Maksur",
    "zone": "גליל תחתון 63",
    "zone_en": "Lower Galilee 63",
    "codes": [
      63
    ],
    "region": "גליל תחתון",
    "time": "דקה",
    "countdown": 60,
    "lat": 0,
    "lng": 0,
    "value": "בור אל מכסור (גליל תחתון 63)"
  },
  {
    "name": "בורג'",
    "name_en": "Burj",
    "zone": "לכיש 285",
    "zone_en": "Lakhish 285",
    "codes": [
      285
    ],
    "region": "לכיש",
    "time": "דקה",
    "countdown": 60,
    "lat": 31.4413681,
    "lng": 34.9073563,
    "value": "בורג' (לכיש 285)"
  },
  {
    "name": "בורגתה",
    "name_en": "Burgata",
    "zone": "חפר 150",
    "zone_en": "Hefer 150",
    "codes": [
      150
    ],
    "region": "חפר",
    "time": "דקה וחצי",
    "countdown": 90,
    "lat": 32.3259735,
    "lng": 34.96385,
    "value": "בורגתה (חפר 150)"
  },
  {
    "name": "בורהאם",
    "name_en": "Burham",
    "zone": "שומרון 124",
    "zone_en": "Samaria 124",
    "codes": [
      124
    ],
    "region": "שומרון",
    "time": "דקה וחצי",
    "countdown": 90,
    "lat": 31.9884777,
    "lng": 35.17544,
    "value": "בורהאם (שומרון 124)"
  },
  {
    "name": "בורוקין",
    "name_en": "Buruqin",
    "zone": "שומרון 124",
    "zone_en": "Samaria 124",
    "codes": [
      124
    ],
    "region": "שומרון",
    "time": "דקה וחצי",
    "countdown": 90,
    "lat": 32.0726128,
    "lng": 35.0984077,
    "value": "בורוקין (שומרון 124)"
  },
  {
    "name": "בורין",
    "name_en": "Burin",
    "zone": "שומרון 120",
    "zone_en": "Samaria 120",
    "codes": [
      120
    ],
    "region": "שומרון",
    "time": "דקה וחצי",
    "countdown": 90,
    "lat": 32.1846581,
    "lng": 35.24923,
    "value": "בורין (שומרון 120)"
  },
  {
    "name": "בורקה",
    "name_en": "Burka",
    "zone": "שומרון 126",
    "zone_en": "Samaria 126",
    "codes": [
      126
    ],
    "region": "שומרון",
    "time": "דקה וחצי",
    "countdown": 90,
    "lat": 31.896059,
    "lng": 35.25477,
    "value": "בורקה (שומרון 126)"
  },
  {
    "name": "בורקה ליד שכם",
    "name_en": "Burqa",
    "zone": "שומרון 118",
    "zone_en": "Samaria 118",
    "codes": [
      118
    ],
    "region": "שומרון",
    "time": "דקה וחצי",
    "countdown": 90,
    "lat": 32.3013649,
    "lng": 35.1929321,
    "value": "בורקה ליד שכם (שומרון 118)"
  },
  {
    "name": "בורקין",
    "name_en": "Burkin",
    "zone": "שומרון 118",
    "zone_en": "Samaria 118",
    "codes": [
      118
    ],
    "region": "שומרון",
    "time": "דקה וחצי",
    "countdown": 90,
    "lat": 32.4561348,
    "lng": 35.26169,
    "value": "בורקין (שומרון 118)"
  },
  {
    "name": "בזאריה",
    "name_en": "Bazariya",
    "zone": "שומרון 119",
    "zone_en": "Samaria 119",
    "codes": [
      119
    ],
    "region": "שומרון",
    "time": "דקה וחצי",
    "countdown": 90,
    "lat": 32.3072739,
    "lng": 35.1638031,
    "value": "בזאריה (שומרון 119)"
  },
  {
    "name": "בחן",
    "name_en": "Bahan",
    "zone": "חפר 148",
    "zone_en": "Hefer 148",
    "codes": [
      148
    ],
    "region": "חפר",
    "time": "דקה וחצי",
    "countdown": 90,
    "lat": 32.35183,
    "lng": 35.0185432,
    "value": "בחן (חפר 148)"
  },
  {
    "name": "בטחה",
    "name_en": "Bitha",
    "zone": "מרכז הנגב 289",
    "zone_en": "Central Negev 289",
    "codes": [
      289
    ],
    "region": "מרכז הנגב",
    "time": "45 שניות",
    "countdown": 45,
    "lat": 31.33387,
    "lng": 34.63432,
    "value": "בטחה (מרכז הנגב 289)"
  },
  {
    "name": "ביאדה",
    "name_en": "Bayada",
    "zone": "ואדי ערה 113",
    "zone_en": "Wadi Ara 113",
    "codes": [
      113
    ],
    "region": "ואדי ערה",
    "time": "דקה וחצי",
    "countdown": 90,
    "lat": 31.6952839,
    "lng": 35.2489166,
    "value": "ביאדה (ואדי ערה 113)"
  },
  {
    "name": "בידו",
    "name_en": "Bidu",
    "zone": "בית שמש 190",
    "zone_en": "Beit Shemesh 190",
    "codes": [
      190
    ],
    "region": "בית שמש",
    "time": "דקה וחצי",
    "countdown": 90,
    "lat": 31.8344078,
    "lng": 35.14824,
    "value": "בידו (בית שמש 190)"
  },
  {
    "name": "בידיה",
    "name_en": "Biddya",
    "zone": "שומרון 121",
    "zone_en": "Samaria 121",
    "codes": [
      121
    ],
    "region": "שומרון",
    "time": "דקה וחצי",
    "countdown": 90,
    "lat": 32.1133652,
    "lng": 35.0774651,
    "value": "בידיה (שומרון 121)"
  },
  {
    "name": "ביכורה",
    "name_en": "Bikura",
    "zone": "בקעת בית שאן 128",
    "zone_en": "Beit Sha'an Valley 128",
    "codes": [
      128
    ],
    "region": "בקעת בית שאן",
    "time": "דקה",
    "countdown": 60,
    "lat": 32.4472122,
    "lng": 35.487442,
    "value": "ביכורה (בקעת בית שאן 128)"
  },
  {
    "name": "בילעין",
    "name_en": "Bil'in",
    "zone": "שומרון 126",
    "zone_en": "Samaria 126",
    "codes": [
      126
    ],
    "region": "שומרון",
    "time": "דקה וחצי",
    "countdown": 90,
    "lat": 31.9285164,
    "lng": 35.0709534,
    "value": "בילעין (שומרון 126)"
  },
  {
    "name": "בי\"ס אזורי מקיף מטה אשר",
    "name_en": "HaGalil HaMa'aravi Regional School",
    "zone": "קו העימות 30",
    "zone_en": "Confrontation line 30",
    "codes": [
      30
    ],
    "region": "קו העימות",
    "time": "מיידי",
    "countdown": 0,
    "lat": 33.0108757,
    "lng": 35.151413,
    "shelters": 9,
    "value": "בי\"ס אזורי מקיף מטה אשר (קו העימות 30)"
  },
  {
    "name": "ביענה",
    "name_en": "Bi'ina",
    "zone": "גליל עליון 42",
    "zone_en": "Upper Galilee 42",
    "codes": [
      42
    ],
    "region": "גליל עליון",
    "time": "30 שניות",
    "countdown": 30,
    "lat": 32.92954,
    "lng": 35.2719154,
    "value": "ביענה (גליל עליון 42)"
  },
  {
    "name": "ביצרון",
    "name_en": "Bitzaron",
    "zone": "לכיש 273",
    "zone_en": "Lakhish 273",
    "codes": [
      273
    ],
    "region": "לכיש",
    "time": "דקה",
    "countdown": 60,
    "lat": 31.7949524,
    "lng": 34.7293472,
    "value": "ביצרון (לכיש 273)"
  },
  {
    "name": "ביר אבו אל חמאם",
    "name_en": "Bir Abu el-Hamam",
    "zone": "נגב 297",
    "zone_en": "Negev 297",
    "codes": [
      297
    ],
    "region": "נגב",
    "time": "דקה וחצי",
    "countdown": 90,
    "lat": 31.2222672,
    "lng": 34.8966331,
    "value": "ביר אבו אל חמאם (נגב 297)"
  },
  {
    "name": "ביר אל מכסור",
    "name_en": "Bir al-Maksur",
    "zone": "גליל תחתון 63",
    "zone_en": "Lower Galilee 63",
    "codes": [
      63
    ],
    "region": "גליל תחתון",
    "time": "דקה",
    "countdown": 60,
    "lat": 32.77729,
    "lng": 35.22057,
    "value": "ביר אל מכסור (גליל תחתון 63)"
  },
  {
    "name": "ביר הדאג'",
    "name_en": "Bir Hadaj",
    "zone": "דרום הנגב 302",
    "zone_en": "Southern Negev 302",
    "codes": [
      302
    ],
    "region": "דרום הנגב",
    "time": "דקה וחצי",
    "countdown": 90,
    "lat": 31.02316,
    "lng": 34.709137,
    "value": "ביר הדאג' (דרום הנגב 302)"
  },
  {
    "name": "ביר נבאלה",
    "name_en": "Bir Nabala",
    "zone": "ירושלים 194",
    "zone_en": "Jerusalem 194",
    "codes": [
      194
    ],
    "region": "ירושלים",
    "time": "דקה וחצי",
    "countdown": 90,
    "lat": 31.8511829,
    "lng": 35.2008362,
    "value": "ביר נבאלה (ירושלים 194)"
  },
  {
    "name": "ביריה",
    "name_en": "Birya",
    "zone": "גליל עליון 49",
    "zone_en": "Upper Galilee 49",
    "codes": [
      49
    ],
    "region": "גליל עליון",
    "time": "30 שניות",
    "countdown": 30,
    "lat": 32.9781075,
    "lng": 35.5030975,
    "value": "ביריה (גליל עליון 49)"
  },
  {
    "name": "בית א אל פוקא",
    "name_en": "Beita el-Foka",
    "zone": "שומרון 120",
    "zone_en": "Samaria 120",
    "codes": [
      120
    ],
    "region": "שומרון",
    "time": "דקה וחצי",
    "countdown": 90,
    "lat": 32.14134,
    "lng": 35.2864,
    "value": "בית א אל פוקא (שומרון 120)"
  },
  {
    "name": "בית א רוש אל פוקא",
    "name_en": "Bayt al-Rosh al-Fawqa",
    "zone": "באר שבע 285",
    "zone_en": "Beer Sheva 285",
    "codes": [
      285
    ],
    "region": "באר שבע",
    "time": "דקה",
    "countdown": 60,
    "lat": 31.4526787,
    "lng": 34.9262428,
    "value": "בית א רוש אל פוקא (באר שבע 285)"
  },
  {
    "name": "בית אולא",
    "name_en": "Bayt Ula",
    "zone": "יהודה 188",
    "zone_en": "Judea 188",
    "codes": [
      188
    ],
    "region": "יהודה",
    "time": "דקה וחצי",
    "countdown": 90,
    "lat": 31.5984211,
    "lng": 35.0263748,
    "value": "בית אולא (יהודה 188)"
  },
  {
    "name": "בית אומר",
    "name_en": "Bayt Umar",
    "zone": "יהודה 206",
    "zone_en": "Judea 206",
    "codes": [
      206
    ],
    "region": "יהודה",
    "time": "דקה וחצי",
    "countdown": 90,
    "lat": 31.6228123,
    "lng": 35.1022,
    "value": "בית אומר (יהודה 206)"
  },
  {
    "name": "בית אומרין",
    "name_en": "Bayt Umrin",
    "zone": "שומרון 119",
    "zone_en": "Samaria 119",
    "codes": [
      119
    ],
    "region": "שומרון",
    "time": "דקה וחצי",
    "countdown": 90,
    "lat": 32.2927628,
    "lng": 35.21573,
    "value": "בית אומרין (שומרון 119)"
  },
  {
    "name": "בית אורן",
    "name_en": "Beit Oren",
    "zone": "יערות הכרמל 82",
    "zone_en": "Yearut HaCarmel-Carmel Forest 82",
    "codes": [
      82
    ],
    "region": "יערות הכרמל",
    "time": "דקה",
    "countdown": 60,
    "lat": 32.7316,
    "lng": 35.00632,
    "value": "בית אורן (יערות הכרמל 82)"
  },
  {
    "name": "בית איבא",
    "name_en": "Beit Iba",
    "zone": "שומרון 120",
    "zone_en": "Samaria 120",
    "codes": [
      120
    ],
    "region": "שומרון",
    "time": "דקה וחצי",
    "countdown": 90,
    "lat": 32.24006,
    "lng": 35.21256,
    "value": "בית איבא (שומרון 120)"
  },
  {
    "name": "בית איגיזא",
    "name_en": "Bayt Ijza",
    "zone": "שומרון 127",
    "zone_en": "Samaria 127",
    "codes": [
      127
    ],
    "region": "שומרון",
    "time": "דקה וחצי",
    "countdown": 90,
    "lat": 31.8475761,
    "lng": 35.15286,
    "value": "בית איגיזא (שומרון 127)"
  },
  {
    "name": "בית איכסא",
    "name_en": "Bayt Iksa",
    "zone": "ירושלים 194",
    "zone_en": "Jerusalem 194",
    "codes": [
      194
    ],
    "region": "ירושלים",
    "time": "דקה וחצי",
    "countdown": 90,
    "lat": 31.8166771,
    "lng": 35.1800041,
    "value": "בית איכסא (ירושלים 194)"
  },
  {
    "name": "בית איענאן",
    "name_en": "Beit 'Anan",
    "zone": "שומרון 126",
    "zone_en": "Samaria 126",
    "codes": [
      126
    ],
    "region": "שומרון",
    "time": "דקה וחצי",
    "countdown": 90,
    "lat": 31.8510647,
    "lng": 35.1117172,
    "value": "בית איענאן (שומרון 126)"
  },
  {
    "name": "בית אל",
    "name_en": "Beit El",
    "zone": "שומרון 126",
    "zone_en": "Samaria 126",
    "codes": [
      126
    ],
    "region": "שומרון",
    "time": "דקה וחצי",
    "countdown": 90,
    "lat": 31.9416,
    "lng": 35.2227325,
    "value": "בית אל (שומרון 126)"
  },
  {
    "name": "בית אלעזרי",
    "name_en": "Beit Elazari",
    "zone": "דרום השפלה 268",
    "zone_en": "Southern Shfela 268",
    "codes": [
      268
    ],
    "region": "דרום השפלה",
    "time": "דקה",
    "countdown": 60,
    "lat": 31.844717,
    "lng": 34.8066254,
    "value": "בית אלעזרי (דרום השפלה 268)"
  },
  {
    "name": "בית אלפא",
    "name_en": "Beit Alfa",
    "zone": "בקעת בית שאן 128",
    "zone_en": "Beit Sha'an Valley 128",
    "codes": [
      128
    ],
    "region": "בקעת בית שאן",
    "time": "דקה",
    "countdown": 60,
    "lat": 32.5163574,
    "lng": 35.4305,
    "value": "בית אלפא (בקעת בית שאן 128)"
  },
  {
    "name": "בית אמין",
    "name_en": "Bayt Amin",
    "zone": "שומרון 121",
    "zone_en": "Samaria 121",
    "codes": [
      121
    ],
    "region": "שומרון",
    "time": "דקה וחצי",
    "countdown": 90,
    "lat": 32.1318626,
    "lng": 35.0219078,
    "value": "בית אמין (שומרון 121)"
  },
  {
    "name": "בית אריה",
    "name_en": "Beit Arye",
    "zone": "שומרון 123",
    "zone_en": "Samaria 123",
    "codes": [
      123
    ],
    "region": "שומרון",
    "time": "דקה וחצי",
    "countdown": 90,
    "lat": 32.04006,
    "lng": 35.0494728,
    "value": "בית אריה (שומרון 123)"
  },
  {
    "name": "בית ברל",
    "name_en": "Beit Berl",
    "zone": "שרון 141",
    "zone_en": "Sharon 141",
    "codes": [
      141
    ],
    "region": "שרון",
    "time": "דקה וחצי",
    "countdown": 90,
    "lat": 32.1997871,
    "lng": 34.92604,
    "value": "בית ברל (שרון 141)"
  },
  {
    "name": "בית גוברין",
    "name_en": "Beit Guvrin",
    "zone": "לכיש 282",
    "zone_en": "Lakhish 282",
    "codes": [
      282
    ],
    "region": "לכיש",
    "time": "דקה",
    "countdown": 60,
    "lat": 31.61288,
    "lng": 34.89557,
    "value": "בית גוברין (לכיש 282)"
  },
  {
    "name": "בית ג'מאל",
    "name_en": "Beit Jimal",
    "zone": "בית שמש-יהודה 188",
    "zone_en": "Beit Shemesh-Judea 188",
    "codes": [
      188
    ],
    "region": "בית שמש-יהודה",
    "time": "דקה וחצי",
    "countdown": 90,
    "lat": 31.7245426,
    "lng": 34.97652,
    "value": "בית ג'מאל (בית שמש-יהודה 188)"
  },
  {
    "name": "בית גמליאל",
    "name_en": "Beit Gamliel",
    "zone": "דרום השפלה 267",
    "zone_en": "Southern Shfela 267",
    "codes": [
      267
    ],
    "region": "דרום השפלה",
    "time": "דקה",
    "countdown": 60,
    "lat": 31.8561287,
    "lng": 34.76095,
    "value": "בית גמליאל (דרום השפלה 267)"
  },
  {
    "name": "בית ג'ן",
    "name_en": "Beit Jann",
    "zone": "גליל עליון 43",
    "zone_en": "Upper Galilee 43",
    "codes": [
      43
    ],
    "region": "גליל עליון",
    "time": "30 שניות",
    "countdown": 30,
    "lat": 32.9656563,
    "lng": 35.3812675,
    "value": "בית ג'ן (גליל עליון 43)"
  },
  {
    "name": "בית דגן",
    "name_en": "Bet Dagan",
    "zone": "השפלה 174",
    "zone_en": "Shfela",
    "codes": [
      174
    ],
    "region": "השפלה",
    "time": "דקה וחצי",
    "countdown": 90,
    "lat": 32.00178,
    "lng": 34.82971,
    "value": "בית דגן (השפלה 174)"
  },
  {
    "name": "בית דג'ן",
    "name_en": "Bayt Dajan",
    "zone": "שומרון 120",
    "zone_en": "Samaria 120",
    "codes": [
      120
    ],
    "region": "שומרון",
    "time": "דקה וחצי",
    "countdown": 90,
    "lat": 32.1931229,
    "lng": 35.3727722,
    "value": "בית דג'ן (שומרון 120)"
  },
  {
    "name": "בית דוקו",
    "name_en": "Bayt Duqu",
    "zone": "שומרון 126",
    "zone_en": "Samaria 126",
    "codes": [
      126
    ],
    "region": "שומרון",
    "time": "דקה וחצי",
    "countdown": 90,
    "lat": 31.859417,
    "lng": 35.1307373,
    "value": "בית דוקו (שומרון 126)"
  },
  {
    "name": "בית הגדי",
    "name_en": "Beit HaGadi",
    "zone": "מרכז הנגב 254",
    "zone_en": "Central Negev 253",
    "codes": [
      254
    ],
    "region": "מרכז הנגב",
    "time": "30 שניות",
    "countdown": 30,
    "lat": 31.4228382,
    "lng": 34.60788,
    "value": "בית הגדי (מרכז הנגב 254)"
  },
  {
    "name": "בית הלוי",
    "name_en": "Beit HaLevi",
    "zone": "חפר 150",
    "zone_en": "Hefer 150",
    "codes": [
      150
    ],
    "region": "חפר",
    "time": "דקה וחצי",
    "countdown": 90,
    "lat": 32.3515968,
    "lng": 34.9304428,
    "value": "בית הלוי (חפר 150)"
  },
  {
    "name": "בית הלל",
    "name_en": "Beit Hillel",
    "zone": "קו העימות 26",
    "zone_en": "Confrontation line 26",
    "codes": [
      26
    ],
    "region": "קו העימות",
    "time": "מיידי",
    "countdown": 0,
    "lat": 33.2087822,
    "lng": 35.606514,
    "value": "בית הלל (קו העימות 26)"
  },
  {
    "name": "בית העמק",
    "name_en": "Beit HaEmek",
    "zone": "גליל עליון 37",
    "zone_en": "Upper Galilee 37",
    "codes": [
      37
    ],
    "region": "גליל עליון",
    "time": "30 שניות",
    "countdown": 30,
    "lat": 32.9710121,
    "lng": 35.1453056,
    "value": "בית העמק (גליל עליון 37)"
  },
  {
    "name": "בית הערבה",
    "name_en": "Beit HaArava",
    "zone": "בקעה 133",
    "zone_en": "Syro-African Rift  133",
    "codes": [
      133
    ],
    "region": "בקעה",
    "time": "דקה וחצי",
    "countdown": 90,
    "lat": 31.8077621,
    "lng": 35.47641,
    "value": "בית הערבה (בקעה 133)"
  },
  {
    "name": "בית השיטה",
    "name_en": "Beit HaShita",
    "zone": "בקעת בית שאן 128",
    "zone_en": "Beit Sha'an Valley 128",
    "codes": [
      128
    ],
    "region": "בקעת בית שאן",
    "time": "דקה",
    "countdown": 60,
    "lat": 32.5508728,
    "lng": 35.43935,
    "value": "בית השיטה (בקעת בית שאן 128)"
  },
  {
    "name": "בית וזן",
    "name_en": "Bayt Wazan",
    "zone": "שומרון 120",
    "zone_en": "Samaria 120",
    "codes": [
      120
    ],
    "region": "שומרון",
    "time": "דקה וחצי",
    "countdown": 90,
    "lat": 32.2315674,
    "lng": 35.2146149,
    "value": "בית וזן (שומרון 120)"
  },
  {
    "name": "בית זיד",
    "name_en": "Beit Zaid",
    "zone": "עמק יזרעאל 86",
    "zone_en": "Jezreel Valley 86",
    "codes": [
      86
    ],
    "region": "עמק יזרעאל",
    "time": "דקה",
    "countdown": 60,
    "lat": 32.7024155,
    "lng": 35.1311073,
    "value": "בית זיד (עמק יזרעאל 86)"
  },
  {
    "name": "בית זית",
    "name_en": "Beit Zayit",
    "zone": "בית שמש 190",
    "zone_en": "Beit Shemesh 190",
    "codes": [
      190
    ],
    "region": "בית שמש",
    "time": "דקה וחצי",
    "countdown": 90,
    "lat": 31.7830582,
    "lng": 35.1611176,
    "value": "בית זית (בית שמש 190)"
  },
  {
    "name": "בית זרע",
    "name_en": "Beit Zera",
    "zone": "תבור 98",
    "zone_en": "Tabor 98",
    "codes": [
      98
    ],
    "region": "תבור",
    "time": "דקה",
    "countdown": 60,
    "lat": 32.6892967,
    "lng": 35.5740623,
    "value": "בית זרע (תבור 98)"
  },
  {
    "name": "בית חולים פורייה",
    "name_en": "Baruch Padeh Medical Center, Poriya",
    "zone": "תבור 98",
    "zone_en": "Tabor 98",
    "codes": [
      98
    ],
    "region": "תבור",
    "time": "דקה",
    "countdown": 60,
    "lat": 32.752327,
    "lng": 35.5404053,
    "value": "בית חולים פורייה (תבור 98)"
  },
  {
    "name": "בית חורון",
    "name_en": "Beit Horon",
    "zone": "שומרון 126",
    "zone_en": "Samaria 126",
    "codes": [
      126
    ],
    "region": "שומרון",
    "time": "דקה וחצי",
    "countdown": 90,
    "lat": 31.87989,
    "lng": 35.1240959,
    "value": "בית חורון (שומרון 126)"
  },
  {
    "name": "בית חזון",
    "name_en": "Beit Hazon",
    "zone": "חפר 137",
    "zone_en": "Hefer 137",
    "codes": [
      137
    ],
    "region": "חפר",
    "time": "דקה וחצי",
    "countdown": 90,
    "lat": 32.3871765,
    "lng": 34.91291,
    "value": "בית חזון (חפר 137)"
  },
  {
    "name": "בית חלקיה",
    "name_en": "Beit Hilkia",
    "zone": "דרום השפלה 268",
    "zone_en": "Southern Shfela 268",
    "codes": [
      268
    ],
    "region": "דרום השפלה",
    "time": "דקה",
    "countdown": 60,
    "lat": 31.7930012,
    "lng": 34.8096962,
    "value": "בית חלקיה (דרום השפלה 268)"
  },
  {
    "name": "בית חנינא",
    "name_en": "Beit Hanina",
    "zone": "ירושלים 194",
    "zone_en": "Jerusalem 194",
    "codes": [
      194
    ],
    "region": "ירושלים",
    "time": "דקה וחצי",
    "countdown": 90,
    "lat": 31.8301315,
    "lng": 35.2252045,
    "value": "בית חנינא (ירושלים 194)"
  },
  {
    "name": "בית חנן",
    "name_en": "Beit Hanan",
    "zone": "שפלה 183",
    "zone_en": "",
    "codes": [
      183
    ],
    "region": "שפלה",
    "time": "דקה וחצי",
    "countdown": 90,
    "lat": 31.9352112,
    "lng": 34.7755966,
    "value": "בית חנן (שפלה 183)"
  },
  {
    "name": "בית חנניה",
    "name_en": "Beit Hanania",
    "zone": "מנשה 104",
    "zone_en": "Menashe 104",
    "codes": [
      104
    ],
    "region": "מנשה",
    "time": "דקה וחצי",
    "countdown": 90,
    "lat": 32.5295029,
    "lng": 34.9267349,
    "value": "בית חנניה (מנשה 104)"
  },
  {
    "name": "בית חרות",
    "name_en": "Beit Herut",
    "zone": "חפר 137",
    "zone_en": "Hefer 137",
    "codes": [
      137
    ],
    "region": "חפר",
    "time": "דקה וחצי",
    "countdown": 90,
    "lat": 32.3762245,
    "lng": 34.873764,
    "value": "בית חרות (חפר 137)"
  },
  {
    "name": "בית חשמונאי",
    "name_en": "Beit Hashmonai",
    "zone": "שפלה 184",
    "zone_en": "Shfela 184",
    "codes": [
      184
    ],
    "region": "שפלה",
    "time": "דקה וחצי",
    "countdown": 90,
    "lat": 31.8902988,
    "lng": 34.9176,
    "value": "בית חשמונאי (שפלה 184)"
  },
  {
    "name": "בית יהושע",
    "name_en": "Beit Yehoshua",
    "zone": "שרון 142",
    "zone_en": "Sharon 142",
    "codes": [
      142
    ],
    "region": "שרון",
    "time": "דקה וחצי",
    "countdown": 90,
    "lat": 32.2620735,
    "lng": 34.8654175,
    "value": "בית יהושע (שרון 142)"
  },
  {
    "name": "בית יוסף",
    "name_en": "Beit Yosef",
    "zone": "בקעת בית שאן 128",
    "zone_en": "Beit Sha'an Valley 128",
    "codes": [
      128
    ],
    "region": "בקעת בית שאן",
    "time": "דקה",
    "countdown": 60,
    "lat": 32.5586967,
    "lng": 35.5527725,
    "value": "בית יוסף (בקעת בית שאן 128)"
  },