[
  {
    "id": 0,
    "name": "בחר הכל",
    "name_en": "Select All",
    "name_ru": "Выбрать все",
    "name_ar": "اختر الكل",
    "zone": "",
    "zone_en": "",
    "zone_ru": "",
    "zone_ar": "",
    "time": "all",
    "time_en": "",
    "time_ru": "",
    "time_ar": "",
    "countdown": 0,
    "lat": 0,
    "lng": 0,
    "value": "all"
  },
  {
    "id": 511,
    "name": "אבו גוש",
    "name_en": "Abu Ghosh",
    "name_ru": "Абу-Гош",
    "name_ar": "ابو غوش",
    "zone": "שפלת יהודה",
    "zone_en": "Shfelat Yehuda",
    "zone_ru": "Шфелат Йегуда",
    "zone_ar": "شيفلات يهودا",
    "time": "דקה וחצי",
    "time_en": "A minute and a half",
    "time_ru": "Полторы минуты",
    "time_ar": "دقيقة ونصف",
    "countdown": 90,
    "lat": 31.80595,
    "lng": 35.11005,
    "value": "אבו גוש"
  },
  {
    "id": 2024,
    "name": "אבו נוור",
    "name_en": "Abu-Nuwar",
    "name_ru": "Абу Навер",
    "name_ar": "أبو نور",
    "zone": "יהודה",
    "zone_en": "Yehuda",
    "zone_ru": "Йегуда",
    "zone_ar": "يهودا",
    "time": "דקה וחצי",
    "time_en": "A minute and a half",
    "time_ru": "Полторы минуты",
    "time_ar": "دقيقة ونصف",
    "countdown": 90,
    "lat": 31.046051,
    "lng": 34.851612,
    "value": "אבו נוור"
  },
  {
    "id": 1470,
    "name": "אבו סנאן",
    "name_en": "Abu Snan",
    "name_ru": "Абу Снан",
    "name_ar": "ابو سنان",
    "zone": "גליל עליון",
    "zone_en": "Upper Galilee",
    "zone_ru": "Верхняя Галилея",
    "zone_ar": "الجليل الأعلى",
    "time": "30 שניות",
    "time_en": "30 seconds",
    "time_ru": "30 секунд",
    "time_ar": "۳۰ ثانية",
    "countdown": 30,
    "lat": 32.9593,
    "lng": 35.1686,
    "value": "אבו סנאן"
  },
  {
    "id": 92,
    "name": "אבו קרינאת",
    "name_en": "Abu Qrenat",
    "name_ru": "Абу Кренат",
    "name_ar": "أبو كرينات وضواحيها",
    "zone": "דרום הנגב",
    "zone_en": "South Negev",
    "zone_ru": "Южный Негев",
    "zone_ar": "جنوب النقب",
    "time": "דקה וחצי",
    "time_en": "A minute and a half",
    "time_ru": "Полторы минуты",
    "time_ar": "دقيقة ونصف",
    "countdown": 90,
    "lat": 31.1239,
    "lng": 34.9641,
    "value": "אבו קרינאת"
  },
  {
    "id": 103,
    "name": "אבו תלול",
    "name_en": "Abu Talul",
    "name_ru": "Абу Талуль",
    "name_ar": "أبو تلول",
    "zone": "דרום הנגב",
    "zone_en": "South Negev",
    "zone_ru": "Южный Негев",
    "zone_ar": "جنوب النقب",
    "time": "דקה וחצי",
    "time_en": "A minute and a half",
    "time_ru": "Полторы минуты",
    "time_ar": "دقيقة ونصف",
    "countdown": 90,
    "lat": 31.1907,
    "lng": 34.9246,
    "value": "אבו תלול"
  },
  {
    "id": 1363,
    "name": "אבטליון",
    "name_en": "Avtalion",
    "name_ru": "Авталион",
    "name_ar": "افتليون",
    "zone": "מרכז הגליל",
    "zone_en": "Center Galilee",
    "zone_ru": "Центральная Галилея",
    "zone_ar": "مركز الجليل",
    "time": "דקה",
    "time_en": "A minute",
    "time_ru": "Минута",
    "time_ar": "دقيقة",
    "countdown": 60,
    "lat": 32.8369,
    "lng": 35.35145,
    "value": "אבטליון"
  },
  {
    "id": 1065,
    "name": "אביאל",
    "name_en": "Aviel",
    "name_ru": "Авиэль",
    "name_ar": "أفيئيل",
    "zone": "מנשה",
    "zone_en": "Menashe",
    "zone_ru": "Менаше",
    "zone_ar": "مناشيه",
    "time": "דקה וחצי",
    "time_en": "A minute and a half",
    "time_ru": "Полторы минуты",
    "time_ar": "دقيقة ونصف",
    "countdown": 90,
    "lat": 32.5315,
    "lng": 34.99265,
    "value": "אביאל"
  },
  {
    "id": 1604,
    "name": "אביבים",
    "name_en": "Avivim",
    "name_ru": "Авивим",
    "name_ar": "أفيفيم",
    "zone": "קו העימות",
    "zone_en": "Confrontation Line",
    "zone_ru": "Кав Ха-Имут",
    "zone_ar": "خط المواجهة",
    "time": "מיידי",
    "time_en": "Immediately",
    "time_ru": "Немедленно",
    "time_ar": "في الحال",
    "countdown": 0,
    "lat": 33.08805,
    "lng": 35.47125,
    "value": "אביבים"
  },
  {
    "id": 373,
    "name": "אביגדור",
    "name_en": "Avigdor",
    "name_ru": "Авигдор",
    "name_ar": "افيغدور",
    "zone": "לכיש",
    "zone_en": "Lachish",
    "zone_ru": "Лахиш",
    "zone_ar": "لخيش",
    "time": "45 שניות",
    "time_en": "45 seconds",
    "time_ru": "45 секунд",
    "time_ar": "٤٥ ثانية",
    "countdown": 45,
    "lat": 31.70955,
    "lng": 34.74385,
    "value": "אביגדור"
  },
  {
    "id": 940,
    "name": "אביחיל",
    "name_en": "Avihail",
    "name_ru": "Авихайль",
    "name_ar": "افيحايل",
    "zone": "שרון",
    "zone_en": "Sharon",
    "zone_ru": "Шарон",
    "zone_ar": "شارون",
    "time": "דקה וחצי",
    "time_en": "A minute and a half",
    "time_ru": "Полторы минуты",
    "time_ar": "دقيقة ونصف",
    "countdown": 90,
    "lat": 32.35075,
    "lng": 34.8703,
    "value": "אביחיל"
  },
  {
    "id": 359,
    "name": "אביעזר",
    "name_en": "Aviezer",
    "name_ru": "Авиэзер",
    "name_ar": "افيعزير",
    "zone": "שפלת יהודה",
    "zone_en": "Shfelat Yehuda",
    "zone_ru": "Шфелат Йегуда",
    "zone_ar": "شيفلات يهودا",
    "time": "דקה וחצי",
    "time_en": "A minute and a half",
    "time_ru": "Полторы минуты",
    "time_ar": "دقيقة ونصف",
    "countdown": 90,
    "lat": 31.68135,
    "lng": 35.0147,
    "value": "אביעזר"
  },
  {
    "id": 1557,
    "name": "אבירים",
    "name_en": "Abirim",
    "name_ru": "Абирим",
    "name_ar": "أفيريم",
    "zone": "קו העימות",
    "zone_en": "Confrontation Line",
    "zone_ru": "Кав Ха-Имут",
    "zone_ar": "خط المواجهة",
    "time": "מיידי",
    "time_en": "Immediately",
    "time_ru": "Немедленно",
    "time_ar": "في الحال",
    "countdown": 0,
    "lat": 33.0395,
    "lng": 35.2881,
    "value": "אבירים"
  },
  {
    "id": 891,
    "name": "אבן יהודה",
    "name_en": "Even Yehuda",
    "name_ru": "Эвен Иеуда",
    "name_ar": "ايفين يهودا",
    "zone": "שרון",
    "zone_en": "Sharon",
    "zone_ru": "Шарон",
    "zone_ar": "شارون",
    "time": "דקה וחצי",
    "time_en": "A minute and a half",
    "time_ru": "Полторы минуты",
    "time_ar": "دقيقة ونصف",
    "countdown": 90,
    "lat": 32.27205,
    "lng": 34.88535,
    "value": "אבן יהודה"
  },
  {
    "id": 1588,
    "name": "אבן מנחם",
    "name_en": "Even Menachem",
    "name_ru": "Эвен Менахем",
    "name_ar": "إيفين مناحيم",
    "zone": "קו העימות",
    "zone_en": "Confrontation Line",
    "zone_ru": "Кав Ха-Имут",
    "zone_ar": "خط المواجهة",
    "time": "מיידי",
    "time_en": "Immediately",
    "time_ru": "Немедленно",
    "time_ar": "في الحال",
    "countdown": 0,
    "lat": 33.0747,
    "lng": 35.29285,
    "value": "אבן מנחם"
  },
  {
    "id": 443,
    "name": "אבן ספיר",
    "name_en": "Even Sapir",
    "name_ru": "Эвен Сапир",
    "name_ar": "ايفين سفير",
    "zone": "ירושלים",
    "zone_en": "Jerusalem",
    "zone_ru": "Иерусалим",
    "zone_ar": "أورشليمالقدس",
    "time": "דקה וחצי",
    "time_en": "A minute and a half",
    "time_ru": "Полторы минуты",
    "time_ar": "دقيقة ونصف",
    "countdown": 90,
    "lat": 31.76285,
    "lng": 35.134,
    "value": "אבן ספיר"
  },
  {
    "id": 278,
    "name": "אבן שמואל",
    "name_en": "Even Shmuel",
    "name_ru": "Эвен Шмуэль",
    "name_ar": "ايفين شموئيل",
    "zone": "לכיש",
    "zone_en": "Lachish",
    "zone_ru": "Лахиш",
    "zone_ar": "لخيش",
    "time": "30 שניות",
    "time_en": "30 seconds",
    "time_ru": "30 секунд",
    "time_ar": "۳۰ ثانية",
    "countdown": 30,
    "lat": 31.5749,
    "lng": 34.7657,
    "value": "אבן שמואל"
  },
  {
    "id": 1359,
    "name": "אבני איתן",
    "name_en": "Avnei Eitan",
    "name_ru": "Авней Эйтан",
    "name_ar": "أفني ايتان",
    "zone": "גולן דרום",
    "zone_en": "South Golan",
    "zone_ru": "Южный Голан",
    "zone_ar": "الجولان الجنوبي",
    "time": "מיידי",
    "time_en": "Immediately",
    "time_ru": "Немедленно",
    "time_ar": "في الحال",
    "countdown": 0,
    "lat": 32.8228,
    "lng": 35.76555,
    "value": "אבני איתן"
  },
  {
    "id": 911,
    "name": "אבני חפץ",
    "name_en": "Avnei Hefetz",
    "name_ru": "Авней Хефец",
    "name_ar": "أفني حيفتس",
    "zone": "שומרון",
    "zone_en": "Shomron",
    "zone_ru": "Самария",
    "zone_ar": "السامرة",
    "time": "דקה וחצי",
    "time_en": "A minute and a half",
    "time_ru": "Полторы минуты",
    "time_ar": "دقيقة ونصف",
    "countdown": 90,
    "lat": 32.28615,
    "lng": 35.07675,
    "value": "אבני חפץ"
  },
  {
    "id": 372,
    "name": "אבנת",
    "name_en": "Avnat",
    "name_ru": "Авнат",
    "name_ar": "ايفنات",
    "zone": "ים המלח",
    "zone_en": "Dead Sea",
    "zone_ru": "Мёртвое море",
    "zone_ar": "البحر الميت",
    "time": "דקה וחצי",
    "time_en": "A minute and a half",
    "time_ru": "Полторы минуты",
    "time_ar": "دقيقة ونصف",
    "countdown": 90,
    "lat": 31.679,
    "lng": 35.4363,
    "value": "אבנת"
  },
  {
    "id": 109,
    "name": "אבשלום",
    "name_en": "Avshalom",
    "name_ru": "Авшалом",
    "name_ar": "افيشالوم",
    "zone": "עוטף עזה",
    "zone_en": "Gaza Envelope",
    "zone_ru": "Округ Газа",
    "zone_ar": "غلاف غزة",
    "time": "15 שניות",
    "time_en": "15 seconds",
    "time_ru": "15 секунд",
    "time_ar": "۱٥ ثانية",
    "countdown": 15,
    "lat": 31.193,
    "lng": 34.3303,
    "value": "אבשלום"
  },
  {
    "id": 271,
    "name": "אדורה",
    "name_en": "Adora",
    "name_ru": "Адора",
    "name_ar": "ادورا",
    "zone": "יהודה",
    "zone_en": "Yehuda",
    "zone_ru": "Йегуда",
    "zone_ar": "يهودا",
    "time": "דקה וחצי",
    "time_en": "A minute and a half",
    "time_ru": "Полторы минуты",
    "time_ar": "دقيقة ونصف",
    "countdown": 90,
    "lat": 31.55225,
    "lng": 35.01725,
    "value": "אדורה"
  },
  {
    "id": 1883,
    "name": "אדוריים",
    "name_en": "Adorayim",
    "name_ru": "Адораим",
    "name_ar": "أدورايم",
    "zone": "יהודה",
    "zone_en": "Yehuda",
    "zone_ru": "Йегуда",
    "zone_ar": "يهودا",
    "time": "דקה וחצי",
    "time_en": "A minute and a half",
    "time_ru": "Полторы минуты",
    "time_ar": "دقيقة ونصف",
    "countdown": 90,
    "lat": 31.48275,
    "lng": 35.0433,
    "value": "אדוריים"
  },
  {
    "id": 1592,
    "name": "אדמית",
    "name_en": "Idmit",
    "name_ru": "Идмит",
    "name_ar": "أدميت",
    "zone": "קו העימות",
    "zone_en": "Confrontation Line",
    "zone_ru": "Кав Ха-Имут",
    "zone_ar": "خط المواجهة",
    "time": "מיידי",
    "time_en": "Immediately",
    "time_ru": "Немедленно",
    "time_ar": "في الحال",
    "countdown": 0,
    "lat": 33.0794,
    "lng": 35.20995,
    "value": "אדמית"
  },
  {
    "id": 339,
    "name": "אדרת",
    "name_en": "Aderet",
    "name_ru": "Адерет",
    "name_ar": "ادرت",
    "zone": "שפלת יהודה",
    "zone_en": "Shfelat Yehuda",
    "zone_ru": "Шфелат Йегуда",
    "zone_ar": "شيفلات يهودا",
    "time": "דקה וחצי",
    "time_en": "A minute and a half",
    "time_ru": "Полторы минуты",
    "time_ar": "دقيقة ونصف",
    "countdown": 90,
    "lat": 31.66025,
    "lng": 34.99395,
    "value": "אדרת"
  },
  {
    "id": 889,
    "name": "אודים",
    "name_en": "Udim",
    "name_ru": "Удим",
    "name_ar": "اوديم",
    "zone": "שרון",
    "zone_en": "Sharon",
    "zone_ru": "Шарон",
    "zone_ar": "شارون",
    "time": "דקה וחצי",
    "time_en": "A minute and a half",
    "time_ru": "Полторы минуты",
    "time_ar": "دقيقة ونصف",
    "countdown": 90,
    "lat": 32.26465,
    "lng": 34.85125,
    "value": "אודים"
  },
  {
    "id": 1639,
    "name": "אודם",
    "name_en": "Odem",
    "name_ru": "Одем",
    "name_ar": "اودم",
    "zone": "גולן צפון",
    "zone_en": "North Golan",
    "zone_ru": "Северный Голан",
    "zone_ar": "الجولان الشمالي",
    "time": "מיידי",
    "time_en": "Immediately",
    "time_ru": "Немедленно",
    "time_ar": "في الحال",
    "countdown": 0,
    "lat": 33.1961,
    "lng": 35.75075,
    "value": "אודם"
  },
  {
    "id": 1047,
    "name": "אום אל פחם",
    "name_en": "Umm Al-Fahm",
    "name_ru": "Ум аль Фахм",
    "name_ar": "ام الفحم",
    "zone": "ואדי ערה",
    "zone_en": "Wadi Ara",
    "zone_ru": "Вади Ара",
    "zone_ar": "وادي عارة",
    "time": "דקה וחצי",
    "time_en": "A minute and a half",
    "time_ru": "Полторы минуты",
    "time_ar": "دقيقة ونصف",
    "countdown": 90,
    "lat": 32.5207,
    "lng": 35.1498,
    "value": "אום אל פחם"
  },
  {
    "id": 1015,
    "name": "אום אל קוטוף",
    "name_en": "Umm Al-Qutuf",
    "name_ru": "Ум аль Кутуф",
    "name_ar": "ام القطف",
    "zone": "ואדי ערה",
    "zone_en": "Wadi Ara",
    "zone_ru": "Вади Ара",
    "zone_ar": "وادي عارة",
    "time": "דקה וחצי",
    "time_en": "A minute and a half",
    "time_ru": "Полторы минуты",
    "time_ar": "دقيقة ونصف",
    "countdown": 90,
    "lat": 32.469,
    "lng": 35.05665,
    "value": "אום אל קוטוף"
  },
  {
    "id": 1187,
    "name": "אום אלג'נם",
    "name_en": "Umm Al-Ghanam",
    "name_ru": "Ум аль Ганам",
    "name_ar": "ام الغنم",
    "zone": "העמקים",
    "zone_en": "HaAmakim",
    "zone_ru": "Ха-Амаким",
    "zone_ar": "هعماكيم",
    "time": "דקה",
    "time_en": "A minute",
    "time_ru": "Минута",
    "time_ar": "دقيقة",
    "countdown": 60,
    "lat": 32.68675,
    "lng": 35.3896,
    "value": "אום אלג'נם"
  },
  {
    "id": 144,
    "name": "אום בטין",
    "name_en": "Umm Batin",
    "name_ru": "Ум Батин",
    "name_ar": "أم بطين",
    "zone": "מרכז הנגב",
    "zone_en": "Center Negev",
    "zone_ru": "Центральный Негев",
    "zone_ar": "مركز النقب",
    "time": "דקה וחצי",
    "time_en": "A minute and a half",
    "time_ru": "Полторы минуты",
    "time_ar": "دقيقة ونصف",
    "countdown": 90,
    "lat": 31.26935,
    "lng": 34.8781,
    "value": "אום בטין"
  },
  {
    "id": 155,
    "name": "אופקים",
    "name_en": "Ofakim",
    "name_ru": "Офаким",
    "name_ar": "أوفكيم",
    "zone": "מערב הנגב",
    "zone_en": "West Negev",
    "zone_ru": "Западный Негев",
    "zone_ar": "النقب الغربي",
    "time": "45 שניות",
    "time_en": "45 seconds",
    "time_ru": "45 секунд",
    "time_ar": "٤٥ ثانية",
    "countdown": 45,
    "lat": 31.3083,
    "lng": 34.62615,
    "value": "אופקים"
  },
  {
    "id": 1538,
    "name": "אור הגנוז",
    "name_en": "Or HaGanuz",
    "name_ru": "Ор ха-Гануз",
    "name_ar": "أور هغنوز",
    "zone": "גליל עליון",
    "zone_en": "Upper Galilee",
    "zone_ru": "Верхняя Галилея",
    "zone_ar": "الجليل الأعلى",
    "time": "30 שניות",
    "time_en": "30 seconds",
    "time_ru": "30 секунд",
    "time_ar": "۳۰ ثانية",
    "countdown": 30,
    "lat": 33.00485,
    "lng": 35.446,
    "value": "אור הגנוז"
  },
  {
    "id": 266,
    "name": "אור הנר",
    "name_en": "Or HaNer",
    "name_ru": "Ор ха-Нер",
    "name_ar": "أور هنير",
    "zone": "עוטף עזה",
    "zone_en": "Gaza Envelope",
    "zone_ru": "Округ Газа",
    "zone_ar": "غلاف غزة",
    "time": "15 שניות",
    "time_en": "15 seconds",
    "time_ru": "15 секунд",
    "time_ar": "۱٥ ثانية",
    "countdown": 15,
    "lat": 31.55775,
    "lng": 34.6005,
    "value": "אור הנר"
  },
  {
    "id": 716,
    "name": "אור יהודה",
    "name_en": "Or Yehuda",
    "name_ru": "Ор Иеуда",
    "name_ar": "أور يهودا",
    "zone": "דן",
    "zone_en": "Dan",
    "zone_ru": "Дан",
    "zone_ar": "دان",
    "time": "דקה וחצי",
    "time_en": "A minute and a half",
    "time_ru": "Полторы минуты",
    "time_ar": "دقيقة ونصف",
    "countdown": 90,
    "lat": 32.0285,
    "lng": 34.85085,
    "value": "אור יהודה"
  },
  {
    "id": 1044,
    "name": "אור עקיבא",
    "name_en": "Or Akiva",
    "name_ru": "Ор Акива",
    "name_ar": "أور عكيفا",
    "zone": "מנשה",
    "zone_en": "Menashe",
    "zone_ru": "Менаше",
    "zone_ar": "مناشيه",
    "time": "דקה וחצי",
    "time_en": "A minute and a half",
    "time_ru": "Полторы минуты",
    "time_ar": "دقيقة ونصف",
    "countdown": 90,
    "lat": 32.50225,
    "lng": 34.92045,
    "value": "אור עקיבא"
  },
  {
    "id": 429,
    "name": "אורה",
    "name_en": "Ora",
    "name_ru": "Ора",
    "name_ar": "أورة",
    "zone": "ירושלים",
    "zone_en": "Jerusalem",
    "zone_ru": "Иерусалим",
    "zone_ar": "أورشليمالقدس",
    "time": "דקה וחצי",
    "time_en": "A minute and a half",
    "time_ru": "Полторы минуты",
    "time_ar": "دقيقة ونصف",
    "countdown": 90,
    "lat": 31.7531,
    "lng": 35.15315,
    "value": "אורה"
  },
  {
    "id": 1769,
    "name": "אורון תעשייה ומסחר",
    "name_en": "Oron Industrial Zone",
    "name_ru": "Орон Промышленность и торговля",
    "name_ar": "أورون صناعة وتجارة",
    "zone": "דרום הנגב",
    "zone_en": "South Negev",
    "zone_ru": "Южный Негев",
    "zone_ar": "جنوب النقب",
    "time": "דקה וחצי",
    "time_en": "A minute and a half",
    "time_ru": "Полторы минуты",
    "time_ar": "دقيقة ونصف",
    "countdown": 90,
    "lat": 30.9115,
    "lng": 35.01535,
    "value": "אורון תעשייה ומסחר"
  },
  {
    "id": 407,
    "name": "אורות",
    "name_en": "Orot",
    "name_ru": "Орот",
    "name_ar": "أوروت",
    "zone": "לכיש",
    "zone_en": "Lachish",
    "zone_ru": "Лахиш",
    "zone_ar": "لخيش",
    "time": "45 שניות",
    "time_en": "45 seconds",
    "time_ru": "45 секунд",
    "time_ar": "٤٥ ثانية",
    "countdown": 45,
    "lat": 31.74245,
    "lng": 34.7344,
    "value": "אורות"
  },
  {
    "id": 1606,
    "name": "אורטל",
    "name_en": "Ortal",
    "name_ru": "Орталь",
    "name_ar": "أورطال",
    "zone": "גולן צפון",
    "zone_en": "North Golan",
    "zone_ru": "Северный Голан",
    "zone_ar": "الجولان الشمالي",
    "time": "מיידי",
    "time_en": "Immediately",
    "time_ru": "Немедленно",
    "time_ar": "في الحال",
    "countdown": 0,
    "lat": 33.08405,
    "lng": 35.76155,
    "value": "אורטל"
  },
  {
    "id": 158,
    "name": "אורים",
    "name_en": "Urim",
    "name_ru": "Урим",
    "name_ar": "أوريم",
    "zone": "מערב הנגב",
    "zone_en": "West Negev",
    "zone_ru": "Западный Негев",
    "zone_ar": "النقب الغربي",
    "time": "30 שניות",
    "time_en": "30 seconds",
    "time_ru": "30 секунд",
    "time_ar": "۳۰ ثانية",
    "countdown": 30,
    "lat": 31.3041,
    "lng": 34.52345,
    "value": "אורים"
  },
  {
    "id": 1216,
    "name": "אורנים",
    "name_en": "Oranim",
    "name_ru": "Ораним",
    "name_ar": "أورنيم",
    "zone": "העמקים",
    "zone_en": "HaAmakim",
    "zone_ru": "Ха-Амаким",
    "zone_ar": "هعماكيم",
    "time": "דקה",
    "time_en": "A minute",
    "time_ru": "Минута",
    "time_ar": "دقيقة",
    "countdown": 60,
    "lat": 32.71265,
    "lng": 35.1081,
    "value": "אורנים"
  },
  {
    "id": 804,
    "name": "אורנית",
    "name_en": "Oranit",
    "name_ru": "Оранит",
    "name_ar": "أورنيت",
    "zone": "שרון",
    "zone_en": "Sharon",
    "zone_ru": "Шарон",
    "zone_ar": "شارون",
    "time": "דקה וחצי",
    "time_en": "A minute and a half",
    "time_ru": "Полторы минуты",
    "time_ar": "دقيقة ونصف",
    "countdown": 90,
    "lat": 32.12965,
    "lng": 34.99645,
    "value": "אורנית"
  },
  {
    "id": 1319,
    "name": "אושה",
    "name_en": "Usha",
    "name_ru": "Уша",
    "name_ar": "أوشة",
    "zone": "המפרץ",
    "zone_en": "HaMifratz",
    "zone_ru": "Ха-Мифрац",
    "zone_ar": "همفراتس",
    "time": "דקה",
    "time_en": "A minute",
    "time_ru": "Минута",
    "time_ar": "دقيقة",
    "countdown": 60,
    "lat": 32.79625,
    "lng": 35.1139,
    "value": "אושה"
  },
  {
    "id": 709,
    "name": "אזור",
    "name_en": "Azor",
    "name_ru": "Азор",
    "name_ar": "آزور",
    "zone": "דן",
    "zone_en": "Dan",
    "zone_ru": "Дан",
    "zone_ar": "دان",
    "time": "דקה וחצי",
    "time_en": "A minute and a half",
    "time_ru": "Полторы минуты",
    "time_ar": "دقيقة ونصف",
    "countdown": 90,
    "lat": 32.02295,
    "lng": 34.80425,
    "value": "אזור"
  },
  {
    "id": 1141,
    "name": "אזור תעשייה אלון התבור",
    "name_en": "Industrial Area Alon Hatovor",
    "name_ru": "Промышленная зона Алон Ха-Тавор",
    "name_ar": "المنطقة الصناعية ألون هتافور",
    "zone": "העמקים",
    "zone_en": "HaAmakim",
    "zone_ru": "Ха-Амаким",
    "zone_ar": "هعماكيم",
    "time": "דקה",
    "time_en": "A minute",
    "time_ru": "Минута",
    "time_ar": "دقيقة",
    "countdown": 60,
    "lat": 32.6345,
    "lng": 35.361,
    "value": "אזור תעשייה אלון התבור"
  },
  {
    "id": 792,
    "name": "אזור תעשייה אפק ולב הארץ",
    "name_en": "Afek And Lev Ha\"aretz Industrial Zone",
    "name_ru": "Промзона Афек и Лев ха-Арец",
    "name_ar": "المنطقة الصناعية أفيك وليف",
    "zone": "ירקון",
    "zone_en": "Yarkon",
    "zone_ru": "Яркон",
    "zone_ar": "اليركون",
    "time": "דקה וחצי",
    "time_en": "A minute and a half",
    "time_ru": "Полторы минуты",
    "time_ar": "دقيقة ونصف",
    "countdown": 90,
    "lat": 32.1084,
    "lng": 34.9613,
    "value": "אזור תעשייה אפק ולב הארץ"
  },
  {
    "id": 1942,
    "name": "אזור תעשייה אריאל",
    "name_en": "Ariel Industrial Park",
    "name_ru": "Промзона Ариэль",
    "name_ar": "المنطقة الصناعية اريئيل",
    "zone": "שומרון",
    "zone_en": "Shomron",
    "zone_ru": "Самария",
    "zone_ar": "السامرة",
    "time": "דקה וחצי",
    "time_en": "A minute and a half",
    "time_ru": "Полторы минуты",
    "time_ar": "دقيقة ونصف",
    "countdown": 90,
    "lat": 31.046051,
    "lng": 34.851612,
    "value": "אזור תעשייה אריאל"
  },
  {
    "id": 384,
    "name": "אזור תעשייה באר טוביה",
    "name_en": "Industrial Area Be'er Tovia",
    "name_ru": "Промышленная зона Беэр Тувия",
    "name_ar": "المنطقة الصناعية بئر توفيا",
    "zone": "לכיש",
    "zone_en": "Lachish",
    "zone_ru": "Лахиш",
    "zone_ar": "لخيش",
    "time": "45 שניות",
    "time_en": "45 seconds",
    "time_ru": "45 секунд",
    "time_ar": "٤٥ ثانية",
    "countdown": 45,
    "lat": 31.72495,
    "lng": 34.7503,
    "value": "אזור תעשייה באר טוביה"
  },
  {
    "id": 1343,
    "name": "אזור תעשייה בני יהודה",
    "name_en": "Bnei Yehuda Industrial Zone",
    "name_ru": "Промзона Бней Йехуда",
    "name_ar": "المنطقة الصناعية بني يهودا",
    "zone": "גולן דרום",
    "zone_en": "South Golan",
    "zone_ru": "Южный Голан",
    "zone_ar": "الجولان الجنوبي",
    "time": "מיידי",
    "time_en": "Immediately",
    "time_ru": "Немедленно",
    "time_ar": "في الحال",
    "countdown": 0,
    "lat": 32.8022,
    "lng": 35.71685,
    "value": "אזור תעשייה בני יהודה"
  },
  {
    "id": 1415,
    "name": "אזור תעשייה בר-לב",
    "name_en": "Bar Lev Industrial Zone",
    "name_ru": "Промзона Бар-Лев",
    "name_ar": "المنطقة الصناعية بار- ليف",
    "zone": "גליל עליון",
    "zone_en": "Upper Galilee",
    "zone_ru": "Верхняя Галилея",
    "zone_ar": "الجليل الأعلى",
    "time": "דקה",
    "time_en": "A minute",
    "time_ru": "Минута",
    "time_ar": "دقيقة",
    "countdown": 60,
    "lat": 32.90635,
    "lng": 35.19265,
    "value": "אזור תעשייה בר-לב"
  },
  {
    "id": 883,
    "name": "אזור תעשייה בראון",
    "name_en": "Bar On Industrial Zone",
    "name_ru": "Промзона Бар Он",
    "name_ar": "المنطقة الصناعية برأون",
    "zone": "שומרון",
    "zone_en": "Shomron",
    "zone_ru": "Самария",
    "zone_ar": "السامرة",
    "time": "דקה וחצי",
    "time_en": "A minute and a half",
    "time_ru": "Полторы минуты",
    "time_ar": "دقيقة ونصف",
    "countdown": 90,
    "lat": 32.24515,
    "lng": 35.1693,
    "value": "אזור תעשייה בראון"
  },
  {
    "id": 399,
    "name": "אזור תעשייה ברוש",
    "name_en": "Brosh Industrial Zone",
    "name_ru": "Промзона Брош",
    "name_ar": "المنطقة الصناعية بروش",
    "zone": "שפלת יהודה",
    "zone_en": "Shfelat Yehuda",
    "zone_ru": "Шфелат Йегуда",
    "zone_ar": "شيفلات يهودا",
    "time": "דקה וחצי",
    "time_en": "A minute and a half",
    "time_ru": "Полторы минуты",
    "time_ar": "دقيقة ونصف",
    "countdown": 90,
    "lat": 31.7335,
    "lng": 34.95575,
    "value": "אזור תעשייה ברוש"
  },
  {
    "id": 1933,
    "name": "אזור תעשייה ברקן",
    "name_en": "Barkan Industrial Park",
    "name_ru": "Промзона Баркан",
    "name_ar": "المنطقة الصناعية بركان",
    "zone": "שומרון",
    "zone_en": "Shomron",
    "zone_ru": "Самария",
    "zone_ar": "السامرة",
    "time": "דקה וחצי",
    "time_en": "A minute and a half",
    "time_ru": "Полторы минуты",
    "time_ar": "دقيقة ونصف",
    "countdown": 90,
    "lat": 32.1110562,
    "lng": 35.1172883,
    "value": "אזור תעשייה ברקן"
  },
  {
    "id": 2195,
    "name": "אזור תעשייה גדרה",
    "name_en": "Gedera Industrial Area",
    "name_ru": "Индустриальная Зона, Гедера",
    "name_ar": "المنطقة الصناعية جديرا",
    "zone": "לכיש",
    "zone_en": "Lachish",
    "zone_ru": "Лахиш",
    "zone_ar": "لخيش",
    "time": "דקה",
    "time_en": "A minute",
    "time_ru": "Минута",
    "time_ar": "دقيقة",
    "countdown": 60,
    "lat": 31.8120082,
    "lng": 34.7774347,
    "value": "אזור תעשייה גדרה"
  },
  {
    "id": 87,
    "name": "אזור תעשייה דימונה",
    "name_en": "Dimona Industrial Zone",
    "name_ru": "Промзона Димона",
    "name_ar": "المنطقة الصناعية ديمونا",
    "zone": "דרום הנגב",
    "zone_en": "South Negev",
    "zone_ru": "Южный Негев",
    "zone_ar": "جنوب النقب",
    "time": "דקה וחצי",
    "time_en": "A minute and a half",
    "time_ru": "Полторы минуты",
    "time_ar": "دقيقة ونصف",
    "countdown": 90,
    "lat": 31.0628,
    "lng": 35.013,
    "value": "אזור תעשייה דימונה"
  },
  {
    "id": 305,
    "name": "אזור תעשייה הדרומי אשקלון",
    "name_en": "Ashkelon Southern Industrial Zone",
    "name_ru": "Южная промзона Ашкелона",
    "name_ar": "المنطقة الصناعية الجنوبية",
    "zone": "מערב לכיש",
    "zone_en": "West Lachish",
    "zone_ru": "Западный Лахиш",
    "zone_ar": "غرب لخيش",
    "time": "30 שניות",
    "time_en": "30 seconds",
    "time_ru": "30 секунд",
    "time_ar": "۳۰ ثانية",
    "countdown": 30,
    "lat": 31.6332,
    "lng": 34.5415,
    "value": "אזור תעשייה הדרומי אשקלון"
  },
  {
    "id": 441,
    "name": "אזור תעשייה הר טוב - צרעה",
    "name_en": "Har Tuv - Tzora Industrial Zone",
    "name_ru": "Промзона Хар Тув - Цроа",
    "name_ar": "المنطقة الصناعية - تسارعا",
    "zone": "שפלת יהודה",
    "zone_en": "Shfelat Yehuda",
    "zone_ru": "Шфелат Йегуда",
    "zone_ar": "شيفلات يهودا",
    "time": "דקה וחצי",
    "time_en": "A minute and a half",
    "time_ru": "Полторы минуты",
    "time_ar": "دقيقة ونصف",
    "countdown": 90,
    "lat": 31.7673,
    "lng": 34.98985,
    "value": "אזור תעשייה הר טוב - צרעה"
  },
  {
    "id": 704,
    "name": "אזור תעשייה חבל מודיעין",
    "name_en": "Industrial Area Hevel Modi'in",
    "name_ru": "Промышленная зона Хевель Модиин",
    "name_ar": "منطقة الصناعية موديعين",
    "zone": "ירקון",
    "zone_en": "Yarkon",
    "zone_ru": "Яркон",
    "zone_ar": "اليركون",
    "time": "דקה וחצי",
    "time_en": "A minute and a half",
    "time_ru": "Полторы минуты",
    "time_ar": "دقيقة ونصف",
    "countdown": 90,
    "lat": 32.01315,
    "lng": 34.95995,
    "value": "אזור תעשייה חבל מודיעין"
  },
  {
    "id": 1507,
    "name": "אזור תעשייה חצור הגלילית",
    "name_en": "Hatzor HaGlilit Industrial Zone",
    "name_ru": "Промзона Хацор ха-Глилит",
    "name_ar": "المنطقة الصناعية حتسور هجل",
    "zone": "גליל עליון",
    "zone_en": "Upper Galilee",
    "zone_ru": "Верхняя Галилея",
    "zone_ar": "الجليل الأعلى",
    "time": "30 שניות",
    "time_en": "30 seconds",
    "time_ru": "30 секунд",
    "time_ar": "۳۰ ثانية",
    "countdown": 30,
    "lat": 32.98545,
    "lng": 35.55415,
    "value": "אזור תעשייה חצור הגלילית"
  },
  {
    "id": 1758,
    "name": "אזור תעשייה טירה",
    "name_en": "Tira Industrial Area",
    "name_ru": "Промзона Тира",
    "name_ar": "المنطقة الصناعية طيره.",
    "zone": "שרון",
    "zone_en": "Sharon",
    "zone_ru": "Шарон",
    "zone_ar": "شارون",
    "time": "דקה וחצי",
    "time_en": "A minute and a half",
    "time_ru": "Полторы минуты",
    "time_ar": "دقيقة ونصف",
    "countdown": 90,
    "lat": 32.2267,
    "lng": 34.97925,
    "value": "אזור תעשייה טירה"
  },
  {
    "id": 1959,
    "name": "אזור תעשייה טמרה",
    "name_en": "Tamra Industiral Park",
    "name_ru": "Промзона Тамра",
    "name_ar": "المنطقة الصناعية طمرة",
    "zone": "מרכז הגליל",
    "zone_en": "Center Galilee",
    "zone_ru": "Центральная Галилея",
    "zone_ar": "مركز الجليل",
    "time": "דקה",
    "time_en": "A minute",
    "time_ru": "Минута",
    "time_ar": "دقيقة",
    "countdown": 60,
    "lat": 32.8502401,
    "lng": 35.1789866,
    "value": "אזור תעשייה טמרה"
  },
  {
    "id": 1150,
    "name": "אזור תעשייה יקנעם עילית",
    "name_en": "Yokneam Illit Industrial Zone",
    "name_ru": "Промзона Йокнеам Илит",
    "name_ar": "المنطقة الصناعية يوكنعام ع",
    "zone": "ואדי ערה",
    "zone_en": "Wadi Ara",
    "zone_ru": "Вади Ара",
    "zone_ar": "وادي عارة",
    "time": "דקה וחצי",
    "time_en": "A minute and a half",
    "time_ru": "Полторы минуты",
    "time_ar": "دقيقة ونصف",
    "countdown": 90,
    "lat": 32.66385,
    "lng": 35.1011,
    "value": "אזור תעשייה יקנעם עילית"
  },
  {
    "id": 483,
    "name": "אזור תעשייה כנות",
    "name_en": "Kannot Industrial Zone",
    "name_ru": "Промзона Каннот",
    "name_ar": "المنطقة الصناعية كنوت",
    "zone": "לכיש",
    "zone_en": "Lachish",
    "zone_ru": "Лахиш",
    "zone_ar": "لخيش",
    "time": "דקה",
    "time_en": "A minute",
    "time_ru": "Минута",
    "time_ar": "دقيقة",
    "countdown": 60,
    "lat": 31.80145,
    "lng": 34.7586,
    "value": "אזור תעשייה כנות"
  },
  {
    "id": 2026,
    "name": "אזור תעשייה כפר יונה",
    "name_en": "Kfar Yona Industrial Zone",
    "name_ru": "Промзона Кфар Йона",
    "name_ar": "المنطقة الصناعية كفر يونه",
    "zone": "שרון",
    "zone_en": "Sharon",
    "zone_ru": "Шарон",
    "zone_ar": "شارون",
    "time": "דקה וחצי",
    "time_en": "A minute and a half",
    "time_ru": "Полторы минуты",
    "time_ar": "دقيقة ونصف",
    "countdown": 90,
    "lat": 32.3176357,
    "lng": 34.9330201,
    "value": "אזור תעשייה כפר יונה"
  },
  {
    "id": 1435,
    "name": "אזור תעשייה כרמיאל",
    "name_en": "Carmiel Industrial Zone",
    "name_ru": "Промзона Кармиэль",
    "name_ar": "المنطقة الصناعية كرميئيل",
    "zone": "גליל עליון",
    "zone_en": "Upper Galilee",
    "zone_ru": "Верхняя Галилея",
    "zone_ar": "الجليل الأعلى",
    "time": "30 שניות",
    "time_en": "30 seconds",
    "time_ru": "30 секунд",
    "time_ar": "۳۰ ثانية",
    "countdown": 30,
    "lat": 32.92345,
    "lng": 35.32545,
    "value": "אזור תעשייה כרמיאל"
  },
  {
    "id": 1125,
    "name": "אזור תעשייה מבוא כרמל",
    "name_en": "Mevo Carmel Industrial Zone",
    "name_ru": "Промзона Мево Кармель",
    "name_ar": "المنطقة الصناعية مافو الكر",
    "zone": "ואדי ערה",
    "zone_en": "Wadi Ara",
    "zone_ru": "Вади Ара",
    "zone_ar": "وادي عارة",
    "time": "דקה וחצי",
    "time_en": "A minute and a half",
    "time_ru": "Полторы минуты",
    "time_ar": "دقيقة ونصف",
    "countdown": 90,
    "lat": 32.6165,
    "lng": 35.07265,
    "value": "אזור תעשייה מבוא כרמל"
  },
  {
    "id": 1096,
    "name": "אזור תעשייה מבואות הגלבוע",
    "name_en": "Mevuot HaGilboa Industrial Zone",
    "name_ru": "Промзона Мевуот ха-Гильбоа",
    "name_ar": "المنطقة الصناعية مبؤوت هجل",
    "zone": "העמקים",
    "zone_en": "HaAmakim",
    "zone_ru": "Ха-Амаким",
    "zone_ar": "هعماكيم",
    "time": "דקה",
    "time_en": "A minute",
    "time_ru": "Минута",
    "time_ar": "دقيقة",
    "countdown": 60,
    "lat": 32.56805,
    "lng": 35.2669,
    "value": "אזור תעשייה מבואות הגלבוע"
  },
  {
    "id": 1562,
    "name": "אזור תעשייה מילואות צפון",
    "name_en": "Achziv Miluot Industrial Zone",
    "name_ru": "Промзона Ахзив Милуот",
    "name_ar": "المنطقة الصناعية أخزيف ميل",
    "zone": "קו העימות",
    "zone_en": "Confrontation Line",
    "zone_ru": "Кав Ха-Имут",
    "zone_ar": "خط المواجهة",
    "time": "מיידי",
    "time_en": "Immediately",
    "time_ru": "Немедленно",
    "time_ar": "في الحال",
    "countdown": 0,
    "lat": 33.05905,
    "lng": 35.10585,
    "value": "אזור תעשייה מילואות צפון"
  },
  {
    "id": 478,
    "name": "אזור תעשייה מישור אדומים",
    "name_en": "Industrial Area Mishor Edomim",
    "name_ru": "Промышленная зона Мишор Адумим",
    "name_ar": "المنطقة الصناعية ميشور ادوميم",
    "zone": "יהודה",
    "zone_en": "Yehuda",
    "zone_ru": "Йегуда",
    "zone_ar": "يهودا",
    "time": "דקה וחצי",
    "time_en": "A minute and a half",
    "time_ru": "Полторы минуты",
    "time_ar": "دقيقة ونصف",
    "countdown": 90,
    "lat": 31.79255,
    "lng": 35.3368,
    "value": "אזור תעשייה מישור אדומים"
  },
  {
    "id": 199,
    "name": "אזור תעשייה מיתרים",
    "name_en": "Meitarim Industrial Zone",
    "name_ru": "Промзона Мейтарим",
    "name_ar": "المنطقة الصناعية ميتاريم",
    "zone": "יהודה",
    "zone_en": "Yehuda",
    "zone_ru": "Йегуда",
    "zone_ar": "يهودا",
    "time": "דקה וחצי",
    "time_en": "A minute and a half",
    "time_ru": "Полторы минуты",
    "time_ar": "دقيقة ونصف",
    "countdown": 90,
    "lat": 31.3721,
    "lng": 35.00575,
    "value": "אזור תעשייה מיתרים"
  },
  {
    "id": 207,
    "name": "אזור תעשייה נ.ע.מ",
    "name_en": "NAM Industrial Zone",
    "name_ru": "Промышленная зона НАМ",
    "name_ar": "المنطقة الصناعية ن.ع.م",
    "zone": "מערב הנגב",
    "zone_en": "West Negev",
    "zone_ru": "Западный Негев",
    "zone_ar": "النقب الغربي",
    "time": "30 שניות",
    "time_en": "30 seconds",
    "time_ru": "30 секунд",
    "time_ar": "۳۰ ثانية",
    "countdown": 30,
    "lat": 31.41385,
    "lng": 34.61515,
    "value": "אזור תעשייה נ.ע.מ"
  },
  {
    "id": 1730,
    "name": "אזור תעשייה ניר עציון",
    "name_en": "Nir Etzion Industrial Area",
    "name_ru": "Промзона Нир Эцион",
    "name_ar": "مجلس اقلمي نير عتسيون",
    "zone": "הכרמל",
    "zone_en": "HaCarmel",
    "zone_ru": "Ха-Кармель",
    "zone_ar": "الكرمل",
    "time": "דקה",
    "time_en": "A minute",
    "time_ru": "Минута",
    "time_ar": "دقيقة",
    "countdown": 60,
    "lat": 32.7022,
    "lng": 34.97165,
    "value": "אזור תעשייה ניר עציון"
  },
  {
    "id": 1799,
    "name": "אזור תעשייה נשר - רמלה",
    "name_en": "Nesher Industrial Zone (Ramla)",
    "name_ru": "Промзона Нешер (Рамла)",
    "name_ar": "المنطقة الصناعية نيشر (الرم",
    "zone": "השפלה",
    "zone_en": "HaShfela",
    "zone_ru": "Ха-Шфела",
    "zone_ar": "هشفيلاه",
    "time": "דקה וחצי",
    "time_en": "A minute and a half",
    "time_ru": "Полторы минуты",
    "time_ar": "دقيقة ونصف",
    "countdown": 90,
    "lat": 31.9219,
    "lng": 34.8952,
    "value": "אזור תעשייה נשר - רמלה"
  },
  {
    "id": 425,
    "name": "אזור תעשייה עד הלום",
    "name_en": "Ad Halom Industrial Zone",
    "name_ru": "Промзона Ад Халом",
    "name_ar": "المنطقة الصناعية عاد هلوم",
    "zone": "לכיש",
    "zone_en": "Lachish",
    "zone_ru": "Лахиш",
    "zone_ar": "لخيش",
    "time": "45 שניות",
    "time_en": "45 seconds",
    "time_ru": "45 секунд",
    "time_ar": "٤٥ ثانية",
    "countdown": 45,
    "lat": 31.7627,
    "lng": 34.661,
    "value": "אזור תעשייה עד הלום"
  },
  {
    "id": 196,
    "name": "אזור תעשייה עידן הנגב",
    "name_en": "Idan HaNegev Industrial Zone",
    "name_ru": "Промзона Идан ха-Негев",
    "name_ar": "المنطقة الصناعية عيدان الن",
    "zone": "מרכז הנגב",
    "zone_en": "Center Negev",
    "zone_ru": "Центральный Негев",
    "zone_ar": "مركز النقب",
    "time": "45 שניות",
    "time_en": "45 seconds",
    "time_ru": "45 секунд",
    "time_ar": "٤٥ ثانية",
    "countdown": 45,
    "lat": 31.3774,
    "lng": 34.787,
    "value": "אזור תעשייה עידן הנגב"
  },
  {
    "id": 972,
    "name": "אזור תעשייה עמק חפר",
    "name_en": "Emek Heffer Industrial Zone",
    "name_ru": "Промзона Эмек Хефер",
    "name_ar": "المنطقة الصناعية عيمك حيفر",
    "zone": "שרון",
    "zone_en": "Sharon",
    "zone_ru": "Шарон",
    "zone_ar": "شارون",
    "time": "דקה וחצי",
    "time_en": "A minute and a half",
    "time_ru": "Полторы минуты",
    "time_ar": "دقيقة ونصف",
    "countdown": 90,
    "lat": 32.40125,
    "lng": 34.89605,
    "value": "אזור תעשייה עמק חפר"
  },
  {
    "id": 1496,
    "name": "אזור תעשייה צ.ח.ר",
    "name_en": "Tzahar Industrial Zone",
    "name_ru": "Промзона Цахар",
    "name_ar": "المنطقة الصناعية تساحار",
    "zone": "גליל עליון",
    "zone_en": "Upper Galilee",
    "zone_ru": "Верхняя Галилея",
    "zone_ar": "الجليل الأعلى",
    "time": "30 שניות",
    "time_en": "30 seconds",
    "time_ru": "30 секунд",
    "time_ar": "۳۰ ثانية",
    "countdown": 30,
    "lat": 32.9714,
    "lng": 35.5669,
    "value": "אזור תעשייה צ.ח.ר"
  },
  {
    "id": 1079,
    "name": "אזור תעשייה צבאים",
    "name_en": "Zvaim Industrial Zone",
    "name_ru": "Промзона Цваим",
    "name_ar": "المنطقة الصناعية تسفئيم",
    "zone": "בקעת בית שאן",
    "zone_en": "Beit She'an Valley",
    "zone_ru": "Бикъат Бейт Шеан",
    "zone_ar": "بيكعات بيت شان",
    "time": "דקה",
    "time_en": "A minute",
    "time_ru": "Минута",
    "time_ar": "دقيقة",
    "countdown": 60,
    "lat": 32.54255,
    "lng": 35.50525,
    "value": "אזור תעשייה צבאים"
  },
  {
    "id": 1278,
    "name": "אזור תעשייה ציפורית",
    "name_en": "Industrial Area Tziporit",
    "name_ru": "Промышленная зона Ципорит",
    "name_ar": "المنطقة الصناعية نصيبوريت",
    "zone": "העמקים",
    "zone_en": "HaAmakim",
    "zone_ru": "Ха-Амаким",
    "zone_ar": "هعماكيم",
    "time": "דקה",
    "time_en": "A minute",
    "time_ru": "Минута",
    "time_ar": "دقيقة",
    "countdown": 60,
    "lat": 32.7595,
    "lng": 35.31845,
    "value": "אזור תעשייה ציפורית"
  },
  {
    "id": 333,
    "name": "אזור תעשייה צפוני אשקלון",
    "name_en": "Ashkelon Northern Industrial Zone",
    "name_ru": "Северная промзона Ашкелона",
    "name_ar": "المنطقة الصناعية الشمالية",
    "zone": "מערב לכיש",
    "zone_en": "West Lachish",
    "zone_ru": "Западный Лахиш",
    "zone_ar": "غرب لخيش",
    "time": "30 שניות",
    "time_en": "30 seconds",
    "time_ru": "30 секунд",
    "time_ar": "۳۰ ثانية",
    "countdown": 30,
    "lat": 31.66905,
    "lng": 34.6017,
    "value": "אזור תעשייה צפוני אשקלון"
  },
  {
    "id": 1313,
    "name": "אזור תעשייה קדמת גליל",
    "name_en": "Kidmat Galil Industrial Zone",
    "name_ru": "Промзона Кидмат Галиль",
    "name_ar": "المنطقة الصناعية كيدمات جل",
    "zone": "גליל תחתון",
    "zone_en": "Lower Galilee",
    "zone_ru": "Нижняя Галилея",
    "zone_ar": "الجليل الأسفل",
    "time": "דקה",
    "time_en": "A minute",
    "time_ru": "Минута",
    "time_ar": "دقيقة",
    "countdown": 60,
    "lat": 32.78465,
    "lng": 35.46305,
    "value": "אזור תעשייה קדמת גליל"
  },
  {
    "id": 1020,
    "name": "אזור תעשייה קיסריה",
    "name_en": "Caesarea Industrial Zone",
    "name_ru": "Промзона Кейсария",
    "name_ar": "المنطقة الصناعية قيساريا",
    "zone": "מנשה",
    "zone_en": "Menashe",
    "zone_ru": "Менаше",
    "zone_ar": "مناشيه",
    "time": "דקה וחצי",
    "time_en": "A minute and a half",
    "time_ru": "Полторы минуты",
    "time_ar": "دقيقة ونصف",
    "countdown": 90,
    "lat": 32.48095,
    "lng": 34.94635,
    "value": "אזור תעשייה קיסריה"
  },
  {
    "id": 2023,
    "name": "אזור תעשייה קריית ביאליק",
    "name_en": "Kiryat Bialik Industrial Zone",
    "name_ru": "Промзона Кирьят Бялик",
    "name_ar": "المنطقة الصناعية كريات بياليك",
    "zone": "המפרץ",
    "zone_en": "HaMifratz",
    "zone_ru": "Ха-Мифрац",
    "zone_ar": "همفراتس",
    "time": "דקה",
    "time_en": "A minute",
    "time_ru": "Минута",
    "time_ar": "دقيقة",
    "countdown": 60,
    "lat": 32.8627111,
    "lng": 35.1000377,
    "value": "אזור תעשייה קריית ביאליק"
  },
  {
    "id": 284,
    "name": "אזור תעשייה קריית גת",
    "name_en": "Industrial Area Kiryat Gat",
    "name_ru": "Промышленная зона Кирьят Гат",
    "name_ar": "المنطقة الصناعية كريات جات",
    "zone": "לכיש",
    "zone_en": "Lachish",
    "zone_ru": "Лахиш",
    "zone_ar": "لخيش",
    "time": "45 שניות",
    "time_en": "45 seconds",
    "time_ru": "45 секунд",
    "time_ar": "٤٥ ثانية",
    "countdown": 45,
    "lat": 31.59615,
    "lng": 34.7856,
    "value": "אזור תעשייה קריית גת"
  },
  {
    "id": 2207,
    "name": "אזור תעשייה רבדים",
    "name_en": "Revadim Industrial Zone",
    "name_ru": "Промзона Ревадим",
    "name_ar": "لمنطقة الصناعية رفاديم",
    "zone": "לכיש",
    "zone_en": "Lachish",
    "zone_ru": "Лахиш",
    "zone_ar": "لخيش",
    "time": "דקה",
    "time_en": "A minute",
    "time_ru": "Минута",
    "time_ar": "دقيقة",
    "countdown": 60,
    "lat": 31.78698,
    "lng": 34.819462,
    "value": "אזור תעשייה רבדים"
  },
  {
    "id": 1058,
    "name": "אזור תעשייה רגבים",
    "name_en": "Regavim Industrial Zone",
    "name_ru": "Промзона Регавим",
    "name_ar": "المنطقة الصناعية رجافيم",
    "zone": "מנשה",
    "zone_en": "Menashe",
    "zone_ru": "Менаше",
    "zone_ar": "مناشيه",
    "time": "דקה וחצי",
    "time_en": "A minute and a half",
    "time_ru": "Полторы минуты",
    "time_ar": "دقيقة ونصف",
    "countdown": 90,
    "lat": 32.5217,
    "lng": 35.02225,
    "value": "אזור תעשייה רגבים"
  },
  {
    "id": 1968,
    "name": "אזור תעשייה רגמ",
    "name_en": "Ramla, Regional Council Gezer, Regional Council Hevel Modi'in Industrial Park",
    "name_ru": "Промзона \"Регем\" (Рамле-Гезер-Модиин)",
    "name_ar": "المنطقة الصناعية رجم",
    "zone": "השפלה",
    "zone_en": "HaShfela",
    "zone_ru": "Ха-Шфела",
    "zone_ar": "هشفيلاه",
    "time": "דקה וחצי",
    "time_en": "A minute and a half",
    "time_ru": "Полторы минуты",
    "time_ar": "دقيقة ونصف",
    "countdown": 90,
    "lat": 31.046051,
    "lng": 34.851612,
    "value": "אזור תעשייה רגמ"
  },
  {
    "id": 89,
    "name": "אזור תעשייה רותם",
    "name_en": "Rotem Industrial Zone",
    "name_ru": "Промзона Ротем",
    "name_ar": "المنطقة الصناعية روتم",
    "zone": "דרום הנגב",
    "zone_en": "South Negev",
    "zone_ru": "Южный Негев",
    "zone_ar": "جنوب النقب",
    "time": "דקה וחצי",
    "time_en": "A minute and a half",
    "time_ru": "Полторы минуты",
    "time_ar": "دقيقة ونصف",
    "countdown": 90,
    "lat": 31.06005,
    "lng": 35.1895,
    "value": "אזור תעשייה רותם"
  },
  {
    "id": 1550,
    "name": "אזור תעשייה רמת דלתון",
    "name_en": "Ramat Dalton Industrial Zone",
    "name_ru": "Промзона Рамат Дальтон",
    "name_ar": "المنطقة الصناعية رمات دلتو",
    "zone": "קו העימות",
    "zone_en": "Confrontation Line",
    "zone_ru": "Кав Ха-Имут",
    "zone_ar": "خط المواجهة",
    "time": "מיידי",
    "time_en": "Immediately",
    "time_ru": "Немедленно",
    "time_ar": "في الحال",
    "countdown": 0,
    "lat": 33.0264,
    "lng": 35.48015,
    "value": "אזור תעשייה רמת דלתון"
  },
  {
    "id": 10,
    "name": "אזור תעשייה שחורת",
    "name_en": "Shchoret Industrial Zone",
    "name_ru": "Промзона Шхорет",
    "name_ar": "المنطقة الصناعية شحوروت",
    "zone": "אילת",
    "zone_en": "Eilat",
    "zone_ru": "Эйлат",
    "zone_ar": "ايلات",
    "time": "30 שניות",
    "time_en": "30 seconds",
    "time_ru": "30 секунд",
    "time_ar": "۳۰ ثانية",
    "countdown": 30,
    "lat": 29.60095,
    "lng": 34.9766,
    "value": "אזור תעשייה שחורת"
  },
  {
    "id": 1939,
    "name": "אזור תעשייה שחק",
    "name_en": "Shahak Industrial Park",
    "name_ru": "Промзона Шахак",
    "name_ar": "المطقة الصناعية شاحاك",
    "zone": "שומרון",
    "zone_en": "Shomron",
    "zone_ru": "Самария",
    "zone_ar": "السامرة",
    "time": "דקה וחצי",
    "time_en": "A minute and a half",
    "time_ru": "Полторы минуты",
    "time_ar": "دقيقة ونصف",
    "countdown": 90,
    "lat": 31.046051,
    "lng": 34.851612,
    "value": "אזור תעשייה שחק"
  },
  {
    "id": 584,
    "name": "אזור תעשייה שער בנימין",
    "name_en": "Sha'ar Binyamin Industrial Zone",
    "name_ru": "Промзона Шаар Биньямин",
    "name_ar": "المنطقة الصناعية شاعار بني",
    "zone": "שומרון",
    "zone_en": "Shomron",
    "zone_ru": "Самария",
    "zone_ar": "السامرة",
    "time": "דקה וחצי",
    "time_en": "A minute and a half",
    "time_ru": "Полторы минуты",
    "time_ar": "دقيقة ونصف",
    "countdown": 90,
    "lat": 31.8661,
    "lng": 35.2633,
    "value": "אזור תעשייה שער בנימין",
    "shelters": 1
  },
  {
    "id": 1389,
    "name": "אזור תעשייה שער נעמן",
    "name_en": "Sha'ar Na'aman Industrial Zone",
    "name_ru": "Промзона Шаар Нааман",
    "name_ar": "المنطقة الصناعية شاعر نعما",
    "zone": "גליל עליון",
    "zone_en": "Upper Galilee",
    "zone_ru": "Верхняя Галилея",
    "zone_ar": "الجليل الأعلى",
    "time": "דקה",
    "time_en": "A minute",
    "time_ru": "Минута",
    "time_ar": "دقيقة",
    "countdown": 60,
    "lat": 32.8805,
    "lng": 35.09615,
    "value": "אזור תעשייה שער נעמן"
  },
  {
    "id": 386,
    "name": "אזור תעשייה תימורים",
    "name_en": "Timorimg Industrial Zone",
    "name_ru": "Промзона Тиморим",
    "name_ar": "المنطقة الصناعية تيموريم",
    "zone": "לכיש",
    "zone_en": "Lachish",
    "zone_ru": "Лахиш",
    "zone_ar": "لخيش",
    "time": "45 שניות",
    "time_en": "45 seconds",
    "time_ru": "45 секунд",
    "time_ar": "٤٥ ثانية",
    "countdown": 45,
    "lat": 31.72415,
    "lng": 34.7602,
    "value": "אזור תעשייה תימורים"
  },
  {
    "id": 1386,
    "name": "אזור תעשייה תרדיון",
    "name_en": "Teradion Industrial Zone",
    "name_ru": "Промзона Терадион",
    "name_ar": "المنطقة الصناعية ترديون",
    "zone": "מרכז הגליל",
    "zone_en": "Center Galilee",
    "zone_ru": "Центральная Галилея",
    "zone_ar": "مركز الجليل",
    "time": "דקה",
    "time_en": "A minute",
    "time_ru": "Минута",
    "time_ar": "دقيقة",
    "countdown": 60,
    "lat": 32.8673,
    "lng": 35.27285,
    "value": "אזור תעשייה תרדיון"
  },
  {
    "id": 419,
    "name": "אחווה",
    "name_en": "Achva",
    "name_ru": "Ахва",
    "name_ar": "أحفا",
    "zone": "לכיש",
    "zone_en": "Lachish",
    "zone_ru": "Лахиш",
    "zone_ar": "لخيش",
    "time": "45 שניות",
    "time_en": "45 seconds",
    "time_ru": "45 секунд",
    "time_ar": "٤٥ ثانية",
    "countdown": 45,
    "lat": 31.7437,
    "lng": 34.7689,
    "value": "אחווה"
  },
  {
    "id": 264,
    "name": "אחוזם",
    "name_en": "Ahuzam",
    "name_ru": "Ахузам",
    "name_ar": "أحوزام",
    "zone": "לכיש",
    "zone_en": "Lachish",
    "zone_ru": "Лахиш",
    "zone_ar": "لخيش",
    "time": "30 שניות",
    "time_en": "30 seconds",
    "time_ru": "30 секунд",
    "time_ar": "۳۰ ثانية",
    "countdown": 30,
    "lat": 31.55365,
    "lng": 34.76995,
    "value": "אחוזם"
  },
  {
    "id": 1147,
    "name": "אחוזת ברק",
    "name_en": "Ahuzat Barak",
    "name_ru": "Ахузат Барак",
    "name_ar": "أحوزات براك",
    "zone": "העמקים",
    "zone_en": "HaAmakim",
    "zone_ru": "Ха-Амаким",
    "zone_ar": "هعماكيم",
    "time": "דקה",
    "time_en": "A minute",
    "time_ru": "Минута",
    "time_ar": "دقيقة",
    "countdown": 60,
    "lat": 32.64335,
    "lng": 35.3371,
    "value": "אחוזת ברק"
  },
  {
    "id": 765,
    "name": "אחיה",
    "name_en": "Achita",
    "name_ru": "Ахия",
    "name_ar": "أحيه",
    "zone": "שומרון",
    "zone_en": "Shomron",
    "zone_ru": "Самария",
    "zone_ar": "السامرة",
    "time": "דקה וחצי",
    "time_en": "A minute and a half",
    "time_ru": "Полторы минуты",
    "time_ar": "دقيقة ونصف",
    "countdown": 90,
    "lat": 32.06335,
    "lng": 35.33175,
    "value": "אחיה"
  },
  {
    "id": 1414,
    "name": "אחיהוד",
    "name_en": "Achihud",
    "name_ru": "Ахихуд",
    "name_ar": "أحيهود",
    "zone": "גליל עליון",
    "zone_en": "Upper Galilee",
    "zone_ru": "Верхняя Галилея",
    "zone_ar": "الجليل الأعلى",
    "time": "דקה",
    "time_en": "A minute",
    "time_ru": "Минута",
    "time_ar": "دقيقة",
    "countdown": 60,
    "lat": 32.90655,
    "lng": 35.17495,
    "value": "אחיהוד"
  },
  {
    "id": 970,
    "name": "אחיטוב",
    "name_en": "Ahituv",
    "name_ru": "Ахитув",
    "name_ar": "أحيطوف",
    "zone": "שרון",
    "zone_en": "Sharon",
    "zone_ru": "Шарон",
    "zone_ar": "شارون",
    "time": "דקה וחצי",
    "time_en": "A minute and a half",
    "time_ru": "Полторы минуты",
    "time_ar": "دقيقة ونصف",
    "countdown": 90,
    "lat": 32.38795,
    "lng": 34.98975,
    "value": "אחיטוב"
  },
  {
    "id": 1811,
    "name": "אחיסמך",
    "name_en": "Ahisemech",
    "name_ru": "Ахисемех",
    "name_ar": "أحيسيمخ",
    "zone": "השפלה",
    "zone_en": "HaShfela",
    "zone_ru": "Ха-Шфела",
    "zone_ar": "هشفيلاه",
    "time": "דקה וחצי",
    "time_en": "A minute and a half",
    "time_ru": "Полторы минуты",
    "time_ar": "دقيقة ونصف",
    "countdown": 90,
    "lat": 31.9348,
    "lng": 34.9077,
    "value": "אחיסמך"
  },
  {
    "id": 1849,
    "name": "אחיעזר",
    "name_en": "Achiezer",
    "name_ru": "Ахиэзер",
    "name_ar": "أحيعزر",
    "zone": "השפלה",
    "zone_en": "HaShfela",
    "zone_ru": "Ха-Шфела",
    "zone_ar": "هشفيلاه",
    "time": "דקה וחצי",
    "time_en": "A minute and a half",
    "time_ru": "Полторы минуты",
    "time_ar": "دقيقة ونصف",
    "countdown": 90,
    "lat": 31.9807,
    "lng": 34.8706,
    "value": "אחיעזר"
  },
  {
    "id": 1272,
    "name": "איבטין",
    "name_en": "Ibtin",
    "name_ru": "Ибтин",
    "name_ar": "ابطن",
    "zone": "המפרץ",
    "zone_en": "HaMifratz",
    "zone_ru": "Ха-Мифрац",
    "zone_ar": "همفراتس",
    "time": "דקה",
    "time_en": "A minute",
    "time_ru": "Минута",
    "time_ar": "دقيقة",
    "countdown": 60,
    "lat": 32.76055,
    "lng": 35.11315,
    "value": "איבטין"
  },
  {
    "id": 1562,
    "name": "איזור תעשייה מילואות צפון",
    "name_en": "Milouot Industrial Zone North",
    "name_ru": "Промзона Милуот Север",
    "name_ar": "المنطقة الصناعية ميلوؤت الشمال",
    "zone": "קו העימות",
    "zone_en": "Confrontation Line",
    "zone_ru": "Кав Ха-Имут",
    "zone_ar": "خط المواجهة",
    "time": "מיידי",
    "time_en": "Immediately",
    "time_ru": "Немедленно",
    "time_ar": "في الحال",
    "countdown": 0,
    "lat": 33.05852,
    "lng": 35.10421,
    "value": "איזור תעשייה מילואות צפון"
  },
  {
    "id": 864,
    "name": "אייל",
    "name_en": "Eyal",
    "name_ru": "Эяль",
    "name_ar": "أيال",
    "zone": "שרון",
    "zone_en": "Sharon",
    "zone_ru": "Шарон",
    "zone_ar": "شارون",
    "time": "דקה וחצי",
    "time_en": "A minute and a half",
    "time_ru": "Полторы минуты",
    "time_ar": "دقيقة ونصف",
    "countdown": 90,
    "lat": 32.21015,
    "lng": 34.9791,
    "value": "אייל"
  },
  {
    "id": 1552,
    "name": "איילת השחר",
    "name_en": "Ayelet HaShachar",
    "name_ru": "Айелет ха-Шахар",
    "name_ar": "أييلت هشاحر",
    "zone": "גליל עליון",
    "zone_en": "Upper Galilee",
    "zone_ru": "Верхняя Галилея",
    "zone_ar": "الجليل الأعلى",
    "time": "30 שניות",
    "time_en": "30 seconds",
    "time_ru": "30 секунд",
    "time_ar": "۳۰ ثانية",
    "countdown": 30,
    "lat": 33.02275,
    "lng": 35.58065,
    "value": "איילת השחר"
  },
  {
    "id": 1863,
    "name": "איירפורט סיטי",
    "name_en": "Airport City",
    "name_ru": "Аэропорт Сити",
    "name_ar": "أيرفوفط سيتي",
    "zone": "ירקון",
    "zone_en": "Yarkon",
    "zone_ru": "Яркон",
    "zone_ar": "اليركون",
    "time": "דקה וחצי",
    "time_en": "A minute and a half",
    "time_ru": "Полторы минуты",
    "time_ar": "دقيقة ونصف",
    "countdown": 90,
    "lat": 31.9879816,
    "lng": 34.914164,
    "value": "איירפורט סיטי"
  },
  {
    "id": 1571,
    "name": "אילון",
    "name_en": "Eilon",
    "name_ru": "Эйлон",
    "name_ar": "ايلون",
    "zone": "קו העימות",
    "zone_en": "Confrontation Line",
    "zone_ru": "Кав Ха-Имут",
    "zone_ar": "خط المواجهة",
    "time": "מיידי",
    "time_en": "Immediately",
    "time_ru": "Немедленно",
    "time_ar": "في الحال",
    "countdown": 0,
    "lat": 33.0625,
    "lng": 35.21635,
    "value": "אילון"
  },
  {
    "id": 9,
    "name": "אילות",
    "name_en": "Eilot",
    "name_ru": "Эйлот",
    "name_ar": "ايالوت",
    "zone": "אילת",
    "zone_en": "Eilat",
    "zone_ru": "Эйлат",
    "zone_ar": "ايلات",
    "time": "30 שניות",
    "time_en": "30 seconds",
    "time_ru": "30 секунд",
    "time_ar": "۳۰ ثانية",
    "countdown": 30,
    "lat": 29.5804,
    "lng": 34.9632,
    "value": "אילות"
  },
  {
    "id": 1265,
    "name": "אילניה",
    "name_en": "Ilania",
    "name_ru": "Илания",
    "name_ar": "ايلانيا",
    "zone": "העמקים",
    "zone_en": "HaAmakim",
    "zone_ru": "Ха-Амаким",
    "zone_ar": "هعماكيم",
    "time": "דקה",
    "time_en": "A minute",
    "time_ru": "Минута",
    "time_ar": "دقيقة",
    "countdown": 60,
    "lat": 32.75615,
    "lng": 35.4057,
    "value": "אילניה"
  },
  {
    "id": 4,
    "name": "אילת",
    "name_en": "Eilat",
    "name_ru": "Эйлат",
    "name_ar": "أييلت",
    "zone": "אילת",
    "zone_en": "Eilat",
    "zone_ru": "Эйлат",
    "zone_ar": "ايلات",
    "time": "30 שניות",
    "time_en": "30 seconds",
    "time_ru": "30 секунд",
    "time_ar": "۳۰ ثانية",
    "countdown": 30,
    "lat": 29.53715,
    "lng": 34.94035,
    "value": "אילת"
  },
  {
    "id": 1807,
    "name": "אירוס",
    "name_en": "Irus",
    "name_ru": "Ирус",
    "name_ar": "ايروس",
    "zone": "השפלה",
    "zone_en": "HaShfela",
    "zone_ru": "Ха-Шфела",
    "zone_ar": "هشفيلاه",
    "time": "דקה וחצי",
    "time_en": "A minute and a half",
    "time_ru": "Полторы минуты",
    "time_ar": "دقيقة ونصف",
    "countdown": 90,
    "lat": 31.9293,
    "lng": 34.7761,
    "value": "אירוס"
  },
  {
    "id": 852,
    "name": "איתמר",
    "name_en": "Itamar",
    "name_ru": "Итамар",
    "name_ar": "إيتمار",
    "zone": "שומרון",
    "zone_en": "Shomron",
    "zone_ru": "Самария",
    "zone_ar": "السامرة",
    "time": "דקה וחצי",
    "time_en": "A minute and a half",
    "time_ru": "Полторы минуты",
    "time_ar": "دقيقة ونصف",
    "countdown": 90,
    "lat": 32.16435,
    "lng": 35.33595,
    "value": "איתמר"
  },
  {
    "id": 273,
    "name": "איתן",
    "name_en": "Eitan",
    "name_ru": "Эйтан",
    "name_ar": "ايتان",
    "zone": "לכיש",
    "zone_en": "Lachish",
    "zone_ru": "Лахиш",
    "zone_ar": "لخيش",
    "time": "30 שניות",
    "time_en": "30 seconds",
    "time_ru": "30 секунд",
    "time_ar": "۳۰ ثانية",
    "countdown": 30,
    "lat": 31.5726,
    "lng": 34.74805,
    "value": "איתן"
  },
  {
    "id": 1178,
    "name": "אכסאל",
    "name_en": "Iksal",
    "name_ru": "Иксаль",
    "name_ar": "اكسال",
    "zone": "העמקים",
    "zone_en": "HaAmakim",
    "zone_ru": "Ха-Амаким",
    "zone_ar": "هعماكيم",
    "time": "דקה",
    "time_en": "A minute",
    "time_ru": "Минута",
    "time_ar": "دقيقة",
    "countdown": 60,
    "lat": 32.6807,
    "lng": 35.3217,
    "value": "אכסאל"
  },
  {
    "id": 1921,
    "name": "אל סייד",
    "name_en": "El-Sid",
    "name_ru": "Аль-Сайид",
    "name_ar": "السيد",
    "zone": "מרכז הנגב",
    "zone_en": "Center Negev",
    "zone_ru": "Центральный Негев",
    "zone_ar": "مركز النقب",
    "time": "דקה וחצי",
    "time_en": "A minute and a half",
    "time_ru": "Полторы минуты",
    "time_ar": "دقيقة ونصف",
    "countdown": 90,
    "lat": 31.28645,
    "lng": 34.9085,
    "value": "אל סייד"
  },
  {
    "id": 387,
    "name": "אל עזי",
    "name_en": "Al Azi",
    "name_ru": "Аль Ази",
    "name_ar": "ال عازي",
    "zone": "לכיש",
    "zone_en": "Lachish",
    "zone_ru": "Лахиш",
    "zone_ar": "لخيش",
    "time": "45 שניות",
    "time_en": "45 seconds",
    "time_ru": "45 секунд",
    "time_ar": "٤٥ ثانية",
    "countdown": 45,
    "lat": 31.7209,
    "lng": 34.80555,
    "value": "אל עזי"
  },
  {
    "id": 1929,
    "name": "אל עמארני, אל מסק",
    "name_en": "El-Amrana, El-Mask",
    "name_ru": "Эль-Амарна, Эль-Маск",
    "name_ar": "العمارني ، المسك",
    "zone": "ערבה",
    "zone_en": "Arava",
    "zone_ru": "Арава",
    "zone_ar": "العرباه",
    "time": "דקה וחצי",
    "time_en": "A minute and a half",
    "time_ru": "Полторы минуты",
    "time_ar": "دقيقة ونصف",
    "countdown": 90,
    "lat": 30.7983,
    "lng": 35.23575,
    "value": "אל עמארני, אל מסק"
  },
  {
    "id": 1046,
    "name": "אל עריאן",
    "name_en": "Al Arian",
    "name_ru": "Аль Ариан",
    "name_ar": "العريان",
    "zone": "ואדי ערה",
    "zone_en": "Wadi Ara",
    "zone_ru": "Вади Ара",
    "zone_ar": "وادي عارة",
    "time": "דקה וחצי",
    "time_en": "A minute and a half",
    "time_ru": "Полторы минуты",
    "time_ar": "دقيقة ونصف",
    "countdown": 90,
    "lat": 32.49815,
    "lng": 35.1249,
    "value": "אל עריאן"
  },
  {
    "id": 115,
    "name": "אל פורעה",
    "name_en": "El Pura",
    "name_ru": "Аль Фура",
    "name_ar": "الفورعا",
    "zone": "דרום הנגב",
    "zone_en": "South Negev",
    "zone_ru": "Южный Негев",
    "zone_ar": "جنوب النقب",
    "time": "דקה וחצי",
    "time_en": "A minute and a half",
    "time_ru": "Полторы минуты",
    "time_ar": "دقيقة ونصف",
    "countdown": 90,
    "lat": 31.21975,
    "lng": 35.16125,
    "value": "אל פורעה"
  },
  {
    "id": 1635,
    "name": "אל רום",
    "name_en": "El Rom",
    "name_ru": "Эль Ром",
    "name_ar": "الروم",
    "zone": "גולן צפון",
    "zone_en": "North Golan",
    "zone_ru": "Северный Голан",
    "zone_ar": "الجولان الشمالي",
    "time": "מיידי",
    "time_en": "Immediately",
    "time_ru": "Немедленно",
    "time_ar": "في الحال",
    "countdown": 0,
    "lat": 33.1799,
    "lng": 35.7702,
    "value": "אל רום"
  },
  {
    "id": 1282,
    "name": "אל-ח'וואלד מערב",
    "name_en": "Al Khawaled - West",
    "name_ru": "Аль Хавалед - запад",
    "name_ar": "الخوالد غرب",
    "zone": "העמקים",
    "zone_en": "HaAmakim",
    "zone_ru": "Ха-Амаким",
    "zone_ar": "هعماكيم",
    "time": "דקה",
    "time_en": "A minute",
    "time_ru": "Минута",
    "time_ar": "دقيقة",
    "countdown": 60,
    "lat": 32.771,
    "lng": 35.13795,
    "value": "אל-ח'וואלד מערב"
  },
  {
    "id": 323,
    "name": "אלומה",
    "name_en": "Aluma",
    "name_ru": "Алума",
    "name_ar": "ألوما",
    "zone": "לכיש",
    "zone_en": "Lachish",
    "zone_ru": "Лахиш",
    "zone_ar": "لخيش",
    "time": "45 שניות",
    "time_en": "45 seconds",
    "time_ru": "45 секунд",
    "time_ar": "٤٥ ثانية",
    "countdown": 45,
    "lat": 31.65175,
    "lng": 34.74275,
    "value": "אלומה"
  },
  {
    "id": 1222,
    "name": "אלומות",
    "name_en": "Alumot",
    "name_ru": "Алумот",
    "name_ar": "ألوموت",
    "zone": "גליל תחתון",
    "zone_en": "Lower Galilee",
    "zone_ru": "Нижняя Галилея",
    "zone_ar": "الجليل الأسفل",
    "time": "דקה",
    "time_en": "A minute",
    "time_ru": "Минута",
    "time_ar": "دقيقة",
    "countdown": 60,
    "lat": 32.707,
    "lng": 35.5459,
    "value": "אלומות"
  },
  {
    "id": 556,
    "name": "אלון",
    "name_en": "Alon",
    "name_ru": "Алон",
    "name_ar": "ألون",
    "zone": "יהודה",
    "zone_en": "Yehuda",
    "zone_ru": "Йегуда",
    "zone_ar": "يهودا",
    "time": "דקה וחצי",
    "time_en": "A minute and a half",
    "time_ru": "Полторы минуты",
    "time_ar": "دقيقة ونصف",
    "countdown": 90,
    "lat": 31.84215,
    "lng": 35.3452,
    "value": "אלון"
  },
  {
    "id": 1276,
    "name": "אלון הגליל",
    "name_en": "Alon HaGalil",
    "name_ru": "Алон а-Галиль",
    "name_ar": "ألون هجليل",
    "zone": "העמקים",
    "zone_en": "HaAmakim",
    "zone_ru": "Ха-Амаким",
    "zone_ar": "هعماكيم",
    "time": "דקה",
    "time_en": "A minute",
    "time_ru": "Минута",
    "time_ar": "دقيقة",
    "countdown": 60,
    "lat": 32.76005,
    "lng": 35.21945,
    "value": "אלון הגליל"
  },
  {
    "id": 877,
    "name": "אלון מורה",
    "name_en": "Elon Moreh",
    "name_ru": "Алон ха-Море",
    "name_ar": "ألون موريه",
    "zone": "שומרון",
    "zone_en": "Shomron",
    "zone_ru": "Самария",
    "zone_ar": "السامرة",
    "time": "דקה וחצי",
    "time_en": "A minute and a half",
    "time_ru": "Полторы минуты",
    "time_ar": "دقيقة ونصف",
    "countdown": 90,
    "lat": 32.23235,
    "lng": 35.3346,
    "value": "אלון מורה"
  },
  {
    "id": 341,
    "name": "אלון שבות",
    "name_en": "Alon Shvut",
    "name_ru": "Алон Швут",
    "name_ar": "ألون شابوت",
    "zone": "יהודה",
    "zone_en": "Yehuda",
    "zone_ru": "Йегуда",
    "zone_ar": "يهودا",
    "time": "דקה וחצי",
    "time_en": "A minute and a half",
    "time_ru": "Полторы минуты",
    "time_ar": "دقيقة ونصف",
    "countdown": 90,
    "lat": 31.6543,
    "lng": 35.1263,
    "value": "אלון שבות"
  },
  {
    "id": 1231,
    "name": "אלוני אבא",
    "name_en": "Alonei Abba",
    "name_ru": "Алоней Аба",
    "name_ar": "ألوني أبا",
    "zone": "העמקים",
    "zone_en": "HaAmakim",
    "zone_ru": "Ха-Амаким",
    "zone_ar": "هعماكيم",
    "time": "דקה",
    "time_en": "A minute",
    "time_ru": "Минута",
    "time_ar": "دقيقة",
    "countdown": 60,
    "lat": 32.72975,
    "lng": 35.17085,
    "value": "אלוני אבא"
  },
  {
    "id": 1569,
    "name": "אלוני הבשן",
    "name_en": "Alonei HaBashan",
    "name_ru": "Алоней а-Башан",
    "name_ar": "ألوني هبشان",
    "zone": "גולן דרום",
    "zone_en": "South Golan",
    "zone_ru": "Южный Голан",
    "zone_ar": "الجولان الجنوبي",
    "time": "מיידי",
    "time_en": "Immediately",
    "time_ru": "Немедленно",
    "time_ar": "في الحال",
    "countdown": 0,
    "lat": 33.0424,
    "lng": 35.8385,
    "value": "אלוני הבשן"
  },
  {
    "id": 1054,
    "name": "אלוני יצחק",
    "name_en": "Alonei Itzhak",
    "name_ru": "Алоней Ицхак",
    "name_ar": "ألوني يتسحاق",
    "zone": "מנשה",
    "zone_en": "Menashe",
    "zone_ru": "Менаше",
    "zone_ar": "مناشيه",
    "time": "דקה וחצי",
    "time_en": "A minute and a half",
    "time_ru": "Полторы минуты",
    "time_ar": "دقيقة ونصف",
    "countdown": 90,
    "lat": 32.51025,
    "lng": 35.00445,
    "value": "אלוני יצחק"
  },
  {
    "id": 1217,
    "name": "אלונים",
    "name_en": "Alonim",
    "name_ru": "Алоним",
    "name_ar": "ألونيم",
    "zone": "העמקים",
    "zone_en": "HaAmakim",
    "zone_ru": "Ха-Амаким",
    "zone_ar": "هعماكيم",
    "time": "דקה",
    "time_en": "A minute",
    "time_ru": "Минута",
    "time_ar": "دقيقة",
    "countdown": 60,
    "lat": 32.7162,
    "lng": 35.14395,
    "value": "אלונים"
  },
  {
    "id": 1344,
    "name": "אלי עד",
    "name_en": "Eliad",
    "name_ru": "Эли Ад",
    "name_ar": "إلي عاد",
    "zone": "גולן דרום",
    "zone_en": "South Golan",
    "zone_ru": "Южный Голан",
    "zone_ar": "الجولان الجنوبي",
    "time": "מיידי",
    "time_en": "Immediately",
    "time_ru": "Немедленно",
    "time_ar": "في الحال",
    "countdown": 0,
    "lat": 32.80555,
    "lng": 35.7373,
    "value": "אלי עד"
  },
  {
    "id": 257,
    "name": "אליאב",
    "name_en": "Eliav",
    "name_ru": "Элиав",
    "name_ar": "أليآف",
    "zone": "יהודה",
    "zone_en": "Yehuda",
    "zone_ru": "Йегуда",
    "zone_ar": "يهودا",
    "time": "דקה",
    "time_en": "A minute",
    "time_ru": "Минута",
    "time_ar": "دقيقة",
    "countdown": 60,
    "lat": 31.5299,
    "lng": 34.93105,
    "value": "אליאב"
  },
  {
    "id": 980,
    "name": "אליכין",
    "name_en": "Elyachin",
    "name_ru": "Эльяхин",
    "name_ar": "اليخين",
    "zone": "שרון",
    "zone_en": "Sharon",
    "zone_ru": "Шарон",
    "zone_ar": "شارون",
    "time": "דקה וחצי",
    "time_en": "A minute and a half",
    "time_ru": "Полторы минуты",
    "time_ar": "دقيقة ونصف",
    "countdown": 90,
    "lat": 32.4076,
    "lng": 34.925,
    "value": "אליכין"
  },
  {
    "id": 15,
    "name": "אליפז ומכרות תמנע",
    "name_en": "Elipaz And Timna Mines",
    "name_ru": "Элифаз и Копи Тимны",
    "name_ar": "إيليفازوتمنع",
    "zone": "ערבה",
    "zone_en": "Arava",
    "zone_ru": "Арава",
    "zone_ar": "العرباه",
    "time": "דקה וחצי",
    "time_en": "A minute and a half",
    "time_ru": "Полторы минуты",
    "time_ar": "دقيقة ونصف",
    "countdown": 90,
    "lat": 29.7771,
    "lng": 34.9965,
    "value": "אליפז ומכרות תמנע"
  },
  {
    "id": 1466,
    "name": "אליפלט",
    "name_en": "Elifelet",
    "name_ru": "Элифелет",
    "name_ar": "إليفلت",
    "zone": "גליל עליון",
    "zone_en": "Upper Galilee",
    "zone_ru": "Верхняя Галилея",
    "zone_ar": "الجليل الأعلى",
    "time": "30 שניות",
    "time_en": "30 seconds",
    "time_ru": "30 секунд",
    "time_ar": "۳۰ ثانية",
    "countdown": 30,
    "lat": 32.94705,
    "lng": 35.55425,
    "value": "אליפלט"
  },
  {
    "id": 1131,
    "name": "אליקים",
    "name_en": "Elyakim",
    "name_ru": "Эльяким",
    "name_ar": "الياكيم",
    "zone": "ואדי ערה",
    "zone_en": "Wadi Ara",
    "zone_ru": "Вади Ара",
    "zone_ar": "وادي عارة",
    "time": "דקה וחצי",
    "time_en": "A minute and a half",
    "time_ru": "Полторы минуты",
    "time_ar": "دقيقة ونصف",
    "countdown": 90,
    "lat": 32.632,
    "lng": 35.06765,
    "value": "אליקים"
  },
  {
    "id": 961,
    "name": "אלישיב",
    "name_en": "Elyashiv",
    "name_ru": "Эльяшив",
    "name_ar": "أليشيف",
    "zone": "שרון",
    "zone_en": "Sharon",
    "zone_ru": "Шарон",
    "zone_ar": "شارون",
    "time": "דקה וחצי",
    "time_en": "A minute and a half",
    "time_ru": "Полторы минуты",
    "time_ar": "دقيقة ونصف",
    "countdown": 90,
    "lat": 32.38075,
    "lng": 34.9099,
    "value": "אלישיב"
  },
  {
    "id": 827,
    "name": "אלישמע",
    "name_en": "Elishema",
    "name_ru": "Элишема",
    "name_ar": "أليشمع",
    "zone": "שרון",
    "zone_en": "Sharon",
    "zone_ru": "Шарон",
    "zone_ar": "شارون",
    "time": "דקה וחצי",
    "time_en": "A minute and a half",
    "time_ru": "Полторы минуты",
    "time_ar": "دقيقة ونصف",
    "countdown": 90,
    "lat": 32.1523,
    "lng": 34.92765,
    "value": "אלישמע"
  },
  {
    "id": 1432,
    "name": "אלמגור",
    "name_en": "Almagor",
    "name_ru": "Альмагор",
    "name_ar": "الماغور",
    "zone": "גולן דרום",
    "zone_en": "South Golan",
    "zone_ru": "Южный Голан",
    "zone_ar": "الجولان الجنوبي",
    "time": "30 שניות",
    "time_en": "30 seconds",
    "time_ru": "30 секунд",
    "time_ar": "۳۰ ثانية",
    "countdown": 30,
    "lat": 32.9119,
    "lng": 35.60205,
    "value": "אלמגור"
  },
  {
    "id": 499,
    "name": "אלמוג",
    "name_en": "Almog",
    "name_ru": "Альмог",
    "name_ar": "ألموغ",
    "zone": "ים המלח",
    "zone_en": "Dead Sea",
    "zone_ru": "Мёртвое море",
    "zone_ar": "البحر الميت",
    "time": "דקה וחצי",
    "time_en": "A minute and a half",
    "time_ru": "Полторы минуты",
    "time_ar": "دقيقة ونصف",
    "countdown": 90,
    "lat": 31.78755,
    "lng": 35.4617,
    "value": "אלמוג"
  },
  {
    "id": 735,
    "name": "אלעד",
    "name_en": "Elad",
    "name_ru": "Эльад",
    "name_ar": "ايلعاد",
    "zone": "ירקון",
    "zone_en": "Yarkon",
    "zone_ru": "Яркон",
    "zone_ar": "اليركون",
    "time": "דקה וחצי",
    "time_en": "A minute and a half",
    "time_ru": "Полторы минуты",
    "time_ar": "دقيقة ونصف",
    "countdown": 90,
    "lat": 32.0505,
    "lng": 34.9563,
    "value": "אלעד"
  },
  {
    "id": 351,
    "name": "אלעזר",
    "name_en": "Elazar",
    "name_ru": "Эльазар",
    "name_ar": "العيزر",
    "zone": "יהודה",
    "zone_en": "Yehuda",
    "zone_ru": "Йегуда",
    "zone_ar": "يهودا",
    "time": "דקה וחצי",
    "time_en": "A minute and a half",
    "time_ru": "Полторы минуты",
    "time_ar": "دقيقة ونصف",
    "countdown": 90,
    "lat": 31.6626,
    "lng": 35.1399,
    "value": "אלעזר"
  },
  {
    "id": 844,
    "name": "אלפי מנשה",
    "name_en": "Alfei Menashe",
    "name_ru": "Алфей Менаше",
    "name_ar": "ألفي مناشيه",
    "zone": "שרון",
    "zone_en": "Sharon",
    "zone_ru": "Шарон",
    "zone_ar": "شارون",
    "time": "דקה וחצי",
    "time_en": "A minute and a half",
    "time_ru": "Полторы минуты",
    "time_ar": "دقيقة ونصف",
    "countdown": 90,
    "lat": 32.172,
    "lng": 35.0112,
    "value": "אלפי מנשה"
  },
  {
    "id": 1547,
    "name": "אלקוש",
    "name_en": "Alkosh",
    "name_ru": "Алькош",
    "name_ar": "الكوش",
    "zone": "קו העימות",
    "zone_en": "Confrontation Line",
    "zone_ru": "Кав Ха-Имут",
    "zone_ar": "خط المواجهة",
    "time": "מיידי",
    "time_en": "Immediately",
    "time_ru": "Немедленно",
    "time_ar": "في الحال",
    "countdown": 0,
    "lat": 33.03455,
    "lng": 35.32615,
    "value": "אלקוש"
  },
  {
    "id": 794,
    "name": "אלקנה",
    "name_en": "Elkana",
    "name_ru": "Элькана",
    "name_ar": "الكنا",
    "zone": "שרון",
    "zone_en": "Sharon",
    "zone_ru": "Шарон",
    "zone_ar": "شارون",
    "time": "דקה וחצי",
    "time_en": "A minute and a half",
    "time_ru": "Полторы минуты",
    "time_ar": "دقيقة ونصف",
    "countdown": 90,
    "lat": 32.1129,
    "lng": 35.03405,
    "value": "אלקנה"
  },
  {
    "id": 406,
    "name": "אמונים",
    "name_en": "Emunim",
    "name_ru": "Эмуним",
    "name_ar": "أمونيم",
    "zone": "לכיש",
    "zone_en": "Lachish",
    "zone_ru": "Лахиш",
    "zone_ar": "لخيش",
    "time": "45 שניות",
    "time_en": "45 seconds",
    "time_ru": "45 секунд",
    "time_ar": "٤٥ ثانية",
    "countdown": 45,
    "lat": 31.74375,
    "lng": 34.67585,
    "value": "אמונים"
  },
  {
    "id": 1454,
    "name": "אמירים",
    "name_en": "Amirim",
    "name_ru": "Амирим",
    "name_ar": "أميريم",
    "zone": "גליל עליון",
    "zone_en": "Upper Galilee",
    "zone_ru": "Верхняя Галилея",
    "zone_ar": "الجليل الأعلى",
    "time": "30 שניות",
    "time_en": "30 seconds",
    "time_ru": "30 секунд",
    "time_ar": "۳۰ ثانية",
    "countdown": 30,
    "lat": 32.9383,
    "lng": 35.44725,
    "value": "אמירים"
  },
  {
    "id": 1422,
    "name": "אמנון",
    "name_en": "Amnon",
    "name_ru": "Амнон",
    "name_ar": "أمنون",
    "zone": "גליל עליון",
    "zone_en": "Upper Galilee",
    "zone_ru": "Верхняя Галилея",
    "zone_ar": "الجليل الأعلى",
    "time": "30 שניות",
    "time_en": "30 seconds",
    "time_ru": "30 секунд",
    "time_ar": "۳۰ ثانية",
    "countdown": 30,
    "lat": 32.9045,
    "lng": 35.57265,
    "value": "אמנון"
  },
  {
    "id": 955,
    "name": "אמץ",
    "name_en": "Amatz",
    "name_ru": "Амац",
    "name_ar": "أومتس",
    "zone": "שרון",
    "zone_en": "Sharon",
    "zone_ru": "Шарон",
    "zone_ar": "شارون",
    "time": "דקה וחצי",
    "time_en": "A minute and a half",
    "time_ru": "Полторы минуты",
    "time_ar": "دقيقة ونصف",
    "countdown": 90,
    "lat": 32.3684,
    "lng": 34.9943,
    "value": "אמץ"
  },
  {
    "id": 256,
    "name": "אמציה",
    "name_en": "Amatzia",
    "name_ru": "Амация",
    "name_ar": "أمتسيا",
    "zone": "יהודה",
    "zone_en": "Yehuda",
    "zone_ru": "Йегуда",
    "zone_ar": "يهودا",
    "time": "דקה",
    "time_en": "A minute",
    "time_ru": "Минута",
    "time_ar": "دقيقة",
    "countdown": 60,
    "lat": 31.53225,
    "lng": 34.9137,
    "value": "אמציה"
  },
  {
    "id": 1488,
    "name": "אניעם",
    "name_en": "Aniam",
    "name_ru": "Аниам",
    "name_ar": "أنيعام",
    "zone": "גולן דרום",
    "zone_en": "South Golan",
    "zone_ru": "Южный Голан",
    "zone_ar": "الجولان الجنوبي",
    "time": "15 שניות",
    "time_en": "15 seconds",
    "time_ru": "15 секунд",
    "time_ar": "۱٥ ثانية",
    "countdown": 15,
    "lat": 32.9576,
    "lng": 35.7401,
    "value": "אניעם"
  },
  {
    "id": 1339,
    "name": "אעבלין",
    "name_en": "Ibillin",
    "name_ru": "Иблин",
    "name_ar": "إعبلين",
    "zone": "מרכז הגליל",
    "zone_en": "Center Galilee",
    "zone_ru": "Центральная Галилея",
    "zone_ar": "مركز الجليل",
    "time": "דקה",
    "time_en": "A minute",
    "time_ru": "Минута",
    "time_ar": "دقيقة",
    "countdown": 60,
    "lat": 32.82415,
    "lng": 35.1882,
    "value": "אעבלין"
  },
  {
    "id": 1314,
    "name": "אפיק",
    "name_en": "Afik",
    "name_ru": "Афик",
    "name_ar": "أفيك",
    "zone": "גולן דרום",
    "zone_en": "South Golan",
    "zone_ru": "Южный Голан",
    "zone_ar": "الجولان الجنوبي",
    "time": "מיידי",
    "time_en": "Immediately",
    "time_ru": "Немедленно",
    "time_ar": "في الحال",
    "countdown": 0,
    "lat": 32.77895,
    "lng": 35.7031,
    "value": "אפיק"
  },
  {
    "id": 1188,
    "name": "אפיקים",
    "name_en": "Afikim",
    "name_ru": "Афиким",
    "name_ar": "أفيكيم",
    "zone": "גליל תחתון",
    "zone_en": "Lower Galilee",
    "zone_ru": "Нижняя Галилея",
    "zone_ar": "الجليل الأسفل",
    "time": "דקה",
    "time_en": "A minute",
    "time_ru": "Минута",
    "time_ar": "دقيقة",
    "countdown": 60,
    "lat": 32.68025,
    "lng": 35.57755,
    "value": "אפיקים"
  },
  {
    "id": 1352,
    "name": "אפק",
    "name_en": "Afek",
    "name_ru": "Афек",
    "name_ar": "أفيك",
    "zone": "גליל עליון",
    "zone_en": "Upper Galilee",
    "zone_ru": "Верхняя Галилея",
    "zone_ar": "الجليل الأعلى",
    "time": "דקה",
    "time_en": "A minute",
    "time_ru": "Минута",
    "time_ar": "دقيقة",
    "countdown": 60,
    "lat": 32.83845,
    "lng": 35.1253,
    "value": "אפק"
  },
  {
    "id": 329,
    "name": "אפרת",
    "name_en": "Efrat",
    "name_ru": "Эфрат",
    "name_ar": "إفرات",
    "zone": "יהודה",
    "zone_en": "Yehuda",
    "zone_ru": "Йегуда",
    "zone_ar": "يهودا",
    "time": "דקה וחצי",
    "time_en": "A minute and a half",
    "time_ru": "Полторы минуты",
    "time_ar": "دقيقة ونصف",
    "countdown": 90,
    "lat": 31.66105,
    "lng": 35.1584,
    "value": "אפרת",
    "shelters": 1
  },
  {
    "id": 1342,
    "name": "ארבל",
    "name_en": "Arbel",
    "name_ru": "Арбель",
    "name_ar": "أرابل",
    "zone": "גליל תחתון",
    "zone_en": "Lower Galilee",
    "zone_ru": "Нижняя Галилея",
    "zone_ar": "الجليل الأسفل",
    "time": "דקה",
    "time_en": "A minute",
    "time_ru": "Минута",
    "time_ar": "دقيقة",
    "countdown": 60,
    "lat": 32.8127,
    "lng": 35.48305,
    "value": "ארבל"
  },
  {
    "id": 853,
    "name": "ארגמן",
    "name_en": "Argaman",
    "name_ru": "Аргаман",
    "name_ar": "أرجمان",
    "zone": "בקעה",
    "zone_en": "Bika'a",
    "zone_ru": "Бикъа",
    "zone_ar": "بيكعا",
    "time": "דקה וחצי",
    "time_en": "A minute and a half",
    "time_ru": "Полторы минуты",
    "time_ar": "دقيقة ونصف",
    "countdown": 90,
    "lat": 32.17215,
    "lng": 35.5218,
    "value": "ארגמן"
  },
  {
    "id": 263,
    "name": "ארז",
    "name_en": "Erez",
    "name_ru": "Эрез",
    "name_ar": "إيرز",
    "zone": "עוטף עזה",
    "zone_en": "Gaza Envelope",
    "zone_ru": "Округ Газа",
    "zone_ar": "غلاف غزة",
    "time": "15 שניות",
    "time_en": "15 seconds",
    "time_ru": "15 секунд",
    "time_ar": "۱٥ ثانية",
    "countdown": 15,
    "lat": 31.5598,
    "lng": 34.56595,
    "value": "ארז",
    "shelters": 2
  },
  {
    "id": 795,
    "name": "אריאל",
    "name_en": "Ariel",
    "name_ru": "Ариэль",
    "name_ar": "ارئييل",
    "zone": "שומרון",
    "zone_en": "Shomron",
    "zone_ru": "Самария",
    "zone_ar": "السامرة",
    "time": "דקה וחצי",
    "time_en": "A minute and a half",
    "time_ru": "Полторы минуты",
    "time_ar": "دقيقة ونصف",
    "countdown": 90,
    "lat": 32.10475,
    "lng": 35.18915,
    "value": "אריאל"
  },
  {
    "id": 862,
    "name": "ארסוף",
    "name_en": "Arsuf",
    "name_ru": "Арсуф",
    "name_ar": "أرسوف",
    "zone": "שרון",
    "zone_en": "Sharon",
    "zone_ru": "Шарон",
    "zone_ar": "شارون",
    "time": "דקה וחצי",
    "time_en": "A minute and a half",
    "time_ru": "Полторы минуты",
    "time_ar": "دقيقة ونصف",
    "countdown": 90,
    "lat": 32.209,
    "lng": 34.8175,
    "value": "ארסוף"
  },
  {
    "id": 225,
    "name": "אשבול",
    "name_en": "Eshbol",
    "name_ru": "Эшбол",
    "name_ar": "أشبول",
    "zone": "מערב הנגב",
    "zone_en": "West Negev",
    "zone_ru": "Западный Негев",
    "zone_ar": "النقب الغربي",
    "time": "30 שניות",
    "time_en": "30 seconds",
    "time_ru": "30 секунд",
    "time_ar": "۳۰ ثانية",
    "countdown": 30,
    "lat": 31.4472,
    "lng": 34.6652,
    "value": "אשבול"
  },
  {
    "id": 1392,
    "name": "אשבל",
    "name_en": "Eshbal",
    "name_ru": "Эшбаль",
    "name_ar": "إشبال",
    "zone": "מרכז הגליל",
    "zone_en": "Center Galilee",
    "zone_ru": "Центральная Галилея",
    "zone_ar": "مركز الجليل",
    "time": "דקה",
    "time_en": "A minute",
    "time_ru": "Минута",
    "time_ar": "دقيقة",
    "countdown": 60,
    "lat": 32.87645,
    "lng": 35.30485,
    "value": "אשבל"
  },
  {
    "id": 468,
    "name": "אשדוד - א,ב,ד,ה",
    "name_en": "Ashdod - Alef, Bet, Dalet, Heh",
    "name_ru": "Ашдод - алеф, бет, далет, хей",
    "name_ar": "أشدود- أ،ب،د، هـ",
    "zone": "לכיש",
    "zone_en": "Lachish",
    "zone_ru": "Лахиш",
    "zone_ar": "لخيش",
    "time": "45 שניות",
    "time_en": "45 seconds",
    "time_ru": "45 секунд",
    "time_ar": "٤٥ ثانية",
    "countdown": 45,
    "lat": 31.80465,
    "lng": 34.64805,
    "value": "אשדוד - א,ב,ד,ה"
  },
  {
    "id": 530,
    "name": "אשדוד - איזור תעשייה צפוני",
    "name_en": "Ashdod - Northern Industrial Zone And Port",
    "name_ru": "Ашдод - Северная промзона, П",
    "name_ar": "المنطقة الصناعية الشمالية,",
    "zone": "לכיש",
    "zone_en": "Lachish",
    "zone_ru": "Лахиш",
    "zone_ar": "لخيش",
    "time": "45 שניות",
    "time_en": "45 seconds",
    "time_ru": "45 секунд",
    "time_ar": "٤٥ ثانية",
    "countdown": 45,
    "lat": 31.8299,
    "lng": 34.66765,
    "value": "אשדוד - איזור תעשייה צפוני"
  },
  {
    "id": 455,
    "name": "אשדוד - ג,ו,ז",
    "name_en": "Ashdod - Gimmel, Vav, Zain",
    "name_ru": "Ашдод - гимел, вав, зайн",
    "name_ar": "أشدود- ج، و، ز",
    "zone": "לכיש",
    "zone_en": "Lachish",
    "zone_ru": "Лахиш",
    "zone_ar": "لخيش",
    "time": "45 שניות",
    "time_en": "45 seconds",
    "time_ru": "45 секунд",
    "time_ar": "٤٥ ثانية",
    "countdown": 45,
    "lat": 31.79655,
    "lng": 34.6599,
    "value": "אשדוד - ג,ו,ז"
  },
  {
    "id": 433,
    "name": "אשדוד - ח,ט,י,יג,יד,טז",
    "name_en": "Ashdod - Het, Tet, Yod, Yod Gimmel, Yod Dalet, Te*",
    "name_ru": "Ашдод - хет, тет, йод, йод гим",
    "name_ar": "أشدود- ح، ط، ي، ي ج،ي د، ط ز",
    "zone": "לכיש",
    "zone_en": "Lachish",
    "zone_ru": "Лахиш",
    "zone_ar": "لخيش",
    "time": "45 שניות",
    "time_en": "45 seconds",
    "time_ru": "45 секунд",
    "time_ar": "٤٥ ثانية",
    "countdown": 45,
    "lat": 31.7778,
    "lng": 34.64955,
    "value": "אשדוד - ח,ט,י,יג,יד,טז"
  },
  {
    "id": 432,
    "name": "אשדוד -יא,יב,טו,יז,מרינה,סיטי",
    "name_en": "Ashdod - Yod Alef, Yod Bet, Tet Vav, Yod Zain, Marina, City",
    "name_ru": "Ашдод - йуд алеф, йуд бет, йу",
    "name_ar": "أشدود- ي أ، ي ب، ط و، ي ز، مري",
    "zone": "לכיש",
    "zone_en": "Lachish",
    "zone_ru": "Лахиш",
    "zone_ar": "لخيش",
    "time": "45 שניות",
    "time_en": "45 seconds",
    "time_ru": "45 секунд",
    "time_ar": "٤٥ ثانية",
    "countdown": 45,
    "lat": 31.78355,
    "lng": 34.6317,
    "value": "אשדוד -יא,יב,טו,יז,מרינה,סיטי"
  },
  {
    "id": 1161,
    "name": "אשדות יעקב",
    "name_en": "Ashdot Yacov",
    "name_ru": "Ашдот Яаков",
    "name_ar": "أشدوت يعقوب",
    "zone": "גולן דרום",
    "zone_en": "South Golan",
    "zone_ru": "Южный Голан",
    "zone_ar": "الجولان الجنوبي",
    "time": "דקה",
    "time_en": "A minute",
    "time_ru": "Минута",
    "time_ar": "دقيقة",
    "countdown": 60,
    "lat": 32.65877,
    "lng": 35.579637,
    "value": "אשדות יעקב"
  },
  {
    "id": 1399,
    "name": "אשחר",
    "name_en": "Eshchar",
    "name_ru": "Эшхар",
    "name_ar": "إشحار",
    "zone": "מרכז הגליל",
    "zone_en": "Center Galilee",
    "zone_ru": "Центральная Галилея",
    "zone_ar": "مركز الجليل",
    "time": "דקה",
    "time_en": "A minute",
    "time_ru": "Минута",
    "time_ar": "دقيقة",
    "countdown": 60,
    "lat": 32.88555,
    "lng": 35.30005,
    "value": "אשחר"
  },
  {
    "id": 203,
    "name": "אשכולות",
    "name_en": "Eshkolot",
    "name_ru": "Эшколот",
    "name_ar": "أشكولوت",
    "zone": "מרכז הנגב",
    "zone_en": "Center Negev",
    "zone_ru": "Центральный Негев",
    "zone_ar": "مركز النقب",
    "time": "דקה",
    "time_en": "A minute",
    "time_ru": "Минута",
    "time_ar": "دقيقة",
    "countdown": 60,
    "lat": 31.3915,
    "lng": 34.9005,
    "value": "אשכולות"
  },
  {
    "id": 168,
    "name": "אשל הנשיא",
    "name_en": "Eshel HaNassi",
    "name_ru": "Эшель а-Наси",
    "name_ar": "إيشل هنسي",
    "zone": "מערב הנגב",
    "zone_en": "West Negev",
    "zone_ru": "Западный Негев",
    "zone_ar": "النقب الغربي",
    "time": "45 שניות",
    "time_en": "45 seconds",
    "time_ru": "45 секунд",
    "time_ar": "٤٥ ثانية",
    "countdown": 45,
    "lat": 31.3259,
    "lng": 34.69615,
    "value": "אשל הנשיא"
  },
  {
    "id": 1774,
    "name": "אשלים",
    "name_en": "Ashalim",
    "name_ru": "Ашалим",
    "name_ar": "اشليم",
    "zone": "דרום הנגב",
    "zone_en": "South Negev",
    "zone_ru": "Южный Негев",
    "zone_ar": "جنوب النقب",
    "time": "דקה וחצי",
    "time_en": "A minute and a half",
    "time_ru": "Полторы минуты",
    "time_ar": "دقيقة ونصف",
    "countdown": 90,
    "lat": 30.97165,
    "lng": 34.7101,
    "value": "אשלים"
  },
  {
    "id": 1932,
    "name": "אשקלון - דרום",
    "name_en": "Ashkelon - South",
    "name_ru": "Ашкелон - Юг",
    "name_ar": "أشكلون - جنوب",
    "zone": "מערב לכיש",
    "zone_en": "West Lachish",
    "zone_ru": "Западный Лахиш",
    "zone_ar": "غرب لخيش",
    "time": "30 שניות",
    "time_en": "30 seconds",
    "time_ru": "30 секунд",
    "time_ar": "۳۰ ثانية",
    "countdown": 30,
    "lat": 31.6625,
    "lng": 34.5668,
    "value": "אשקלון - דרום"
  },
  {
    "id": 320,
    "name": "אשקלון - צפון",
    "name_en": "Ashkelon - North",
    "name_ru": "Ашкелон - Север",
    "name_ar": "أشكلون - الشمال",
    "zone": "מערב לכיש",
    "zone_en": "West Lachish",
    "zone_ru": "Западный Лахиш",
    "zone_ar": "غرب لخيش",
    "time": "30 שניות",
    "time_en": "30 seconds",
    "time_ru": "30 секунд",
    "time_ar": "۳۰ ثانية",
    "countdown": 30,
    "lat": 31.69095,
    "lng": 34.5854,
    "value": "אשקלון - צפון"
  },
  {
    "id": 1482,
    "name": "אשרת",
    "name_en": "Oshrat",
    "name_ru": "Ошрат",
    "name_ar": "أوشرات",
    "zone": "גליל עליון",
    "zone_en": "Upper Galilee",
    "zone_ru": "Верхняя Галилея",
    "zone_ar": "الجليل الأعلى",
    "time": "30 שניות",
    "time_en": "30 seconds",
    "time_ru": "30 секунд",
    "time_ar": "۳۰ ثانية",
    "countdown": 30,
    "lat": 32.9718,
    "lng": 35.1573,
    "value": "אשרת",
    "shelters": 1
  },
  {
    "id": 462,
    "name": "אשתאול",
    "name_en": "Eshtaol",
    "name_ru": "Эштаоль",
    "name_ar": "اشتوئيل",
    "zone": "שפלת יהודה",
    "zone_en": "Shfelat Yehuda",
    "zone_ru": "Шфелат Йегуда",
    "zone_ar": "شيفلات يهودا",
    "time": "דקה וחצי",
    "time_en": "A minute and a half",
    "time_ru": "Полторы минуты",
    "time_ar": "دقيقة ونصف",
    "countdown": 90,
    "lat": 31.77915,
    "lng": 35.00825,
    "value": "אשתאול"
  },
  {
    "id": 1752,
    "name": "אתר דודאים",
    "name_en": "Dudaim Site",
    "name_ru": "Свалка Дудаим",
    "name_ar": "موقع دودائيم",
    "zone": "מרכז הנגב",
    "zone_en": "Center Negev",
    "zone_ru": "Центральный Негев",
    "zone_ar": "مركز النقب",
    "time": "45 שניות",
    "time_en": "45 seconds",
    "time_ru": "45 секунд",
    "time_ar": "٤٥ ثانية",
    "countdown": 45,
    "lat": 31.31225,
    "lng": 34.7353,
    "value": "אתר דודאים"
  },
  {
    "id": 1715,
    "name": "אתר ההנצחה גולני",
    "name_en": "Golani Memorial Site",
    "name_ru": "Мемориал Голани",
    "name_ar": "موقع تذكاري في غولاني",
    "zone": "גליל תחתון",
    "zone_en": "Lower Galilee",
    "zone_ru": "Нижняя Галилея",
    "zone_ar": "الجليل الأسفل",
    "time": "דקה",
    "time_en": "A minute",
    "time_ru": "Минута",
    "time_ar": "دقيقة",
    "countdown": 60,
    "lat": 32.7768,
    "lng": 35.40965,
    "value": "אתר ההנצחה גולני"
  },
  {
    "id": 982,
    "name": "באקה אל גרבייה",
    "name_en": "Bqa Al-Gharbiyye",
    "name_ru": "Бака аль Гарбия",
    "name_ar": "باقة الغربية",
    "zone": "ואדי ערה",
    "zone_en": "Wadi Ara",
    "zone_ru": "Вади Ара",
    "zone_ar": "وادي عارة",
    "time": "דקה וחצי",
    "time_en": "A minute and a half",
    "time_ru": "Полторы минуты",
    "time_ar": "دقيقة ونصف",
    "countdown": 90,
    "lat": 32.41575,
    "lng": 35.0399,
    "value": "באקה אל גרבייה"
  },
  {
    "id": 12,
    "name": "באר אורה",
    "name_en": "Be'er Ora",
    "name_ru": "Беэр Ора",
    "name_ar": "بئير أوره",
    "zone": "ערבה",
    "zone_en": "Arava",
    "zone_ru": "Арава",
    "zone_ar": "العرباه",
    "time": "דקה וחצי",
    "time_en": "A minute and a half",
    "time_ru": "Полторы минуты",
    "time_ar": "دقيقة ونصف",
    "countdown": 90,
    "lat": 29.70845,
    "lng": 34.98425,
    "value": "באר אורה"
  },
  {
    "id": 362,
    "name": "באר גנים",
    "name_en": "Be'er Ganim",
    "name_ru": "Беэр Ганим",
    "name_ar": "بئير جانيم",
    "zone": "מערב לכיש",
    "zone_en": "West Lachish",
    "zone_ru": "Западный Лахиш",
    "zone_ar": "غرب لخيش",
    "time": "30 שניות",
    "time_en": "30 seconds",
    "time_ru": "30 секунд",
    "time_ar": "۳۰ ثانية",
    "countdown": 30,
    "lat": 31.69765,
    "lng": 34.6073,
    "value": "באר גנים"
  },
  {
    "id": 382,
    "name": "באר טוביה",
    "name_en": "Be'er Tuvia",
    "name_ru": "Беэр Тувья",
    "name_ar": "بئير طوبيا",
    "zone": "לכיש",
    "zone_en": "Lachish",
    "zone_ru": "Лахиш",
    "zone_ar": "لخيش",
    "time": "45 שניות",
    "time_en": "45 seconds",
    "time_ru": "45 секунд",
    "time_ar": "٤٥ ثانية",
    "countdown": 45,
    "lat": 31.73015,
    "lng": 34.719,
    "value": "באר טוביה"
  },
  {
    "id": 1809,
    "name": "באר יעקב",
    "name_en": "Be'er Yacov",
    "name_ru": "Беэр Яаков",
    "name_ar": "بئير يعقوب",
    "zone": "השפלה",
    "zone_en": "HaShfela",
    "zone_ru": "Ха-Шфела",
    "zone_ar": "هشفيلاه",
    "time": "דקה וחצי",
    "time_en": "A minute and a half",
    "time_ru": "Полторы минуты",
    "time_ar": "دقيقة ونصف",
    "countdown": 90,
    "lat": 31.93615,
    "lng": 34.84035,
    "value": "באר יעקב"
  },
  {
    "id": 1771,
    "name": "באר מילכה",
    "name_en": "Be'er Milka",
    "name_ru": "Беэр Милка",
    "name_ar": "بئير ميلخا",
    "zone": "דרום הנגב",
    "zone_en": "South Negev",
    "zone_ru": "Южный Негев",
    "zone_ar": "جنوب النقب",
    "time": "דקה",
    "time_en": "A minute",
    "time_ru": "Минута",
    "time_ar": "دقيقة",
    "countdown": 60,
    "lat": 30.93285,
    "lng": 34.4086,
    "value": "באר מילכה"
  },
  {
    "id": 1749,
    "name": "באר שבע - דרום",
    "name_en": "Beer Sheva - South",
    "name_ru": "Беэр шева - Южная часть",
    "name_ar": "بئر السبع -جنوب",
    "zone": "מרכז הנגב",
    "zone_en": "Center Negev",
    "zone_ru": "Центральный Негев",
    "zone_ar": "مركز النقب",
    "time": "דקה",
    "time_en": "A minute",
    "time_ru": "Минута",
    "time_ar": "دقيقة",
    "countdown": 60,
    "lat": 31.24125,
    "lng": 34.76985,
    "value": "באר שבע - דרום"
  },
  {
    "id": 124,
    "name": "באר שבע - מזרח",
    "name_en": "Beer Sheva - East",
    "name_ru": "Беэр Шева - восток",
    "name_ar": "بئر السبع - شرق",
    "zone": "מרכז הנגב",
    "zone_en": "Center Negev",
    "zone_ru": "Центральный Негев",
    "zone_ar": "مركز النقب",
    "time": "דקה",
    "time_en": "A minute",
    "time_ru": "Минута",
    "time_ar": "دقيقة",
    "countdown": 60,
    "lat": 31.2345,
    "lng": 34.82205,
    "value": "באר שבע - מזרח"
  },
  {
    "id": 141,
    "name": "באר שבע - מערב",
    "name_en": "Beer Sheva - West",
    "name_ru": "Беэр Шева - запад",
    "name_ar": "بئر السبع - غرب",
    "zone": "מרכז הנגב",
    "zone_en": "Center Negev",
    "zone_ru": "Центральный Негев",
    "zone_ar": "مركز النقب",
    "time": "דקה",
    "time_en": "A minute",
    "time_ru": "Минута",
    "time_ar": "دقيقة",
    "countdown": 60,
    "lat": 31.2612,
    "lng": 34.77915,
    "value": "באר שבע - מערב"
  },
  {
    "id": 1748,
    "name": "באר שבע - צפון",
    "name_en": "Beer Sheva - North",
    "name_ru": "Беэр Шева - север",
    "name_ar": "بئر السبع - شمال",
    "zone": "מרכז הנגב",
    "zone_en": "Center Negev",
    "zone_ru": "Центральный Негев",
    "zone_ar": "مركز النقب",
    "time": "דקה",
    "time_en": "A minute",
    "time_ru": "Минута",
    "time_ar": "دقيقة",
    "countdown": 60,
    "lat": 31.2698,
    "lng": 34.8106,
    "value": "באר שבע - צפון"
  },
  {
    "id": 727,
    "name": "בארות יצחק",
    "name_en": "Be'erot Itzhak",
    "name_ru": "Беэрот Ицхак",
    "name_ar": "بئروت يتسحاق",
    "zone": "ירקון",
    "zone_en": "Yarkon",
    "zone_ru": "Яркон",
    "zone_ar": "اليركون",
    "time": "דקה וחצי",
    "time_en": "A minute and a half",
    "time_ru": "Полторы минуты",
    "time_ar": "دقيقة ونصف",
    "countdown": 90,
    "lat": 32.0418,
    "lng": 34.91145,
    "value": "בארות יצחק"
  },
  {
    "id": 923,
    "name": "בארותיים",
    "name_en": "Be'erotaim",
    "name_ru": "Беэротаим",
    "name_ar": "بئروتايم",
    "zone": "שרון",
    "zone_en": "Sharon",
    "zone_ru": "Шарон",
    "zone_ar": "شارون",
    "time": "דקה וחצי",
    "time_en": "A minute and a half",
    "time_ru": "Полторы минуты",
    "time_ar": "دقيقة ونصف",
    "countdown": 90,
    "lat": 32.3228,
    "lng": 34.9819,
    "value": "בארותיים"
  },
  {
    "id": 212,
    "name": "בארי",
    "name_en": "Be'eri",
    "name_ru": "Беэри",
    "name_ar": "بئيري",
    "zone": "עוטף עזה",
    "zone_en": "Gaza Envelope",
    "zone_ru": "Округ Газа",
    "zone_ar": "غلاف غزة",
    "time": "15 שניות",
    "time_en": "15 seconds",
    "time_ru": "15 секунд",
    "time_ar": "۱٥ ثانية",
    "countdown": 15,
    "lat": 31.4246,
    "lng": 34.49095,
    "value": "בארי",
    "shelters": 2
  },
  {
    "id": 1458,
    "name": "בוסתן הגליל",
    "name_en": "Bustan HaGalil",
    "name_ru": "Бустан ха-Галиль",
    "name_ar": "بستان الجليل",
    "zone": "גליל עליון",
    "zone_en": "Upper Galilee",
    "zone_ru": "Верхняя Галилея",
    "zone_ar": "الجليل الأعلى",
    "time": "30 שניות",
    "time_en": "30 seconds",
    "time_ru": "30 секунд",
    "time_ar": "۳۰ ثانية",
    "countdown": 30,
    "lat": 32.95095,
    "lng": 35.08225,
    "value": "בוסתן הגליל",
    "shelters": 1
  },
  {
    "id": 1328,
    "name": "בועיינה-נוג'ידאת",
    "name_en": "Bu'eine Nujeidat",
    "name_ru": "Буэйне-Нуджейдат",
    "name_ar": "البعنة النجيدات",
    "zone": "מרכז הגליל",
    "zone_en": "Center Galilee",
    "zone_ru": "Центральная Галилея",
    "zone_ar": "مركز الجليل",
    "time": "דקה",
    "time_en": "A minute",
    "time_ru": "Минута",
    "time_ar": "دقيقة",
    "countdown": 60,
    "lat": 32.80805,
    "lng": 35.3707,
    "value": "בועיינה-נוג'ידאת"
  },
  {
    "id": 1641,
    "name": "בוקעתא",
    "name_en": "Buq'ata",
    "name_ru": "Буката",
    "name_ar": "بقعاثا",
    "zone": "גולן צפון",
    "zone_en": "North Golan",
    "zone_ru": "Северный Голан",
    "zone_ar": "الجولان الشمالي",
    "time": "מיידי",
    "time_en": "Immediately",
    "time_ru": "Немедленно",
    "time_ar": "في الحال",
    "countdown": 0,
    "lat": 33.20215,
    "lng": 35.7817,
    "value": "בוקעתא"
  },
  {
    "id": 927,
    "name": "בורגתה",
    "name_en": "Burgata",
    "name_ru": "Бургата",
    "name_ar": "بورجاتا",
    "zone": "שרון",
    "zone_en": "Sharon",
    "zone_ru": "Шарон",
    "zone_ar": "شارون",
    "time": "דקה וחצי",
    "time_en": "A minute and a half",
    "time_ru": "Полторы минуты",
    "time_ar": "دقيقة ونصف",
    "countdown": 90,
    "lat": 32.32515,
    "lng": 34.96205,
    "value": "בורגתה"
  },
  {
    "id": 944,
    "name": "בחן",
    "name_en": "Bahan",
    "name_ru": "Бахан",
    "name_ar": "بلدة بوحن",
    "zone": "שרון",
    "zone_en": "Sharon",
    "zone_ru": "Шарон",
    "zone_ar": "شارون",
    "time": "דקה וחצי",
    "time_en": "A minute and a half",
    "time_ru": "Полторы минуты",
    "time_ar": "دقيقة ونصف",
    "countdown": 90,
    "lat": 32.3507,
    "lng": 35.01955,
    "value": "בחן"
  },
  {
    "id": 173,
    "name": "בטחה",
    "name_en": "Bitha",
    "name_ru": "Битха",
    "name_ar": "بطحا",
    "zone": "מערב הנגב",
    "zone_en": "West Negev",
    "zone_ru": "Западный Негев",
    "zone_ar": "النقب الغربي",
    "time": "45 שניות",
    "time_en": "45 seconds",
    "time_ru": "45 секунд",
    "time_ar": "٤٥ ثانية",
    "countdown": 45,
    "lat": 31.34305,
    "lng": 34.6329,
    "value": "בטחה"
  },
  {
    "id": 470,
    "name": "ביצרון",
    "name_en": "Bitzaron",
    "name_ru": "Бицарон",
    "name_ar": "بيتسرون",
    "zone": "לכיש",
    "zone_en": "Lachish",
    "zone_ru": "Лахиш",
    "zone_ar": "لخيش",
    "time": "דקה",
    "time_en": "A minute",
    "time_ru": "Минута",
    "time_ar": "دقيقة",
    "countdown": 60,
    "lat": 31.797,
    "lng": 34.73115,
    "value": "ביצרון"
  },
  {
    "id": 1285,
    "name": "ביר אלמכסור",
    "name_en": "Bir Al-Maksur",
    "name_ru": "Бир аль-Максур",
    "name_ar": "بئر المكسور",
    "zone": "מרכז הגליל",
    "zone_en": "Center Galilee",
    "zone_ru": "Центральная Галилея",
    "zone_ar": "مركز الجليل",
    "time": "דקה",
    "time_en": "A minute",
    "time_ru": "Минута",
    "time_ar": "دقيقة",
    "countdown": 60,
    "lat": 32.78285,
    "lng": 35.2232,
    "value": "ביר אלמכסור"
  },
  {
    "id": 78,
    "name": "ביר הדאג'",
    "name_en": "Bir Hadaj",
    "name_ru": "Бир Хададж",
    "name_ar": "بئر هداج",
    "zone": "דרום הנגב",
    "zone_en": "South Negev",
    "zone_ru": "Южный Негев",
    "zone_ar": "جنوب النقب",
    "time": "דקה וחצי",
    "time_en": "A minute and a half",
    "time_ru": "Полторы минуты",
    "time_ar": "دقيقة ونصف",
    "countdown": 90,
    "lat": 31.03015,
    "lng": 34.7208,
    "value": "ביר הדאג'"
  },
  {
    "id": 1503,
    "name": "ביריה",
    "name_en": "Biriyeh",
    "name_ru": "Бирия",
    "name_ar": "بيريه",
    "zone": "גליל עליון",
    "zone_en": "Upper Galilee",
    "zone_ru": "Верхняя Галилея",
    "zone_ar": "الجليل الأعلى",
    "time": "30 שניות",
    "time_en": "30 seconds",
    "time_ru": "30 секунд",
    "time_ar": "۳۰ ثانية",
    "countdown": 30,
    "lat": 32.9815,
    "lng": 35.49965,
    "value": "ביריה"
  },
  {
    "id": 1240,
    "name": "בית אורן",
    "name_en": "Beit Oren",
    "name_ru": "Бейт Орен",
    "name_ar": "بيت أورن",
    "zone": "הכרמל",
    "zone_en": "HaCarmel",
    "zone_ru": "Ха-Кармель",
    "zone_ar": "الكرمل",
    "time": "דקה",
    "time_en": "A minute",
    "time_ru": "Минута",
    "time_ar": "دقيقة",
    "countdown": 60,
    "lat": 32.73165,
    "lng": 35.00395,
    "value": "בית אורן"
  },
  {
    "id": 1822,
    "name": "בית אל",
    "name_en": "Beit El",
    "name_ru": "Бейт Эль",
    "name_ar": "بيت إيلا",
    "zone": "שומרון",
    "zone_en": "Shomron",
    "zone_ru": "Самария",
    "zone_ar": "السامرة",
    "time": "דקה וחצי",
    "time_en": "A minute and a half",
    "time_ru": "Полторы минуты",
    "time_ar": "دقيقة ونصف",
    "countdown": 90,
    "lat": 31.9402,
    "lng": 35.22455,
    "value": "בית אל"
  },
  {
    "id": 544,
    "name": "בית אלעזרי",
    "name_en": "Beit Elazari",
    "name_ru": "Бейт Эльазари",
    "name_ar": "بيت اليعزري",
    "zone": "לכיש",
    "zone_en": "Lachish",
    "zone_ru": "Лахиш",
    "zone_ar": "لخيش",
    "time": "דקה",
    "time_en": "A minute",
    "time_ru": "Минута",
    "time_ar": "دقيقة",
    "countdown": 60,
    "lat": 31.8447,
    "lng": 34.8029,
    "value": "בית אלעזרי"
  },
  {
    "id": 1062,
    "name": "בית אלפא וחפציבה",
    "name_en": "Beit Alfa And Heftziba",
    "name_ru": "Бейт Альфа и Хефциба",
    "name_ar": "بيت ألفا وحفتسفا",
    "zone": "בקעת בית שאן",
    "zone_en": "Beit She'an Valley",
    "zone_ru": "Бикъат Бейт Шеан",
    "zone_ar": "بيكعات بيت شان",
    "time": "דקה",
    "time_en": "A minute",
    "time_ru": "Минута",
    "time_ar": "دقيقة",
    "countdown": 60,
    "lat": 32.51705,
    "lng": 35.42785,
    "value": "בית אלפא וחפציבה"
  },
  {
    "id": 728,
    "name": "בית אריה",
    "name_en": "Beit Arie",
    "name_ru": "Бейт Арье",
    "name_ar": "بيت أريه",
    "zone": "שומרון",
    "zone_en": "Shomron",
    "zone_ru": "Самария",
    "zone_ar": "السامرة",
    "time": "דקה וחצי",
    "time_en": "A minute and a half",
    "time_ru": "Полторы минуты",
    "time_ar": "دقيقة ونصف",
    "countdown": 90,
    "lat": 32.03725,
    "lng": 35.0529,
    "value": "בית אריה"
  },
  {
    "id": 858,
    "name": "בית ברל",
    "name_en": "Beit Berl",
    "name_ru": "Бейт Берл",
    "name_ar": "بيت بيرل",
    "zone": "שרון",
    "zone_en": "Sharon",
    "zone_ru": "Шарон",
    "zone_ar": "شارون",
    "time": "דקה וחצי",
    "time_en": "A minute and a half",
    "time_ru": "Полторы минуты",
    "time_ar": "دقيقة ونصف",
    "countdown": 90,
    "lat": 32.2013,
    "lng": 34.92645,
    "value": "בית ברל"
  },
  {
    "id": 1474,
    "name": "בית ג'אן",
    "name_en": "Beit Jann",
    "name_ru": "Бейт Джан",
    "name_ar": "بيت جن",
    "zone": "גליל עליון",
    "zone_en": "Upper Galilee",
    "zone_ru": "Верхняя Галилея",
    "zone_ar": "الجليل الأعلى",
    "time": "30 שניות",
    "time_en": "30 seconds",
    "time_ru": "30 секунд",
    "time_ar": "۳۰ ثانية",
    "countdown": 30,
    "lat": 32.96555,
    "lng": 35.3782,
    "value": "בית ג'אן"
  },
  {
    "id": 301,
    "name": "בית גוברין",
    "name_en": "Beit Guvrin",
    "name_ru": "Бейт Говрин",
    "name_ar": "بيت جوبرين",
    "zone": "שפלת יהודה",
    "zone_en": "Shfelat Yehuda",
    "zone_ru": "Шфелат Йегуда",
    "zone_ar": "شيفلات يهودا",
    "time": "דקה",
    "time_en": "A minute",
    "time_ru": "Минута",
    "time_ar": "دقيقة",
    "countdown": 60,
    "lat": 31.6109,
    "lng": 34.89385,
    "value": "בית גוברין"
  },
  {
    "id": 558,
    "name": "בית גמליאל",
    "name_en": "Beit Gamliel",
    "name_ru": "Бейт Гамлиэль",
    "name_ar": "بيت جمليئل",
    "zone": "לכיש",
    "zone_en": "Lachish",
    "zone_ru": "Лахиш",
    "zone_ar": "لخيش",
    "time": "דקה",
    "time_en": "A minute",
    "time_ru": "Минута",
    "time_ar": "دقيقة",
    "countdown": 60,
    "lat": 31.85805,
    "lng": 34.7615,
    "value": "בית גמליאל"
  },
  {
    "id": 1860,
    "name": "בית דגן",
    "name_en": "Beit Dagan",
    "name_ru": "Бейт Даган",
    "name_ar": "بيت دجان",
    "zone": "השפלה",
    "zone_en": "HaShfela",
    "zone_ru": "Ха-Шфела",
    "zone_ar": "هشفيلاه",
    "time": "דקה וחצי",
    "time_en": "A minute and a half",
    "time_ru": "Полторы минуты",
    "time_ar": "دقيقة ونصف",
    "countdown": 90,
    "lat": 31.99835,
    "lng": 34.83,
    "value": "בית דגן"
  },
  {
    "id": 1760,
    "name": "בית הגדי",
    "name_en": "Beit HaGdi",
    "name_ru": "Бейт ха-Гди",
    "name_ar": "وبيت هجدي",
    "zone": "מערב הנגב",
    "zone_en": "West Negev",
    "zone_ru": "Западный Негев",
    "zone_ar": "النقب الغربي",
    "time": "30 שניות",
    "time_en": "30 seconds",
    "time_ru": "30 секунд",
    "time_ar": "۳۰ ثانية",
    "countdown": 30,
    "lat": 31.42955,
    "lng": 34.60565,
    "value": "בית הגדי"
  },
  {
    "id": 943,
    "name": "בית הלוי",
    "name_en": "Beit HaLevi",
    "name_ru": "Бейт ха-Леви",
    "name_ar": "بيت هليفي",
    "zone": "שרון",
    "zone_en": "Sharon",
    "zone_ru": "Шарон",
    "zone_ar": "شارون",
    "time": "דקה וחצי",
    "time_en": "A minute and a half",
    "time_ru": "Полторы минуты",
    "time_ar": "دقيقة ونصف",
    "countdown": 90,
    "lat": 32.35375,
    "lng": 34.9314,
    "value": "בית הלוי"
  },
  {
    "id": 1640,
    "name": "בית הלל",
    "name_en": "Beit Hillel",
    "name_ru": "Бейт Хилель",
    "name_ar": "بيت هيلل",
    "zone": "קו העימות",
    "zone_en": "Confrontation Line",
    "zone_ru": "Кав Ха-Имут",
    "zone_ar": "خط المواجهة",
    "time": "מיידי",
    "time_en": "Immediately",
    "time_ru": "Немедленно",
    "time_ar": "في الحال",
    "countdown": 0,
    "lat": 33.21055,
    "lng": 35.60665,
    "value": "בית הלל"
  },
  {
    "id": 2007,
    "name": "בית העלמין החדש נהריה",
    "name_en": "Nahariya Cemetery",
    "name_ru": "Кладбище Нагария",
    "name_ar": "مقبرة نهريا",
    "zone": "קו העימות",
    "zone_en": "Confrontation Line",
    "zone_ru": "Кав Ха-Имут",
    "zone_ar": "خط المواجهة",
    "time": "30 שניות",
    "time_en": "30 seconds",
    "time_ru": "30 секунд",
    "time_ar": "۳۰ ثانية",
    "countdown": 30,
    "lat": 33.0048929,
    "lng": 35.1469885,
    "value": "בית העלמין החדש נהריה"
  },