[
  {
    "id": 0,
    "name": "בחר הכל",
    "name_en": "Select All",
    "name_ru": "Выбрать все",
    "name_ar": "اختر الكل",
    "zone": "",
    "zone_en": "",
    "zone_ru": "",
    "zone_ar": "",
    "countdown": 0,
    "lat": 0,
    "lng": 0,
    "value": "all"
  },
  {
    "id": 511,
    "name": "אבו גוש",
    "name_en": "Abu Ghosh",
    "name_ru": "Абу-Гош",
    "name_ar": "ابو غوش",
    "zone": "שפלת יהודה",
    "zone_en": "Shfelat Yehuda",
    "zone_ru": "Шфелат Йегуда",
    "zone_ar": "شيفلات يهودا",
    "countdown": 90,
    "lat": 31.80686,
    "lng": 35.11038,
    "value": "אבו גוש"
  },
  {
    "id": 2024,
    "name": "אבו נוור",
    "name_en": "Abu-Nuwar",
    "name_ru": "Абу Навер",
    "name_ar": "أبو نور",
    "zone": "יהודה",
    "zone_en": "Yehuda",
    "zone_ru": "Йегуда",
    "zone_ar": "يهودا",
    "countdown": 90,
    "lat": 31.7621,
    "lng": 35.29383,
    "value": "אבו נוור"
  },
  {
    "id": 1470,
    "name": "אבו סנאן",
    "name_en": "Abu Snan",
    "name_ru": "Абу Снан",
    "name_ar": "ابو سنان",
    "zone": "גליל עליון",
    "zone_en": "Upper Galilee",
    "zone_ru": "Верхняя Галилея",
    "zone_ar": "الجليل الأعلى",
    "countdown": 30,
    "lat": 32.96225,
    "lng": 35.16781,
    "value": "אבו סנאן"
  },
  {
    "id": 92,
    "name": "אבו קרינאת",
    "name_en": "Abu Qrenat",
    "name_ru": "Абу Кренат",
    "name_ar": "أبو كرينات وضواحيها",
    "zone": "דרום הנגב",
    "zone_en": "South Negev",
    "zone_ru": "Южный Негев",
    "zone_ar": "جنوب النقب",
    "countdown": 90,
    "lat": 31.1253,
    "lng": 34.96838,
    "value": "אבו קרינאת"
  },
  {
    "id": 103,
    "name": "אבו תלול",
    "name_en": "Abu Talul",
    "name_ru": "Абу Талуль",
    "name_ar": "أبو تلول",
    "zone": "דרום הנגב",
    "zone_en": "South Negev",
    "zone_ru": "Южный Негев",
    "zone_ar": "جنوب النقب",
    "countdown": 90,
    "lat": 31.19078,
    "lng": 34.91612,
    "value": "אבו תלול"
  },
  {
    "id": 1363,
    "name": "אבטליון",
    "name_en": "Avtalion",
    "name_ru": "Авталион",
    "name_ar": "افتليون",
    "zone": "מרכז הגליל",
    "zone_en": "Center Galilee",
    "zone_ru": "Центральная Галилея",
    "zone_ar": "مركز الجليل",
    "countdown": 60,
    "lat": 32.83684,
    "lng": 35.35085,
    "value": "אבטליון"
  },
  {
    "id": 1065,
    "name": "אביאל",
    "name_en": "Aviel",
    "name_ru": "Авиэль",
    "name_ar": "أفيئيل",
    "zone": "מנשה",
    "zone_en": "Menashe",
    "zone_ru": "Менаше",
    "zone_ar": "مناشيه",
    "countdown": 90,
    "lat": 32.53142,
    "lng": 34.99265,
    "value": "אביאל"
  },
  {
    "id": 1604,
    "name": "אביבים",
    "name_en": "Avivim",
    "name_ru": "Авивим",
    "name_ar": "أفيفيم",
    "zone": "קו העימות",
    "zone_en": "Confrontation Line",
    "zone_ru": "Линия противостояния",
    "zone_ar": "خط المواجهة",
    "countdown": 0,
    "lat": 33.0881,
    "lng": 35.47187,
    "value": "אביבים"
  },
  {
    "id": 373,
    "name": "אביגדור",
    "name_en": "Avigdor",
    "name_ru": "Авигдор",
    "name_ar": "افيغدور",
    "zone": "לכיש",
    "zone_en": "Lachish",
    "zone_ru": "Лахиш",
    "zone_ar": "لخيش",
    "countdown": 45,
    "lat": 31.70919,
    "lng": 34.74202,
    "value": "אביגדור"
  },
  {
    "id": 940,
    "name": "אביחיל",
    "name_en": "Avihail",
    "name_ru": "Авихайль",
    "name_ar": "افيحايل",
    "zone": "שרון",
    "zone_en": "Sharon",
    "zone_ru": "Шарон",
    "zone_ar": "شارون",
    "countdown": 90,
    "lat": 32.3508,
    "lng": 34.8721,
    "value": "אביחיל"
  },
  {
    "id": 359,
    "name": "אביעזר",
    "name_en": "Aviezer",
    "name_ru": "Авиэзер",
    "name_ar": "افيعزير",
    "zone": "שפלת יהודה",
    "zone_en": "Shfelat Yehuda",
    "zone_ru": "Шфелат Йегуда",
    "zone_ar": "شيفلات يهودا",
    "countdown": 90,
    "lat": 31.68141,
    "lng": 35.01515,
    "value": "אביעזר"
  },
  {
    "id": 1557,
    "name": "אבירים",
    "name_en": "Abirim",
    "name_ru": "Абирим",
    "name_ar": "أفيريم",
    "zone": "קו העימות",
    "zone_en": "Confrontation Line",
    "zone_ru": "Линия противостояния",
    "zone_ar": "خط المواجهة",
    "countdown": 0,
    "lat": 33.03959,
    "lng": 35.28822,
    "value": "אבירים"
  },
  {
    "id": 891,
    "name": "אבן יהודה",
    "name_en": "Even Yehuda",
    "name_ru": "Эвен Иеуда",
    "name_ar": "ايفين يهودا",
    "zone": "שרון",
    "zone_en": "Sharon",
    "zone_ru": "Шарон",
    "zone_ar": "شارون",
    "countdown": 90,
    "lat": 32.2721,
    "lng": 34.8855,
    "value": "אבן יהודה"
  },
  {
    "id": 1588,
    "name": "אבן מנחם",
    "name_en": "Even Menachem",
    "name_ru": "Эвен Менахем",
    "name_ar": "إيفين مناحيم",
    "zone": "קו העימות",
    "zone_en": "Confrontation Line",
    "zone_ru": "Линия противостояния",
    "zone_ar": "خط المواجهة",
    "countdown": 0,
    "lat": 33.07479,
    "lng": 35.29266,
    "value": "אבן מנחם"
  },
  {
    "id": 443,
    "name": "אבן ספיר",
    "name_en": "Even Sapir",
    "name_ru": "Эвен Сапир",
    "name_ar": "ايفين سفير",
    "zone": "ירושלים",
    "zone_en": "Jerusalem",
    "zone_ru": "Иерусалим",
    "zone_ar": "أورشليمالقدس",
    "countdown": 90,
    "lat": 31.76361,
    "lng": 35.13393,
    "value": "אבן ספיר"
  },
  {
    "id": 278,
    "name": "אבן שמואל",
    "name_en": "Even Shmuel",
    "name_ru": "Эвен Шмуэль",
    "name_ar": "ايفين شموئيل",
    "zone": "לכיש",
    "zone_en": "Lachish",
    "zone_ru": "Лахиш",
    "zone_ar": "لخيش",
    "countdown": 30,
    "lat": 31.57495,
    "lng": 34.76537,
    "value": "אבן שמואל"
  },
  {
    "id": 1359,
    "name": "אבני איתן",
    "name_en": "Avnei Eitan",
    "name_ru": "Авней Эйтан",
    "name_ar": "أفني ايتان",
    "zone": "גולן דרום",
    "zone_en": "South Golan",
    "zone_ru": "Южный Голан",
    "zone_ar": "الجولان الجنوبي",
    "countdown": 0,
    "lat": 32.82269,
    "lng": 35.76613,
    "value": "אבני איתן"
  },
  {
    "id": 911,
    "name": "אבני חפץ",
    "name_en": "Avnei Hefetz",
    "name_ru": "Авней Хефец",
    "name_ar": "أفني حيفتس",
    "zone": "שומרון",
    "zone_en": "Shomron",
    "zone_ru": "Самария",
    "zone_ar": "سامره",
    "countdown": 90,
    "lat": 32.28701,
    "lng": 35.0766,
    "value": "אבני חפץ"
  },
  {
    "id": 372,
    "name": "אבנת",
    "name_en": "Avnat",
    "name_ru": "Авнат",
    "name_ar": "ايفنات",
    "zone": "ים המלח",
    "zone_en": "Dead Sea",
    "zone_ru": "Мёртвое море",
    "zone_ar": "البحر الميت",
    "countdown": 90,
    "lat": 31.67752,
    "lng": 35.43718,
    "value": "אבנת"
  },
  {
    "id": 109,
    "name": "אבשלום",
    "name_en": "Avshalom",
    "name_ru": "Авшалом",
    "name_ar": "افيشالوم",
    "zone": "עוטף עזה",
    "zone_en": "Gaza Envelope",
    "zone_ru": "Граница с Газой",
    "zone_ar": "غلاف غزة",
    "countdown": 15,
    "lat": 31.19307,
    "lng": 34.33044,
    "value": "אבשלום"
  },
  {
    "id": 271,
    "name": "אדורה",
    "name_en": "Adora",
    "name_ru": "Адора",
    "name_ar": "ادورا",
    "zone": "יהודה",
    "zone_en": "Yehuda",
    "zone_ru": "Йегуда",
    "zone_ar": "يهودا",
    "countdown": 90,
    "lat": 31.55361,
    "lng": 35.01712,
    "value": "אדורה"
  },
  {
    "id": 1883,
    "name": "אדוריים",
    "name_en": "Adorayim",
    "name_ru": "Адораим",
    "name_ar": "أدورايم",
    "zone": "יהודה",
    "zone_en": "Yehuda",
    "zone_ru": "Йегуда",
    "zone_ar": "يهودا",
    "countdown": 90,
    "lat": 31.48645,
    "lng": 35.04351,
    "value": "אדוריים"
  },
  {
    "id": 1592,
    "name": "אדמית",
    "name_en": "Idmit",
    "name_ru": "Идмит",
    "name_ar": "أدميت",
    "zone": "קו העימות",
    "zone_en": "Confrontation Line",
    "zone_ru": "Линия противостояния",
    "zone_ar": "خط المواجهة",
    "countdown": 0,
    "lat": 33.07944,
    "lng": 35.20884,
    "value": "אדמית"
  },
  {
    "id": 339,
    "name": "אדרת",
    "name_en": "Aderet",
    "name_ru": "Адерет",
    "name_ar": "ادرت",
    "zone": "שפלת יהודה",
    "zone_en": "Shfelat Yehuda",
    "zone_ru": "Шфелат Йегуда",
    "zone_ar": "شيفلات يهودا",
    "countdown": 90,
    "lat": 31.66034,
    "lng": 34.99438,
    "value": "אדרת"
  },
  {
    "id": 889,
    "name": "אודים",
    "name_en": "Udim",
    "name_ru": "Удим",
    "name_ar": "اوديم",
    "zone": "שרון",
    "zone_en": "Sharon",
    "zone_ru": "Шарон",
    "zone_ar": "شارون",
    "countdown": 90,
    "lat": 32.26466,
    "lng": 34.84463,
    "value": "אודים"
  },
  {
    "id": 1639,
    "name": "אודם",
    "name_en": "Odem",
    "name_ru": "Одем",
    "name_ar": "اودم",
    "zone": "גולן צפון",
    "zone_en": "North Golan",
    "zone_ru": "Северный Голан",
    "zone_ar": "الجولان الشمالي",
    "countdown": 0,
    "lat": 33.1942,
    "lng": 35.74914,
    "value": "אודם"
  },
  {
    "id": 1047,
    "name": "אום אל פחם",
    "name_en": "Umm Al-Fahm",
    "name_ru": "Ум аль Фахм",
    "name_ar": "ام الفحم",
    "zone": "ואדי ערה",
    "zone_en": "Wadi Ara",
    "zone_ru": "Вади Ара",
    "zone_ar": "وادي عارة",
    "countdown": 90,
    "lat": 32.52112,
    "lng": 35.15005,
    "value": "אום אל פחם"
  },
  {
    "id": 1015,
    "name": "אום אל קוטוף",
    "name_en": "Umm Al-Qutuf",
    "name_ru": "Ум аль Кутуф",
    "name_ar": "ام القطف",
    "zone": "ואדי ערה",
    "zone_en": "Wadi Ara",
    "zone_ru": "Вади Ара",
    "zone_ar": "وادي عارة",
    "countdown": 90,
    "lat": 32.46886,
    "lng": 35.06025,
    "value": "אום אל קוטוף"
  },
  {
    "id": 1187,
    "name": "אום אלג'נם",
    "name_en": "Umm Al-Ghanam",
    "name_ru": "Ум аль Ганам",
    "name_ar": "ام الغنم",
    "zone": "העמקים",
    "zone_en": "HaAmakim",
    "zone_ru": "Ха-Амаким",
    "zone_ar": "هعماكيم",
    "countdown": 60,
    "lat": 32.68676,
    "lng": 35.39022,
    "value": "אום אלג'נם"
  },
  {
    "id": 144,
    "name": "אום בטין",
    "name_en": "Umm Batin",
    "name_ru": "Ум Батин",
    "name_ar": "أم بطين",
    "zone": "מרכז הנגב",
    "zone_en": "Center Negev",
    "zone_ru": "Центральный Негев",
    "zone_ar": "مركز النقب",
    "countdown": 90,
    "lat": 31.2694,
    "lng": 34.87887,
    "value": "אום בטין"
  },
  {
    "id": 155,
    "name": "אופקים",
    "name_en": "Ofakim",
    "name_ru": "Офаким",
    "name_ar": "أوفكيم",
    "zone": "מערב הנגב",
    "zone_en": "West Negev",
    "zone_ru": "Западный Негев",
    "zone_ar": "غرب النقب",
    "countdown": 45,
    "lat": 31.30838,
    "lng": 34.6301,
    "value": "אופקים"
  },
  {
    "id": 1538,
    "name": "אור הגנוז",
    "name_en": "Or HaGanuz",
    "name_ru": "Ор ха-Гануз",
    "name_ar": "أور هغنوز",
    "zone": "גליל עליון",
    "zone_en": "Upper Galilee",
    "zone_ru": "Верхняя Галилея",
    "zone_ar": "الجليل الأعلى",
    "countdown": 30,
    "lat": 33.00492,
    "lng": 35.44608,
    "value": "אור הגנוז"
  },
  {
    "id": 266,
    "name": "אור הנר",
    "name_en": "Or HaNer",
    "name_ru": "Ор ха-Нер",
    "name_ar": "أور هنير",
    "zone": "עוטף עזה",
    "zone_en": "Gaza Envelope",
    "zone_ru": "Граница с Газой",
    "zone_ar": "غلاف غزة",
    "countdown": 15,
    "lat": 31.55781,
    "lng": 34.59999,
    "value": "אור הנר"
  },
  {
    "id": 716,
    "name": "אור יהודה",
    "name_en": "Or Yehuda",
    "name_ru": "Ор Иеуда",
    "name_ar": "أور يهودا",
    "zone": "דן",
    "zone_en": "Dan",
    "zone_ru": "Дан",
    "zone_ar": "دان",
    "countdown": 90,
    "lat": 32.0292,
    "lng": 34.84842,
    "value": "אור יהודה"
  },
  {
    "id": 1044,
    "name": "אור עקיבא",
    "name_en": "Or Akiva",
    "name_ru": "Ор Акива",
    "name_ar": "أور عكيفا",
    "zone": "מנשה",
    "zone_en": "Menashe",
    "zone_ru": "Менаше",
    "zone_ar": "مناشيه",
    "countdown": 90,
    "lat": 32.50231,
    "lng": 34.9219,
    "value": "אור עקיבא"
  },
  {
    "id": 429,
    "name": "אורה",
    "name_en": "Ora",
    "name_ru": "Ора",
    "name_ar": "أورة",
    "zone": "ירושלים",
    "zone_en": "Jerusalem",
    "zone_ru": "Иерусалим",
    "zone_ar": "أورشليمالقدس",
    "countdown": 90,
    "lat": 31.75307,
    "lng": 35.15256,
    "value": "אורה"
  },
  {
    "id": 1769,
    "name": "אורון תעשייה ומסחר",
    "name_en": "Oron Industrial Zone",
    "name_ru": "Орон Промышленность и торговля",
    "name_ar": "أورون صناعة وتجارة",
    "zone": "דרום הנגב",
    "zone_en": "South Negev",
    "zone_ru": "Южный Негев",
    "zone_ar": "جنوب النقب",
    "countdown": 90,
    "lat": 30.91151,
    "lng": 35.0177,
    "value": "אורון תעשייה ומסחר"
  },
  {
    "id": 407,
    "name": "אורות",
    "name_en": "Orot",
    "name_ru": "Орот",
    "name_ar": "أوروت",
    "zone": "לכיש",
    "zone_en": "Lachish",
    "zone_ru": "Лахиш",
    "zone_ar": "لخيش",
    "countdown": 45,
    "lat": 31.74219,
    "lng": 34.73428,
    "value": "אורות"
  },
  {
    "id": 1606,
    "name": "אורטל",
    "name_en": "Ortal",
    "name_ru": "Орталь",
    "name_ar": "أورطال",
    "zone": "גולן צפון",
    "zone_en": "North Golan",
    "zone_ru": "Северный Голан",
    "zone_ar": "الجولان الشمالي",
    "countdown": 0,
    "lat": 33.08481,
    "lng": 35.76076,
    "value": "אורטל"
  },
  {
    "id": 158,
    "name": "אורים",
    "name_en": "Urim",
    "name_ru": "Урим",
    "name_ar": "أوريم",
    "zone": "מערב הנגב",
    "zone_en": "West Negev",
    "zone_ru": "Западный Негев",
    "zone_ar": "غرب النقب",
    "countdown": 30,
    "lat": 31.30445,
    "lng": 34.52336,
    "value": "אורים"
  },
  {
    "id": 1216,
    "name": "אורנים",
    "name_en": "Oranim",
    "name_ru": "Ораним",
    "name_ar": "أورنيم",
    "zone": "העמקים",
    "zone_en": "HaAmakim",
    "zone_ru": "Ха-Амаким",
    "zone_ar": "هعماكيم",
    "countdown": 60,
    "lat": 32.7127,
    "lng": 35.10832,
    "value": "אורנים"
  },
  {
    "id": 804,
    "name": "אורנית",
    "name_en": "Oranit",
    "name_ru": "Оранит",
    "name_ar": "أورنيت",
    "zone": "שרון",
    "zone_en": "Sharon",
    "zone_ru": "Шарон",
    "zone_ar": "شارون",
    "countdown": 90,
    "lat": 32.12886,
    "lng": 34.99039,
    "value": "אורנית"
  },
  {
    "id": 1319,
    "name": "אושה",
    "name_en": "Usha",
    "name_ru": "Уша",
    "name_ar": "أوشة",
    "zone": "המפרץ",
    "zone_en": "HaMifratz",
    "zone_ru": "Ха-Мифрац",
    "zone_ar": "همفراتس",
    "countdown": 60,
    "lat": 32.79629,
    "lng": 35.11356,
    "value": "אושה"
  },
  {
    "id": 709,
    "name": "אזור",
    "name_en": "Azor",
    "name_ru": "Азор",
    "name_ar": "آزور",
    "zone": "דן",
    "zone_en": "Dan",
    "zone_ru": "Дан",
    "zone_ar": "دان",
    "countdown": 90,
    "lat": 32.02304,
    "lng": 34.8088,
    "value": "אזור"
  },
  {
    "id": 1141,
    "name": "אזור תעשייה אלון התבור",
    "name_en": "Industrial Area Alon Hatovor",
    "name_ru": "Промышленная зона Алон Ха-Тавор",
    "name_ar": "المنطقة الصناعية ألون هتافور",
    "zone": "העמקים",
    "zone_en": "HaAmakim",
    "zone_ru": "Ха-Амаким",
    "zone_ar": "هعماكيم",
    "countdown": 60,
    "lat": 32.63534,
    "lng": 35.36067,
    "value": "אזור תעשייה אלון התבור"
  },
  {
    "id": 792,
    "name": "אזור תעשייה אפק ולב הארץ",
    "name_en": "Afek And Lev Ha\"aretz Industrial Zone",
    "name_ru": "Промзона Афек и Лев ха-Арец",
    "name_ar": "المنطقة الصناعية أفيك وليف",
    "zone": "ירקון",
    "zone_en": "Yarkon",
    "zone_ru": "Яркон",
    "zone_ar": "اليركون",
    "countdown": 90,
    "lat": 32.10878,
    "lng": 34.95365,
    "value": "אזור תעשייה אפק ולב הארץ"
  },
  {
    "id": 1942,
    "name": "אזור תעשייה אריאל",
    "name_en": "Ariel Industrial Park",
    "name_ru": "Промзона Ариэль",
    "name_ar": "المنطقة الصناعية اريئيل",
    "zone": "שומרון",
    "zone_en": "Shomron",
    "zone_ru": "Самария",
    "zone_ar": "سامره",
    "countdown": 90,
    "lat": 32.09407,
    "lng": 35.12347,
    "value": "אזור תעשייה אריאל"
  },
  {
    "id": 384,
    "name": "אזור תעשייה באר טוביה",
    "name_en": "Industrial Area Be'er Tovia",
    "name_ru": "Промышленная зона Беэр Тувия",
    "name_ar": "المنطقة الصناعية بئر توفيا",
    "zone": "לכיש",
    "zone_en": "Lachish",
    "zone_ru": "Лахиш",
    "zone_ar": "لخيش",
    "countdown": 45,
    "lat": 31.72413,
    "lng": 34.75072,
    "value": "אזור תעשייה באר טוביה"
  },
  {
    "id": 1343,
    "name": "אזור תעשייה בני יהודה",
    "name_en": "Bnei Yehuda Industrial Zone",
    "name_ru": "Промзона Бней Йехуда",
    "name_ar": "المنطقة الصناعية بني يهودا",
    "zone": "גולן דרום",
    "zone_en": "South Golan",
    "zone_ru": "Южный Голан",
    "zone_ar": "الجولان الجنوبي",
    "countdown": 0,
    "lat": 32.80274,
    "lng": 35.71711,
    "value": "אזור תעשייה בני יהודה"
  },
  {
    "id": 1415,
    "name": "אזור תעשייה בר-לב",
    "name_en": "Bar Lev Industrial Zone",
    "name_ru": "Промзона Бар-Лев",
    "name_ar": "المنطقة الصناعية بار- ليف",
    "zone": "גליל עליון",
    "zone_en": "Upper Galilee",
    "zone_ru": "Верхняя Галилея",
    "zone_ar": "الجليل الأعلى",
    "countdown": 60,
    "lat": 32.90567,
    "lng": 35.19401,
    "value": "אזור תעשייה בר-לב"
  },
  {
    "id": 883,
    "name": "אזור תעשייה בראון",
    "name_en": "Bar On Industrial Zone",
    "name_ru": "Промзона Бар Он",
    "name_ar": "المنطقة الصناعية برأون",
    "zone": "שומרון",
    "zone_en": "Shomron",
    "zone_ru": "Самария",
    "zone_ar": "سامره",
    "countdown": 90,
    "lat": 32.24534,
    "lng": 35.16914,
    "value": "אזור תעשייה בראון"
  },
  {
    "id": 399,
    "name": "אזור תעשייה ברוש",
    "name_en": "Brosh Industrial Zone",
    "name_ru": "Промзона Брош",
    "name_ar": "المنطقة الصناعية بروش",
    "zone": "שפלת יהודה",
    "zone_en": "Shfelat Yehuda",
    "zone_ru": "Шфелат Йегуда",
    "zone_ar": "شيفلات يهودا",
    "countdown": 90,
    "lat": 31.73547,
    "lng": 34.95497,
    "value": "אזור תעשייה ברוש"
  },
  {
    "id": 1933,
    "name": "אזור תעשייה ברקן",
    "name_en": "Barkan Industrial Park",
    "name_ru": "Промзона Баркан",
    "name_ar": "المنطقة الصناعية بركان",
    "zone": "שומרון",
    "zone_en": "Shomron",
    "zone_ru": "Самария",
    "zone_ar": "سامره",
    "countdown": 90,
    "lat": 32.1052,
    "lng": 35.11999,
    "value": "אזור תעשייה ברקן"
  },
  {
    "id": 2195,
    "name": "אזור תעשייה גדרה",
    "name_en": "Gedera Industrial Area",
    "name_ru": "Индустриальная Зона, Гедера",
    "name_ar": "المنطقة الصناعية جديرا",
    "zone": "לכיש",
    "zone_en": "Lachish",
    "zone_ru": "Лахиш",
    "zone_ar": "لخيش",
    "countdown": 60,
    "lat": 31.7996,
    "lng": 34.76775,
    "value": "אזור תעשייה גדרה"
  },
  {
    "id": 87,
    "name": "אזור תעשייה דימונה",
    "name_en": "Dimona Industrial Zone",
    "name_ru": "Промзона Димона",
    "name_ar": "المنطقة الصناعية ديمونا",
    "zone": "דרום הנגב",
    "zone_en": "South Negev",
    "zone_ru": "Южный Негев",
    "zone_ar": "جنوب النقب",
    "countdown": 90,
    "lat": 31.05943,
    "lng": 35.01285,
    "value": "אזור תעשייה דימונה"
  },
  {
    "id": 305,
    "name": "אזור תעשייה הדרומי אשקלון",
    "name_en": "Ashkelon Southern Industrial Zone",
    "name_ru": "Южная промзона Ашкелона",
    "name_ar": "المنطقة الصناعية الجنوبية",
    "zone": "מערב לכיש",
    "zone_en": "West Lachish",
    "zone_ru": "Западный Лахиш",
    "zone_ar": "غرب لاخيش",
    "countdown": 30,
    "lat": 31.63324,
    "lng": 34.54133,
    "value": "אזור תעשייה הדרומי אשקלון"
  },
  {
    "id": 441,
    "name": "אזור תעשייה הר טוב - צרעה",
    "name_en": "Har Tuv - Tzora Industrial Zone",
    "name_ru": "Промзона Хар Тув - Цроа",
    "name_ar": "المنطقة الصناعية - تسارعا",
    "zone": "שפלת יהודה",
    "zone_en": "Shfelat Yehuda",
    "zone_ru": "Шфелат Йегуда",
    "zone_ar": "شيفلات يهودا",
    "countdown": 90,
    "lat": 31.76792,
    "lng": 34.99138,
    "value": "אזור תעשייה הר טוב - צרעה"
  },
  {
    "id": 704,
    "name": "אזור תעשייה חבל מודיעין",
    "name_en": "Industrial Area Hevel Modi'in",
    "name_ru": "Промышленная зона Хевель Модиин",
    "name_ar": "منطقة الصناعية موديعين",
    "zone": "ירקון",
    "zone_en": "Yarkon",
    "zone_ru": "Яркон",
    "zone_ar": "اليركون",
    "countdown": 90,
    "lat": 32.01334,
    "lng": 34.96004,
    "value": "אזור תעשייה חבל מודיעין"
  },
  {
    "id": 1507,
    "name": "אזור תעשייה חצור הגלילית",
    "name_en": "Hatzor HaGlilit Industrial Zone",
    "name_ru": "Промзона Хацор ха-Глилит",
    "name_ar": "المنطقة الصناعية حتسور هجل",
    "zone": "גליל עליון",
    "zone_en": "Upper Galilee",
    "zone_ru": "Верхняя Галилея",
    "zone_ar": "الجليل الأعلى",
    "countdown": 30,
    "lat": 32.98549,
    "lng": 35.5536,
    "value": "אזור תעשייה חצור הגלילית"
  },
  {
    "id": 1758,
    "name": "אזור תעשייה טירה",
    "name_en": "Tira Industrial Area",
    "name_ru": "Промзона Тира",
    "name_ar": "المنطقة الصناعية طيره.",
    "zone": "שרון",
    "zone_en": "Sharon",
    "zone_ru": "Шарон",
    "zone_ar": "شارون",
    "countdown": 90,
    "lat": 32.22672,
    "lng": 34.9792,
    "value": "אזור תעשייה טירה"
  },
  {
    "id": 1959,
    "name": "אזור תעשייה טמרה",
    "name_en": "Tamra Industiral Park",
    "name_ru": "Промзона Тамра",
    "name_ar": "المنطقة الصناعية طمرة",
    "zone": "מרכז הגליל",
    "zone_en": "Center Galilee",
    "zone_ru": "Центральная Галилея",
    "zone_ar": "مركز الجليل",
    "countdown": 60,
    "lat": 32.83308,
    "lng": 35.16424,
    "value": "אזור תעשייה טמרה"
  },
  {
    "id": 1150,
    "name": "אזור תעשייה יקנעם עילית",
    "name_en": "Yokneam Illit Industrial Zone",
    "name_ru": "Промзона Йокнеам Илит",
    "name_ar": "المنطقة الصناعية يوكنعام ع",
    "zone": "ואדי ערה",
    "zone_en": "Wadi Ara",
    "zone_ru": "Вади Ара",
    "zone_ar": "وادي عارة",
    "countdown": 90,
    "lat": 32.66393,
    "lng": 35.105,
    "value": "אזור תעשייה יקנעם עילית"
  },
  {
    "id": 483,
    "name": "אזור תעשייה כנות",
    "name_en": "Kannot Industrial Zone",
    "name_ru": "Промзона Каннот",
    "name_ar": "المنطقة الصناعية كنوت",
    "zone": "לכיש",
    "zone_en": "Lachish",
    "zone_ru": "Лахиш",
    "zone_ar": "لخيش",
    "countdown": 60,
    "lat": 31.80146,
    "lng": 34.75947,
    "value": "אזור תעשייה כנות"
  },
  {
    "id": 2026,
    "name": "אזור תעשייה כפר יונה",
    "name_en": "Kfar Yona Industrial Zone",
    "name_ru": "Промзона Кфар Йона",
    "name_ar": "المنطقة الصناعية كفر يونه",
    "zone": "שרון",
    "zone_en": "Sharon",
    "zone_ru": "Шарон",
    "zone_ar": "شارون",
    "countdown": 90,
    "lat": 32.31918,
    "lng": 34.91034,
    "value": "אזור תעשייה כפר יונה"
  },
  {
    "id": 1435,
    "name": "אזור תעשייה כרמיאל",
    "name_en": "Carmiel Industrial Zone",
    "name_ru": "Промзона Кармиэль",
    "name_ar": "المنطقة الصناعية كرميئيل",
    "zone": "גליל עליון",
    "zone_en": "Upper Galilee",
    "zone_ru": "Верхняя Галилея",
    "zone_ar": "الجليل الأعلى",
    "countdown": 30,
    "lat": 32.92386,
    "lng": 35.3247,
    "value": "אזור תעשייה כרמיאל"
  },
  {
    "id": 1125,
    "name": "אזור תעשייה מבוא כרמל",
    "name_en": "Mevo Carmel Industrial Zone",
    "name_ru": "Промзона Мево Кармель",
    "name_ar": "المنطقة الصناعية مافو الكر",
    "zone": "ואדי ערה",
    "zone_en": "Wadi Ara",
    "zone_ru": "Вади Ара",
    "zone_ar": "وادي عارة",
    "countdown": 90,
    "lat": 32.61649,
    "lng": 35.07088,
    "value": "אזור תעשייה מבוא כרמל"
  },
  {
    "id": 1096,
    "name": "אזור תעשייה מבואות הגלבוע",
    "name_en": "Mevuot HaGilboa Industrial Zone",
    "name_ru": "Промзона Мевуот ха-Гильбоа",
    "name_ar": "المنطقة الصناعية مبؤوت هجل",
    "zone": "העמקים",
    "zone_en": "HaAmakim",
    "zone_ru": "Ха-Амаким",
    "zone_ar": "هعماكيم",
    "countdown": 60,
    "lat": 32.56808,
    "lng": 35.26696,
    "value": "אזור תעשייה מבואות הגלבוע"
  },
  {
    "id": 1562,
    "name": "אזור תעשייה מילואות צפון",
    "name_en": "Achziv Miluot Industrial Zone",
    "name_ru": "Промзона Ахзив Милуот",
    "name_ar": "المنطقة الصناعية أخزيف ميل",
    "zone": "קו העימות",
    "zone_en": "Confrontation Line",
    "zone_ru": "Кав Ха-Имут",
    "zone_ar": "خط المواجهة",
    "countdown": 0,
    "lat": 33.05905,
    "lng": 35.10585,
    "value": "אזור תעשייה מילואות צפון"
  },
  {
    "id": 478,
    "name": "אזור תעשייה מישור אדומים",
    "name_en": "Industrial Area Mishor Edomim",
    "name_ru": "Промышленная зона Мишор Адумим",
    "name_ar": "المنطقة الصناعية ميشور ادوميم",
    "zone": "יהודה",
    "zone_en": "Yehuda",
    "zone_ru": "Йегуда",
    "zone_ar": "يهودا",
    "countdown": 90,
    "lat": 31.79502,
    "lng": 35.33715,
    "value": "אזור תעשייה מישור אדומים"
  },
  {
    "id": 199,
    "name": "אזור תעשייה מיתרים",
    "name_en": "Meitarim Industrial Zone",
    "name_ru": "Промзона Мейтарим",
    "name_ar": "المنطقة الصناعية ميتاريم",
    "zone": "יהודה",
    "zone_en": "Yehuda",
    "zone_ru": "Йегуда",
    "zone_ar": "يهودا",
    "countdown": 90,
    "lat": 31.36903,
    "lng": 35.00477,
    "value": "אזור תעשייה מיתרים"
  },
  {
    "id": 207,
    "name": "אזור תעשייה נ.ע.מ",
    "name_en": "NAM Industrial Zone",
    "name_ru": "Промышленная зона НАМ",
    "name_ar": "المنطقة الصناعية ن.ع.م",
    "zone": "מערב הנגב",
    "zone_en": "West Negev",
    "zone_ru": "Западный Негев",
    "zone_ar": "غرب النقب",
    "countdown": 30,
    "lat": 31.41373,
    "lng": 34.61461,
    "value": "אזור תעשייה נ.ע.מ"
  },
  {
    "id": 1730,
    "name": "אזור תעשייה ניר עציון",
    "name_en": "Nir Etzion Industrial Area",
    "name_ru": "Промзона Нир Эцион",
    "name_ar": "مجلس اقلمي نير عتسيون",
    "zone": "הכרמל",
    "zone_en": "HaCarmel",
    "zone_ru": "Ха-Кармель",
    "zone_ar": "الكرمل",
    "countdown": 60,
    "lat": 32.70196,
    "lng": 34.97167,
    "value": "אזור תעשייה ניר עציון"
  },
  {
    "id": 1799,
    "name": "אזור תעשייה נשר - רמלה",
    "name_en": "Nesher Industrial Zone (Ramla)",
    "name_ru": "Промзона Нешер (Рамла)",
    "name_ar": "المنطقة الصناعية نيشر (الرم",
    "zone": "השפלה",
    "zone_en": "HaShfela",
    "zone_ru": "Ха-Шфела",
    "zone_ar": "هشفيلاه",
    "countdown": 90,
    "lat": 31.92195,
    "lng": 34.88963,
    "value": "אזור תעשייה נשר - רמלה"
  },
  {
    "id": 425,
    "name": "אזור תעשייה עד הלום",
    "name_en": "Ad Halom Industrial Zone",
    "name_ru": "Промзона Ад Халом",
    "name_ar": "المنطقة الصناعية عاد هلوم",
    "zone": "לכיש",
    "zone_en": "Lachish",
    "zone_ru": "Лахиш",
    "zone_ar": "لخيش",
    "countdown": 45,
    "lat": 31.76278,
    "lng": 34.66328,
    "value": "אזור תעשייה עד הלום"
  },
  {
    "id": 196,
    "name": "אזור תעשייה עידן הנגב",
    "name_en": "Idan HaNegev Industrial Zone",
    "name_ru": "Промзона Идан ха-Негев",
    "name_ar": "المنطقة الصناعية عيدان الن",
    "zone": "מרכז הנגב",
    "zone_en": "Center Negev",
    "zone_ru": "Центральный Негев",
    "zone_ar": "مركز النقب",
    "countdown": 45,
    "lat": 31.37745,
    "lng": 34.78681,
    "value": "אזור תעשייה עידן הנגב"
  },
  {
    "id": 972,
    "name": "אזור תעשייה עמק חפר",
    "name_en": "Emek Heffer Industrial Zone",
    "name_ru": "Промзона Эмек Хефер",
    "name_ar": "المنطقة الصناعية عيمك حيفر",
    "zone": "שרון",
    "zone_en": "Sharon",
    "zone_ru": "Шарон",
    "zone_ar": "شارون",
    "countdown": 90,
    "lat": 32.40107,
    "lng": 34.89614,
    "value": "אזור תעשייה עמק חפר"
  },
  {
    "id": 1496,
    "name": "אזור תעשייה צ.ח.ר",
    "name_en": "Tzahar Industrial Zone",
    "name_ru": "Промзона Цахар",
    "name_ar": "المنطقة الصناعية تساحار",
    "zone": "גליל עליון",
    "zone_en": "Upper Galilee",
    "zone_ru": "Верхняя Галилея",
    "zone_ar": "الجليل الأعلى",
    "countdown": 30,
    "lat": 32.97111,
    "lng": 35.56753,
    "value": "אזור תעשייה צ.ח.ר"
  },
  {
    "id": 1079,
    "name": "אזור תעשייה צבאים",
    "name_en": "Zvaim Industrial Zone",
    "name_ru": "Промзона Цваим",
    "name_ar": "المنطقة الصناعية تسفئيم",
    "zone": "בקעת בית שאן",
    "zone_en": "Beit She'an Valley",
    "zone_ru": "Долина Бейт-Шеана",
    "zone_ar": "غور بيت شان",
    "countdown": 60,
    "lat": 32.54291,
    "lng": 35.50639,
    "value": "אזור תעשייה צבאים"
  },
  {
    "id": 1278,
    "name": "אזור תעשייה ציפורית",
    "name_en": "Industrial Area Tziporit",
    "name_ru": "Промышленная зона Ципорит",
    "name_ar": "المنطقة الصناعية نصيبوريت",
    "zone": "העמקים",
    "zone_en": "HaAmakim",
    "zone_ru": "Ха-Амаким",
    "zone_ar": "هعماكيم",
    "countdown": 60,
    "lat": 32.75891,
    "lng": 35.31658,
    "value": "אזור תעשייה ציפורית"
  },
  {
    "id": 333,
    "name": "אזור תעשייה צפוני אשקלון",
    "name_en": "Ashkelon Northern Industrial Zone",
    "name_ru": "Северная промзона Ашкелона",
    "name_ar": "المنطقة الصناعية الشمالية",
    "zone": "מערב לכיש",
    "zone_en": "West Lachish",
    "zone_ru": "Западный Лахиш",
    "zone_ar": "غرب لاخيش",
    "countdown": 30,
    "lat": 31.66919,
    "lng": 34.60095,
    "value": "אזור תעשייה צפוני אשקלון"
  },
  {
    "id": 1313,
    "name": "אזור תעשייה קדמת גליל",
    "name_en": "Kidmat Galil Industrial Zone",
    "name_ru": "Промзона Кидмат Галиль",
    "name_ar": "المنطقة الصناعية كيدمات جل",
    "zone": "גליל תחתון",
    "zone_en": "Lower Galilee",
    "zone_ru": "Нижняя Галилея",
    "zone_ar": "الجليل الأسفل",
    "countdown": 60,
    "lat": 32.78484,
    "lng": 35.4643,
    "value": "אזור תעשייה קדמת גליל"
  },
  {
    "id": 1020,
    "name": "אזור תעשייה קיסריה",
    "name_en": "Caesarea Industrial Zone",
    "name_ru": "Промзона Кейсария",
    "name_ar": "المنطقة الصناعية قيساريا",
    "zone": "מנשה",
    "zone_en": "Menashe",
    "zone_ru": "Менаше",
    "zone_ar": "مناشيه",
    "countdown": 90,
    "lat": 32.48282,
    "lng": 34.94819,
    "value": "אזור תעשייה קיסריה"
  },
  {
    "id": 2023,
    "name": "אזור תעשייה קריית ביאליק",
    "name_en": "Kiryat Bialik Industrial Zone",
    "name_ru": "Промзона Кирьят Бялик",
    "name_ar": "المنطقة الصناعية كريات بياليك",
    "zone": "המפרץ",
    "zone_en": "HaMifratz",
    "zone_ru": "Ха-Мифрац",
    "zone_ar": "همفراتس",
    "countdown": 60,
    "lat": 32.86718,
    "lng": 35.09889,
    "value": "אזור תעשייה קריית ביאליק"
  },
  {
    "id": 284,
    "name": "אזור תעשייה קריית גת",
    "name_en": "Industrial Area Kiryat Gat",
    "name_ru": "Промышленная зона Кирьят Гат",
    "name_ar": "المنطقة الصناعية كريات جات",
    "zone": "לכיש",
    "zone_en": "Lachish",
    "zone_ru": "Лахиш",
    "zone_ar": "لخيش",
    "countdown": 45,
    "lat": 31.59441,
    "lng": 34.78865,
    "value": "אזור תעשייה קריית גת"
  },
  {
    "id": 2207,
    "name": "אזור תעשייה רבדים",
    "name_en": "Revadim Industrial Zone",
    "name_ru": "Промзона Ревадим",
    "name_ar": "لمنطقة الصناعية رفاديم",
    "zone": "לכיש",
    "zone_en": "Lachish",
    "zone_ru": "Лахиш",
    "zone_ar": "لخيش",
    "countdown": 60,
    "lat": 31.78559,
    "lng": 34.82201,
    "value": "אזור תעשייה רבדים"
  },
  {
    "id": 1058,
    "name": "אזור תעשייה רגבים",
    "name_en": "Regavim Industrial Zone",
    "name_ru": "Промзона Регавим",
    "name_ar": "المنطقة الصناعية رجافيم",
    "zone": "מנשה",
    "zone_en": "Menashe",
    "zone_ru": "Менаше",
    "zone_ar": "مناشيه",
    "countdown": 90,
    "lat": 32.52175,
    "lng": 35.02455,
    "value": "אזור תעשייה רגבים"
  },
  {
    "id": 1968,
    "name": "אזור תעשייה רגמ",
    "name_en": "Ramla, Regional Council Gezer, Regional Council Hevel Modi'in Industrial Park",
    "name_ru": "Промзона \"Регем\" (Рамле-Гезер-Модиин)",
    "name_ar": "المنطقة الصناعية رجم",
    "zone": "השפלה",
    "zone_en": "HaShfela",
    "zone_ru": "Ха-Шфела",
    "zone_ar": "هشفيلاه",
    "countdown": 90,
    "lat": 31.92556,
    "lng": 34.89753,
    "value": "אזור תעשייה רגמ"
  },
  {
    "id": 89,
    "name": "אזור תעשייה רותם",
    "name_en": "Rotem Industrial Zone",
    "name_ru": "Промзона Ротем",
    "name_ar": "المنطقة الصناعية روتم",
    "zone": "דרום הנגב",
    "zone_en": "South Negev",
    "zone_ru": "Южный Негев",
    "zone_ar": "جنوب النقب",
    "countdown": 90,
    "lat": 31.0601,
    "lng": 35.19502,
    "value": "אזור תעשייה רותם"
  },
  {
    "id": 1550,
    "name": "אזור תעשייה רמת דלתון",
    "name_en": "Ramat Dalton Industrial Zone",
    "name_ru": "Промзона Рамат Дальтон",
    "name_ar": "المنطقة الصناعية رمات دلتو",
    "zone": "קו העימות",
    "zone_en": "Confrontation Line",
    "zone_ru": "Линия противостояния",
    "zone_ar": "خط المواجهة",
    "countdown": 0,
    "lat": 33.02652,
    "lng": 35.47969,
    "value": "אזור תעשייה רמת דלתון"
  },
  {
    "id": 10,
    "name": "אזור תעשייה שחורת",
    "name_en": "Shchoret Industrial Zone",
    "name_ru": "Промзона Шхорет",
    "name_ar": "المنطقة الصناعية شحوروت",
    "zone": "אילת",
    "zone_en": "Eilat",
    "zone_ru": "Эйлат",
    "zone_ar": "ايلات",
    "countdown": 30,
    "lat": 29.59891,
    "lng": 34.97192,
    "value": "אזור תעשייה שחורת"
  },
  {
    "id": 1939,
    "name": "אזור תעשייה שחק",
    "name_en": "Shahak Industrial Park",
    "name_ru": "Промзона Шахак",
    "name_ar": "المطقة الصناعية شاحاك",
    "zone": "שומרון",
    "zone_en": "Shomron",
    "zone_ru": "Самария",
    "zone_ar": "سامره",
    "countdown": 90,
    "lat": 32.47507,
    "lng": 35.17976,
    "value": "אזור תעשייה שחק"
  },
  {
    "id": 584,
    "name": "אזור תעשייה שער בנימין",
    "name_en": "Sha'ar Binyamin Industrial Zone",
    "name_ru": "Промзона Шаар Биньямин",
    "name_ar": "المنطقة الصناعية شاعار بني",
    "zone": "שומרון",
    "zone_en": "Shomron",
    "zone_ru": "Самария",
    "zone_ar": "سامره",
    "countdown": 90,
    "lat": 31.86621,
    "lng": 35.26201,
    "value": "אזור תעשייה שער בנימין",
    "shelters": 1
  },
  {
    "id": 1389,
    "name": "אזור תעשייה שער נעמן",
    "name_en": "Sha'ar Na'aman Industrial Zone",
    "name_ru": "Промзона Шаар Нааман",
    "name_ar": "المنطقة الصناعية شاعر نعما",
    "zone": "גליל עליון",
    "zone_en": "Upper Galilee",
    "zone_ru": "Верхняя Галилея",
    "zone_ar": "الجليل الأعلى",
    "countdown": 60,
    "lat": 32.8805,
    "lng": 35.09761,
    "value": "אזור תעשייה שער נעמן"
  },
  {
    "id": 386,
    "name": "אזור תעשייה תימורים",
    "name_en": "Timorimg Industrial Zone",
    "name_ru": "Промзона Тиморим",
    "name_ar": "المنطقة الصناعية تيموريم",
    "zone": "לכיש",
    "zone_en": "Lachish",
    "zone_ru": "Лахиш",
    "zone_ar": "لخيش",
    "countdown": 45,
    "lat": 31.72444,
    "lng": 34.75933,
    "value": "אזור תעשייה תימורים"
  },
  {
    "id": 1386,
    "name": "אזור תעשייה תרדיון",
    "name_en": "Teradion Industrial Zone",
    "name_ru": "Промзона Терадион",
    "name_ar": "المنطقة الصناعية ترديون",
    "zone": "מרכז הגליל",
    "zone_en": "Center Galilee",
    "zone_ru": "Центральная Галилея",
    "zone_ar": "مركز الجليل",
    "countdown": 60,
    "lat": 32.86738,
    "lng": 35.27327,
    "value": "אזור תעשייה תרדיון"
  },
  {
    "id": 419,
    "name": "אחווה",
    "name_en": "Achva",
    "name_ru": "Ахва",
    "name_ar": "أحفا",
    "zone": "לכיש",
    "zone_en": "Lachish",
    "zone_ru": "Лахиш",
    "zone_ar": "لخيش",
    "countdown": 45,
    "lat": 31.74378,
    "lng": 34.76912,
    "value": "אחווה"
  },
  {
    "id": 264,
    "name": "אחוזם",
    "name_en": "Ahuzam",
    "name_ru": "Ахузам",
    "name_ar": "أحوزام",
    "zone": "לכיש",
    "zone_en": "Lachish",
    "zone_ru": "Лахиш",
    "zone_ar": "لخيش",
    "countdown": 30,
    "lat": 31.55297,
    "lng": 34.77078,
    "value": "אחוזם"
  },
  {
    "id": 1147,
    "name": "אחוזת ברק",
    "name_en": "Ahuzat Barak",
    "name_ru": "Ахузат Барак",
    "name_ar": "أحوزات براك",
    "zone": "העמקים",
    "zone_en": "HaAmakim",
    "zone_ru": "Ха-Амаким",
    "zone_ar": "هعماكيم",
    "countdown": 60,
    "lat": 32.64324,
    "lng": 35.33818,
    "value": "אחוזת ברק"
  },
  {
    "id": 765,
    "name": "אחיה",
    "name_en": "Achita",
    "name_ru": "Ахия",
    "name_ar": "أحيه",
    "zone": "שומרון",
    "zone_en": "Shomron",
    "zone_ru": "Самария",
    "zone_ar": "سامره",
    "countdown": 90,
    "lat": 32.06369,
    "lng": 35.33668,
    "value": "אחיה"
  },
  {
    "id": 1414,
    "name": "אחיהוד",
    "name_en": "Achihud",
    "name_ru": "Ахихуд",
    "name_ar": "أحيهود",
    "zone": "גליל עליון",
    "zone_en": "Upper Galilee",
    "zone_ru": "Верхняя Галилея",
    "zone_ar": "الجليل الأعلى",
    "countdown": 60,
    "lat": 32.90618,
    "lng": 35.17578,
    "value": "אחיהוד"
  },
  {
    "id": 970,
    "name": "אחיטוב",
    "name_en": "Ahituv",
    "name_ru": "Ахитув",
    "name_ar": "أحيطوف",
    "zone": "שרון",
    "zone_en": "Sharon",
    "zone_ru": "Шарон",
    "zone_ar": "شارون",
    "countdown": 90,
    "lat": 32.38809,
    "lng": 34.98949,
    "value": "אחיטוב"
  },
  {
    "id": 1811,
    "name": "אחיסמך",
    "name_en": "Ahisemech",
    "name_ru": "Ахисемех",
    "name_ar": "أحيسيمخ",
    "zone": "השפלה",
    "zone_en": "HaShfela",
    "zone_ru": "Ха-Шфела",
    "zone_ar": "هشفيلاه",
    "countdown": 90,
    "lat": 31.93487,
    "lng": 34.9073,
    "value": "אחיסמך"
  },
  {
    "id": 1849,
    "name": "אחיעזר",
    "name_en": "Achiezer",
    "name_ru": "Ахиэзер",
    "name_ar": "أحيعزر",
    "zone": "השפלה",
    "zone_en": "HaShfela",
    "zone_ru": "Ха-Шфела",
    "zone_ar": "هشفيلاه",
    "countdown": 90,
    "lat": 31.98071,
    "lng": 34.87165,
    "value": "אחיעזר"
  },
  {
    "id": 1272,
    "name": "איבטין",
    "name_en": "Ibtin",
    "name_ru": "Ибтин",
    "name_ar": "ابطن",
    "zone": "המפרץ",
    "zone_en": "HaMifratz",
    "zone_ru": "Ха-Мифрац",
    "zone_ar": "همفراتس",
    "countdown": 60,
    "lat": 32.76131,
    "lng": 35.11365,
    "value": "איבטין"
  },
  {
    "id": 1562,
    "name": "איזור תעשייה מילואות צפון",
    "name_en": "Milouot Industrial Zone North",
    "name_ru": "Промзона Милуот Север",
    "name_ar": "المنطقة الصناعية ميلوؤت الشمال",
    "zone": "קו העימות",
    "zone_en": "Confrontation Line",
    "zone_ru": "Кав Ха-Имут",
    "zone_ar": "خط المواجهة",
    "countdown": 0,
    "lat": 33.05852,
    "lng": 35.10421,
    "value": "איזור תעשייה מילואות צפון"
  },
  {
    "id": 864,
    "name": "אייל",
    "name_en": "Eyal",
    "name_ru": "Эяль",
    "name_ar": "أيال",
    "zone": "שרון",
    "zone_en": "Sharon",
    "zone_ru": "Шарон",
    "zone_ar": "شارون",
    "countdown": 90,
    "lat": 32.21017,
    "lng": 34.97964,
    "value": "אייל"
  },
  {
    "id": 1552,
    "name": "איילת השחר",
    "name_en": "Ayelet HaShachar",
    "name_ru": "Айелет ха-Шахар",
    "name_ar": "أييلت هشاحر",
    "zone": "גליל עליון",
    "zone_en": "Upper Galilee",
    "zone_ru": "Верхняя Галилея",
    "zone_ar": "الجليل الأعلى",
    "countdown": 30,
    "lat": 33.02307,
    "lng": 35.58005,
    "value": "איילת השחר"
  },
  {
    "id": 1863,
    "name": "איירפורט סיטי",
    "name_en": "Airport City",
    "name_ru": "Аэропорт Сити",
    "name_ar": "أيرفوفط سيتي",
    "zone": "ירקון",
    "zone_en": "Yarkon",
    "zone_ru": "Яркон",
    "zone_ar": "اليركون",
    "countdown": 90,
    "lat": 31.98874,
    "lng": 34.91233,
    "value": "איירפורט סיטי"
  },
  {
    "id": 1571,
    "name": "אילון",
    "name_en": "Eilon",
    "name_ru": "Эйлон",
    "name_ar": "ايلون",
    "zone": "קו העימות",
    "zone_en": "Confrontation Line",
    "zone_ru": "Линия противостояния",
    "zone_ar": "خط المواجهة",
    "countdown": 0,
    "lat": 33.06241,
    "lng": 35.21834,
    "value": "אילון"
  },
  {
    "id": 9,
    "name": "אילות",
    "name_en": "Eilot",
    "name_ru": "Эйлот",
    "name_ar": "ايالوت",
    "zone": "אילת",
    "zone_en": "Eilat",
    "zone_ru": "Эйлат",
    "zone_ar": "ايلات",
    "countdown": 30,
    "lat": 29.58068,
    "lng": 34.96375,
    "value": "אילות"
  },
  {
    "id": 1265,
    "name": "אילניה",
    "name_en": "Ilania",
    "name_ru": "Илания",
    "name_ar": "ايلانيا",
    "zone": "העמקים",
    "zone_en": "HaAmakim",
    "zone_ru": "Ха-Амаким",
    "zone_ar": "هعماكيم",
    "countdown": 60,
    "lat": 32.7562,
    "lng": 35.40773,
    "value": "אילניה"
  },
  {
    "id": 4,
    "name": "אילת",
    "name_en": "Eilat",
    "name_ru": "Эйлат",
    "name_ar": "أييلت",
    "zone": "אילת",
    "zone_en": "Eilat",
    "zone_ru": "Эйлат",
    "zone_ar": "ايلات",
    "countdown": 30,
    "lat": 29.53716,
    "lng": 34.93566,
    "value": "אילת"
  },
  {
    "id": 1807,
    "name": "אירוס",
    "name_en": "Irus",
    "name_ru": "Ирус",
    "name_ar": "ايروس",
    "zone": "השפלה",
    "zone_en": "HaShfela",
    "zone_ru": "Ха-Шфела",
    "zone_ar": "هشفيلاه",
    "countdown": 90,
    "lat": 31.92927,
    "lng": 34.77661,
    "value": "אירוס"
  },
  {
    "id": 852,
    "name": "איתמר",
    "name_en": "Itamar",
    "name_ru": "Итамар",
    "name_ar": "إيتمار",
    "zone": "שומרון",
    "zone_en": "Shomron",
    "zone_ru": "Самария",
    "zone_ar": "سامره",
    "countdown": 90,
    "lat": 32.16397,
    "lng": 35.34447,
    "value": "איתמר"
  },
  {
    "id": 273,
    "name": "איתן",
    "name_en": "Eitan",
    "name_ru": "Эйтан",
    "name_ar": "ايتان",
    "zone": "לכיש",
    "zone_en": "Lachish",
    "zone_ru": "Лахиш",
    "zone_ar": "لخيش",
    "countdown": 30,
    "lat": 31.57234,
    "lng": 34.74757,
    "value": "איתן"
  },
  {
    "id": 1178,
    "name": "אכסאל",
    "name_en": "Iksal",
    "name_ru": "Иксаль",
    "name_ar": "اكسال",
    "zone": "העמקים",
    "zone_en": "HaAmakim",
    "zone_ru": "Ха-Амаким",
    "zone_ar": "هعماكيم",
    "countdown": 60,
    "lat": 32.67828,
    "lng": 35.31978,
    "value": "אכסאל"
  },
  {
    "id": 1921,
    "name": "אל סייד",
    "name_en": "El-Sid",
    "name_ru": "Аль-Сайид",
    "name_ar": "السيد",
    "zone": "מרכז הנגב",
    "zone_en": "Center Negev",
    "zone_ru": "Центральный Негев",
    "zone_ar": "مركز النقب",
    "countdown": 90,
    "lat": 31.28786,
    "lng": 34.90352,
    "value": "אל סייד"
  },
  {
    "id": 387,
    "name": "אל עזי",
    "name_en": "Al Azi",
    "name_ru": "Аль Ази",
    "name_ar": "ال عازي",
    "zone": "לכיש",
    "zone_en": "Lachish",
    "zone_ru": "Лахиш",
    "zone_ar": "لخيش",
    "countdown": 45,
    "lat": 31.72143,
    "lng": 34.79799,
    "value": "אל עזי"
  },
  {
    "id": 1929,
    "name": "אל עמארני, אל מסק",
    "name_en": "El-Amrana, El-Mask",
    "name_ru": "Эль-Амарна, Эль-Маск",
    "name_ar": "العمارني ، المسك",
    "zone": "ערבה",
    "zone_en": "Arava",
    "zone_ru": "Арава",
    "zone_ar": "العرباه",
    "countdown": 90,
    "lat": 30.79827,
    "lng": 35.23446,
    "value": "אל עמארני, אל מסק"
  },
  {
    "id": 1046,
    "name": "אל עריאן",
    "name_en": "Al Arian",
    "name_ru": "Аль Ариан",
    "name_ar": "العريان",
    "zone": "ואדי ערה",
    "zone_en": "Wadi Ara",
    "zone_ru": "Вади Ара",
    "zone_ar": "وادي عارة",
    "countdown": 90,
    "lat": 32.49818,
    "lng": 35.12491,
    "value": "אל עריאן"
  },
  {
    "id": 115,
    "name": "אל פורעה",
    "name_en": "El Pura",
    "name_ru": "Аль Фура",
    "name_ar": "الفورعا",
    "zone": "דרום הנגב",
    "zone_en": "South Negev",
    "zone_ru": "Южный Негев",
    "zone_ar": "جنوب النقب",
    "countdown": 90,
    "lat": 31.22164,
    "lng": 35.16423,
    "value": "אל פורעה"
  },
  {
    "id": 1635,
    "name": "אל רום",
    "name_en": "El Rom",
    "name_ru": "Эль Ром",
    "name_ar": "الروم",
    "zone": "גולן צפון",
    "zone_en": "North Golan",
    "zone_ru": "Северный Голан",
    "zone_ar": "الجولان الشمالي",
    "countdown": 0,
    "lat": 33.18052,
    "lng": 35.77074,
    "value": "אל רום"
  },
  {
    "id": 1282,
    "name": "אל-ח'וואלד מערב",
    "name_en": "Al Khawaled - West",
    "name_ru": "Аль Хавалед - запад",
    "name_ar": "الخوالد غرب",
    "zone": "העמקים",
    "zone_en": "HaAmakim",
    "zone_ru": "Ха-Амаким",
    "zone_ar": "هعماكيم",
    "countdown": 60,
    "lat": 32.771,
    "lng": 35.13795,
    "value": "אל-ח'וואלד מערב"
  },
  {
    "id": 323,
    "name": "אלומה",
    "name_en": "Aluma",
    "name_ru": "Алума",
    "name_ar": "ألوما",
    "zone": "לכיש",
    "zone_en": "Lachish",
    "zone_ru": "Лахиш",
    "zone_ar": "لخيش",
    "countdown": 45,
    "lat": 31.65178,
    "lng": 34.74254,
    "value": "אלומה"
  },
  {
    "id": 1222,
    "name": "אלומות",
    "name_en": "Alumot",
    "name_ru": "Алумот",
    "name_ar": "ألوموت",
    "zone": "גליל תחתון",
    "zone_en": "Lower Galilee",
    "zone_ru": "Нижняя Галилея",
    "zone_ar": "الجليل الأسفل",
    "countdown": 60,
    "lat": 32.70849,
    "lng": 35.54626,
    "value": "אלומות"
  },
  {
    "id": 556,
    "name": "אלון",
    "name_en": "Alon",
    "name_ru": "Алон",
    "name_ar": "ألون",
    "zone": "יהודה",
    "zone_en": "Yehuda",
    "zone_ru": "Йегуда",
    "zone_ar": "يهودا",
    "countdown": 90,
    "lat": 31.83903,
    "lng": 35.34858,
    "value": "אלון"
  },
  {
    "id": 1276,
    "name": "אלון הגליל",
    "name_en": "Alon HaGalil",
    "name_ru": "Алон а-Галиль",
    "name_ar": "ألون هجليل",
    "zone": "העמקים",
    "zone_en": "HaAmakim",
    "zone_ru": "Ха-Амаким",
    "zone_ar": "هعماكيم",
    "countdown": 60,
    "lat": 32.75974,
    "lng": 35.21967,
    "value": "אלון הגליל"
  },
  {
    "id": 877,
    "name": "אלון מורה",
    "name_en": "Elon Moreh",
    "name_ru": "Алон ха-Море",
    "name_ar": "ألون موريه",
    "zone": "שומרון",
    "zone_en": "Shomron",
    "zone_ru": "Самария",
    "zone_ar": "سامره",
    "countdown": 90,
    "lat": 32.23243,
    "lng": 35.33078,
    "value": "אלון מורה"
  },
  {
    "id": 341,
    "name": "אלון שבות",
    "name_en": "Alon Shvut",
    "name_ru": "Алон Швут",
    "name_ar": "ألون شابوت",
    "zone": "יהודה",
    "zone_en": "Yehuda",
    "zone_ru": "Йегуда",
    "zone_ar": "يهودا",
    "countdown": 90,
    "lat": 31.65442,
    "lng": 35.12592,
    "value": "אלון שבות"
  },
  {
    "id": 1231,
    "name": "אלוני אבא",
    "name_en": "Alonei Abba",
    "name_ru": "Алоней Аба",
    "name_ar": "ألوني أبا",
    "zone": "העמקים",
    "zone_en": "HaAmakim",
    "zone_ru": "Ха-Амаким",
    "zone_ar": "هعماكيم",
    "countdown": 60,
    "lat": 32.72972,
    "lng": 35.17071,
    "value": "אלוני אבא"
  },
  {
    "id": 1569,
    "name": "אלוני הבשן",
    "name_en": "Alonei HaBashan",
    "name_ru": "Алоней а-Башан",
    "name_ar": "ألوني هبشان",
    "zone": "גולן דרום",
    "zone_en": "South Golan",
    "zone_ru": "Южный Голан",
    "zone_ar": "الجولان الجنوبي",
    "countdown": 0,
    "lat": 33.04267,
    "lng": 35.83775,
    "value": "אלוני הבשן"
  },
  {
    "id": 1054,
    "name": "אלוני יצחק",
    "name_en": "Alonei Itzhak",
    "name_ru": "Алоней Ицхак",
    "name_ar": "ألوني يتسحاق",
    "zone": "מנשה",
    "zone_en": "Menashe",
    "zone_ru": "Менаше",
    "zone_ar": "مناشيه",
    "countdown": 90,
    "lat": 32.51028,
    "lng": 35.00455,
    "value": "אלוני יצחק"
  },
  {
    "id": 1217,
    "name": "אלונים",
    "name_en": "Alonim",
    "name_ru": "Алоним",
    "name_ar": "ألونيم",
    "zone": "העמקים",
    "zone_en": "HaAmakim",
    "zone_ru": "Ха-Амаким",
    "zone_ar": "هعماكيم",
    "countdown": 60,
    "lat": 32.71629,
    "lng": 35.14834,
    "value": "אלונים"
  },
  {
    "id": 1344,
    "name": "אלי עד",
    "name_en": "Eliad",
    "name_ru": "Эли Ад",
    "name_ar": "إلي عاد",
    "zone": "גולן דרום",
    "zone_en": "South Golan",
    "zone_ru": "Южный Голан",
    "zone_ar": "الجولان الجنوبي",
    "countdown": 0,
    "lat": 32.80556,
    "lng": 35.73501,
    "value": "אלי עד"
  },
  {
    "id": 257,
    "name": "אליאב",
    "name_en": "Eliav",
    "name_ru": "Элиав",
    "name_ar": "أليآف",
    "zone": "יהודה",
    "zone_en": "Yehuda",
    "zone_ru": "Йегуда",
    "zone_ar": "يهودا",
    "countdown": 60,
    "lat": 31.52953,
    "lng": 34.93119,
    "value": "אליאב"
  },
  {
    "id": 980,
    "name": "אליכין",
    "name_en": "Elyachin",
    "name_ru": "Эльяхин",
    "name_ar": "اليخين",
    "zone": "שרון",
    "zone_en": "Sharon",
    "zone_ru": "Шарон",
    "zone_ar": "شارون",
    "countdown": 90,
    "lat": 32.40771,
    "lng": 34.92188,
    "value": "אליכין"
  },
  {
    "id": 15,
    "name": "אליפז ומכרות תמנע",
    "name_en": "Elipaz And Timna Mines",
    "name_ru": "Элифаз и Копи Тимны",
    "name_ar": "إيليفازوتمنع",
    "zone": "ערבה",
    "zone_en": "Arava",
    "zone_ru": "Арава",
    "zone_ar": "العرباه",
    "countdown": 90,
    "lat": 29.77717,
    "lng": 34.9937,
    "value": "אליפז ומכרות תמנע"
  },
  {
    "id": 1466,
    "name": "אליפלט",
    "name_en": "Elifelet",
    "name_ru": "Элифелет",
    "name_ar": "إليفلت",
    "zone": "גליל עליון",
    "zone_en": "Upper Galilee",
    "zone_ru": "Верхняя Галилея",
    "zone_ar": "الجليل الأعلى",
    "countdown": 30,
    "lat": 32.94646,
    "lng": 35.55446,
    "value": "אליפלט"
  },
  {
    "id": 1131,
    "name": "אליקים",
    "name_en": "Elyakim",
    "name_ru": "Эльяким",
    "name_ar": "الياكيم",
    "zone": "ואדי ערה",
    "zone_en": "Wadi Ara",
    "zone_ru": "Вади Ара",
    "zone_ar": "وادي عارة",
    "countdown": 90,
    "lat": 32.63269,
    "lng": 35.06846,
    "value": "אליקים"
  },
  {
    "id": 961,
    "name": "אלישיב",
    "name_en": "Elyashiv",
    "name_ru": "Эльяшив",
    "name_ar": "أليشيف",
    "zone": "שרון",
    "zone_en": "Sharon",
    "zone_ru": "Шарон",
    "zone_ar": "شارون",
    "countdown": 90,
    "lat": 32.3808,
    "lng": 34.90944,
    "value": "אלישיב"
  },
  {
    "id": 827,
    "name": "אלישמע",
    "name_en": "Elishema",
    "name_ru": "Элишема",
    "name_ar": "أليشمع",
    "zone": "שרון",
    "zone_en": "Sharon",
    "zone_ru": "Шарон",
    "zone_ar": "شارون",
    "countdown": 90,
    "lat": 32.15239,
    "lng": 34.92836,
    "value": "אלישמע"
  },
  {
    "id": 1432,
    "name": "אלמגור",
    "name_en": "Almagor",
    "name_ru": "Альмагор",
    "name_ar": "الماغور",
    "zone": "גולן דרום",
    "zone_en": "South Golan",
    "zone_ru": "Южный Голан",
    "zone_ar": "الجولان الجنوبي",
    "countdown": 30,
    "lat": 32.91211,
    "lng": 35.60205,
    "value": "אלמגור"
  },
  {
    "id": 499,
    "name": "אלמוג",
    "name_en": "Almog",
    "name_ru": "Альмог",
    "name_ar": "ألموغ",
    "zone": "ים המלח",
    "zone_en": "Dead Sea",
    "zone_ru": "Мёртвое море",
    "zone_ar": "البحر الميت",
    "countdown": 90,
    "lat": 31.78759,
    "lng": 35.46118,
    "value": "אלמוג"
  },
  {
    "id": 735,
    "name": "אלעד",
    "name_en": "Elad",
    "name_ru": "Эльад",
    "name_ar": "ايلعاد",
    "zone": "ירקון",
    "zone_en": "Yarkon",
    "zone_ru": "Яркон",
    "zone_ar": "اليركون",
    "countdown": 90,
    "lat": 32.05107,
    "lng": 34.95639,
    "value": "אלעד"
  },
  {
    "id": 351,
    "name": "אלעזר",
    "name_en": "Elazar",
    "name_ru": "Эльазар",
    "name_ar": "العيزر",
    "zone": "יהודה",
    "zone_en": "Yehuda",
    "zone_ru": "Йегуда",
    "zone_ar": "يهودا",
    "countdown": 90,
    "lat": 31.6627,
    "lng": 35.13965,
    "value": "אלעזר"
  },
  {
    "id": 844,
    "name": "אלפי מנשה",
    "name_en": "Alfei Menashe",
    "name_ru": "Алфей Менаше",
    "name_ar": "ألفي مناشيه",
    "zone": "שרון",
    "zone_en": "Sharon",
    "zone_ru": "Шарон",
    "zone_ar": "شارون",
    "countdown": 90,
    "lat": 32.17149,
    "lng": 35.00998,
    "value": "אלפי מנשה"
  },
  {
    "id": 1547,
    "name": "אלקוש",
    "name_en": "Alkosh",
    "name_ru": "Алькош",
    "name_ar": "الكوش",
    "zone": "קו העימות",
    "zone_en": "Confrontation Line",
    "zone_ru": "Линия противостояния",
    "zone_ar": "خط المواجهة",
    "countdown": 0,
    "lat": 33.03443,
    "lng": 35.32429,
    "value": "אלקוש"
  },
  {
    "id": 794,
    "name": "אלקנה",
    "name_en": "Elkana",
    "name_ru": "Элькана",
    "name_ar": "الكنا",
    "zone": "שרון",
    "zone_en": "Sharon",
    "zone_ru": "Шарон",
    "zone_ar": "شارون",
    "countdown": 90,
    "lat": 32.11305,
    "lng": 35.0347,
    "value": "אלקנה"
  },
  {
    "id": 406,
    "name": "אמונים",
    "name_en": "Emunim",
    "name_ru": "Эмуним",
    "name_ar": "أمونيم",
    "zone": "לכיש",
    "zone_en": "Lachish",
    "zone_ru": "Лахиш",
    "zone_ar": "لخيش",
    "countdown": 45,
    "lat": 31.74395,
    "lng": 34.67572,
    "value": "אמונים"
  },
  {
    "id": 1454,
    "name": "אמירים",
    "name_en": "Amirim",
    "name_ru": "Амирим",
    "name_ar": "أميريم",
    "zone": "גליל עליון",
    "zone_en": "Upper Galilee",
    "zone_ru": "Верхняя Галилея",
    "zone_ar": "الجليل الأعلى",
    "countdown": 30,
    "lat": 32.93829,
    "lng": 35.45108,
    "value": "אמירים"
  },
  {
    "id": 1422,
    "name": "אמנון",
    "name_en": "Amnon",
    "name_ru": "Амнон",
    "name_ar": "أمنون",
    "zone": "גליל עליון",
    "zone_en": "Upper Galilee",
    "zone_ru": "Верхняя Галилея",
    "zone_ar": "الجليل الأعلى",
    "countdown": 30,
    "lat": 32.90455,
    "lng": 35.57218,
    "value": "אמנון"
  },
  {
    "id": 955,
    "name": "אמץ",
    "name_en": "Amatz",
    "name_ru": "Амац",
    "name_ar": "أومتس",
    "zone": "שרון",
    "zone_en": "Sharon",
    "zone_ru": "Шарон",
    "zone_ar": "شارون",
    "countdown": 90,
    "lat": 32.36841,
    "lng": 34.99401,
    "value": "אמץ"
  },
  {
    "id": 256,
    "name": "אמציה",
    "name_en": "Amatzia",
    "name_ru": "Амация",
    "name_ar": "أمتسيا",
    "zone": "יהודה",
    "zone_en": "Yehuda",
    "zone_ru": "Йегуда",
    "zone_ar": "يهودا",
    "countdown": 60,
    "lat": 31.53247,
    "lng": 34.91359,
    "value": "אמציה"
  },
  {
    "id": 1488,
    "name": "אניעם",
    "name_en": "Aniam",
    "name_ru": "Аниам",
    "name_ar": "أنيعام",
    "zone": "גולן דרום",
    "zone_en": "South Golan",
    "zone_ru": "Южный Голан",
    "zone_ar": "الجولان الجنوبي",
    "countdown": 15,
    "lat": 32.95786,
    "lng": 35.74115,
    "value": "אניעם"
  },
  {
    "id": 1339,
    "name": "אעבלין",
    "name_en": "Ibillin",
    "name_ru": "Иблин",
    "name_ar": "إعبلين",
    "zone": "מרכז הגליל",
    "zone_en": "Center Galilee",
    "zone_ru": "Центральная Галилея",
    "zone_ar": "مركز الجليل",
    "countdown": 60,
    "lat": 32.82234,
    "lng": 35.18956,
    "value": "אעבלין"
  },
  {
    "id": 1314,
    "name": "אפיק",
    "name_en": "Afik",
    "name_ru": "Афик",
    "name_ar": "أفيك",
    "zone": "גולן דרום",
    "zone_en": "South Golan",
    "zone_ru": "Южный Голан",
    "zone_ar": "الجولان الجنوبي",
    "countdown": 0,
    "lat": 32.77856,
    "lng": 35.70195,
    "value": "אפיק"
  },
  {
    "id": 1188,
    "name": "אפיקים",
    "name_en": "Afikim",
    "name_ru": "Афиким",
    "name_ar": "أفيكيم",
    "zone": "גליל תחתון",
    "zone_en": "Lower Galilee",
    "zone_ru": "Нижняя Галилея",
    "zone_ar": "الجليل الأسفل",
    "countdown": 60,
    "lat": 32.6799,
    "lng": 35.57647,
    "value": "אפיקים"
  },
  {
    "id": 1352,
    "name": "אפק",
    "name_en": "Afek",
    "name_ru": "Афек",
    "name_ar": "أفيك",
    "zone": "גליל עליון",
    "zone_en": "Upper Galilee",
    "zone_ru": "Верхняя Галилея",
    "zone_ar": "الجليل الأعلى",
    "countdown": 60,
    "lat": 32.83893,
    "lng": 35.1259,
    "value": "אפק"
  },
  {
    "id": 329,
    "name": "אפרת",
    "name_en": "Efrat",
    "name_ru": "Эфрат",
    "name_ar": "إفرات",
    "zone": "יהודה",
    "zone_en": "Yehuda",
    "zone_ru": "Йегуда",
    "zone_ar": "يهودا",
    "countdown": 90,
    "lat": 31.66579,
    "lng": 35.15914,
    "value": "אפרת",
    "shelters": 1
  },
  {
    "id": 1342,
    "name": "ארבל",
    "name_en": "Arbel",
    "name_ru": "Арбель",
    "name_ar": "أرابل",
    "zone": "גליל תחתון",
    "zone_en": "Lower Galilee",
    "zone_ru": "Нижняя Галилея",
    "zone_ar": "الجليل الأسفل",
    "countdown": 60,
    "lat": 32.81316,
    "lng": 35.48265,
    "value": "ארבל"
  },
  {
    "id": 853,
    "name": "ארגמן",
    "name_en": "Argaman",
    "name_ru": "Аргаман",
    "name_ar": "أرجمان",
    "zone": "בקעה",
    "zone_en": "Bika'a",
    "zone_ru": "Бикъа",
    "zone_ar": "بيكعا",
    "countdown": 90,
    "lat": 32.17225,
    "lng": 35.52261,
    "value": "ארגמן"
  },
  {
    "id": 263,
    "name": "ארז",
    "name_en": "Erez",
    "name_ru": "Эрез",
    "name_ar": "إيرز",
    "zone": "עוטף עזה",
    "zone_en": "Gaza Envelope",
    "zone_ru": "Граница с Газой",
    "zone_ar": "غلاف غزة",
    "countdown": 15,
    "lat": 31.55985,
    "lng": 34.56585,
    "value": "ארז",
    "shelters": 2
  },
  {
    "id": 795,
    "name": "אריאל",
    "name_en": "Ariel",
    "name_ru": "Ариэль",
    "name_ar": "ارئييل",
    "zone": "שומרון",
    "zone_en": "Shomron",
    "zone_ru": "Самария",
    "zone_ar": "سامره",
    "countdown": 90,
    "lat": 32.10347,
    "lng": 35.18797,
    "value": "אריאל"
  },
  {
    "id": 862,
    "name": "ארסוף",
    "name_en": "Arsuf",
    "name_ru": "Арсуф",
    "name_ar": "أرسوف",
    "zone": "שרון",
    "zone_en": "Sharon",
    "zone_ru": "Шарон",
    "zone_ar": "شارون",
    "countdown": 90,
    "lat": 32.20902,
    "lng": 34.81596,
    "value": "ארסוף"
  },
  {
    "id": 225,
    "name": "אשבול",
    "name_en": "Eshbol",
    "name_ru": "Эшбол",
    "name_ar": "أشبول",
    "zone": "מערב הנגב",
    "zone_en": "West Negev",
    "zone_ru": "Западный Негев",
    "zone_ar": "غرب النقب",
    "countdown": 30,
    "lat": 31.44724,
    "lng": 34.66765,
    "value": "אשבול"
  },
  {
    "id": 1392,
    "name": "אשבל",
    "name_en": "Eshbal",
    "name_ru": "Эшбаль",
    "name_ar": "إشبال",
    "zone": "מרכז הגליל",
    "zone_en": "Center Galilee",
    "zone_ru": "Центральная Галилея",
    "zone_ar": "مركز الجليل",
    "countdown": 60,
    "lat": 32.87649,
    "lng": 35.30466,
    "value": "אשבל"
  },
  {
    "id": 468,
    "name": "אשדוד - א,ב,ד,ה",
    "name_en": "Ashdod - Alef, Bet, Dalet, Heh",
    "name_ru": "Ашдод - алеф, бет, далет, хей",
    "name_ar": "أشدود- أ،ب،د، هـ",
    "zone": "לכיש",
    "zone_en": "Lakhish",
    "zone_ru": "Лахиш",
    "zone_ar": "لاخيش",
    "countdown": 45,
    "lat": 31.80473,
    "lng": 34.64694,
    "value": "אשדוד - א,ב,ד,ה"
  },
  {
    "id": 530,
    "name": "אשדוד - איזור תעשייה צפוני",
    "name_en": "Ashdod - Northern Industrial Zone And Port",
    "name_ru": "Ашдод - Северная промзона, П",
    "name_ar": "المنطقة الصناعية الشمالية,",
    "zone": "לכיש",
    "zone_en": "Lachish",
    "zone_ru": "Лахиш",
    "zone_ar": "لخيش",
    "countdown": 45,
    "lat": 31.83016,
    "lng": 34.65851,
    "value": "אשדוד - איזור תעשייה צפוני"
  },
  {
    "id": 455,
    "name": "אשדוד - ג,ו,ז",
    "name_en": "Ashdod - Gimmel, Vav, Zain",
    "name_ru": "Ашдод - гимел, вав, зайн",
    "name_ar": "أشدود- ج، و، ز",
    "zone": "לכיש",
    "zone_en": "Lachish",
    "zone_ru": "Лахиш",
    "zone_ar": "لخيش",
    "countdown": 45,
    "lat": 31.79663,
    "lng": 34.66155,
    "value": "אשדוד - ג,ו,ז"
  },
  {
    "id": 433,
    "name": "אשדוד - ח,ט,י,יג,יד,טז",
    "name_en": "Ashdod - Het, Tet, Yod, Yod Gimmel, Yod Dalet, Te*",
    "name_ru": "Ашдод - хет, тет, йод, йод гим",
    "name_ar": "أشدود- ح، ط، ي، ي ج،ي د، ط ز",
    "zone": "לכיש",
    "zone_en": "Lachish",
    "zone_ru": "Лахиш",
    "zone_ar": "لخيش",
    "countdown": 45,
    "lat": 31.77791,
    "lng": 34.65338,
    "value": "אשדוד - ח,ט,י,יג,יד,טז"
  },
  {
    "id": 432,
    "name": "אשדוד -יא,יב,טו,יז,מרינה,סיטי",
    "name_en": "Ashdod - Yod Alef, Yod Bet, Tet Vav, Yod Zain, Marina, City",
    "name_ru": "Ашдод - йуд алеф, йуд бет, йу",
    "name_ar": "أشدود- ي أ، ي ب، ط و، ي ز، مري",
    "zone": "לכיש",
    "zone_en": "Lachish",
    "zone_ru": "Лахиш",
    "zone_ar": "لخيش",
    "countdown": 45,
    "lat": 31.78362,
    "lng": 34.63321,
    "value": "אשדוד -יא,יב,טו,יז,מרינה,סיטי"
  },
  {
    "id": 1161,
    "name": "אשדות יעקב",
    "name_en": "Ashdot Yacov",
    "name_ru": "Ашдот Яаков",
    "name_ar": "أشدوت يعقوب",
    "zone": "גולן דרום",
    "zone_en": "South Golan",
    "zone_ru": "Южный Голан",
    "zone_ar": "الجولان الجنوبي",
    "countdown": 60,
    "lat": 32.66108,
    "lng": 35.57989,
    "value": "אשדות יעקב"
  },
  {
    "id": 1399,
    "name": "אשחר",
    "name_en": "Eshchar",
    "name_ru": "Эшхар",
    "name_ar": "إشحار",
    "zone": "מרכז הגליל",
    "zone_en": "Center Galilee",
    "zone_ru": "Центральная Галилея",
    "zone_ar": "مركز الجليل",
    "countdown": 60,
    "lat": 32.8863,
    "lng": 35.29929,
    "value": "אשחר"
  },
  {
    "id": 203,
    "name": "אשכולות",
    "name_en": "Eshkolot",
    "name_ru": "Эшколот",
    "name_ar": "أشكولوت",
    "zone": "מרכז הנגב",
    "zone_en": "Center Negev",
    "zone_ru": "Центральный Негев",
    "zone_ar": "مركز النقب",
    "countdown": 60,
    "lat": 31.39189,
    "lng": 34.90076,
    "value": "אשכולות"
  },
  {
    "id": 168,
    "name": "אשל הנשיא",
    "name_en": "Eshel HaNassi",
    "name_ru": "Эшель а-Наси",
    "name_ar": "إيشل هنسي",
    "zone": "מערב הנגב",
    "zone_en": "West Negev",
    "zone_ru": "Западный Негев",
    "zone_ar": "غرب النقب",
    "countdown": 45,
    "lat": 31.32586,
    "lng": 34.69619,
    "value": "אשל הנשיא"
  },
  {
    "id": 1774,
    "name": "אשלים",
    "name_en": "Ashalim",
    "name_ru": "Ашалим",
    "name_ar": "اشليم",
    "zone": "דרום הנגב",
    "zone_en": "South Negev",
    "zone_ru": "Южный Негев",
    "zone_ar": "جنوب النقب",
    "countdown": 90,
    "lat": 30.97155,
    "lng": 34.71544,
    "value": "אשלים"
  },
  {
    "id": 1932,
    "name": "אשקלון - דרום",
    "name_en": "Ashkelon - South",
    "name_ru": "Ашкелон - Юг",
    "name_ar": "أشكلون - جنوب",
    "zone": "מערב לכיש",
    "zone_en": "West Lachish",
    "zone_ru": "Западный Лахиш",
    "zone_ar": "غرب لاخيش",
    "countdown": 30,
    "lat": 31.66262,
    "lng": 34.56838,
    "value": "אשקלון - דרום"
  },
  {
    "id": 320,
    "name": "אשקלון - צפון",
    "name_en": "Ashkelon - North",
    "name_ru": "Ашкелон - Север",
    "name_ar": "أشكلون - الشمال",
    "zone": "מערב לכיש",
    "zone_en": "West Lachish",
    "zone_ru": "Западный Лахиш",
    "zone_ar": "غرب لخيش",
    "countdown": 30,
    "lat": 31.68964,
    "lng": 34.58515,
    "value": "אשקלון - צפון"
  },
  {
    "id": 1482,
    "name": "אשרת",
    "name_en": "Oshrat",
    "name_ru": "Ошрат",
    "name_ar": "أوشرات",
    "zone": "גליל עליון",
    "zone_en": "Upper Galilee",
    "zone_ru": "Верхняя Галилея",
    "zone_ar": "الجليل الأعلى",
    "countdown": 30,
    "lat": 32.97156,
    "lng": 35.15686,
    "value": "אשרת",
    "shelters": 1
  },
  {
    "id": 462,
    "name": "אשתאול",
    "name_en": "Eshtaol",
    "name_ru": "Эштаоль",
    "name_ar": "اشتوئيل",
    "zone": "שפלת יהודה",
    "zone_en": "Shfelat Yehuda",
    "zone_ru": "Шфелат Йегуда",
    "zone_ar": "شيفلات يهودا",
    "countdown": 90,
    "lat": 31.78141,
    "lng": 35.00849,
    "value": "אשתאול"
  },
  {
    "id": 1752,
    "name": "אתר דודאים",
    "name_en": "Dudaim Site",
    "name_ru": "Свалка Дудаим",
    "name_ar": "موقع دودائيم",
    "zone": "מרכז הנגב",
    "zone_en": "Center Negev",
    "zone_ru": "Центральный Негев",
    "zone_ar": "مركز النقب",
    "countdown": 45,
    "lat": 31.31228,
    "lng": 34.734,
    "value": "אתר דודאים"
  },
  {
    "id": 1715,
    "name": "אתר ההנצחה גולני",
    "name_en": "Golani Memorial Site",
    "name_ru": "Мемориал Голани",
    "name_ar": "موقع تذكاري في غولاني",
    "zone": "גליל תחתון",
    "zone_en": "Lower Galilee",
    "zone_ru": "Нижняя Галилея",
    "zone_ar": "الجليل الأسفل",
    "countdown": 60,
    "lat": 32.77665,
    "lng": 35.4097,
    "value": "אתר ההנצחה גולני"
  },
  {
    "id": 982,
    "name": "באקה אל גרבייה",
    "name_en": "Bqa Al-Gharbiyye",
    "name_ru": "Бака аль Гарбия",
    "name_ar": "باقة الغربية",
    "zone": "ואדי ערה",
    "zone_en": "Wadi Ara",
    "zone_ru": "Вади Ара",
    "zone_ar": "وادي عارة",
    "countdown": 90,
    "lat": 32.41581,
    "lng": 35.03757,
    "value": "באקה אל גרבייה"
  },
  {
    "id": 12,
    "name": "באר אורה",
    "name_en": "Be'er Ora",
    "name_ru": "Беэр Ора",
    "name_ar": "بئير أوره",
    "zone": "ערבה",
    "zone_en": "Arava",
    "zone_ru": "Арава",
    "zone_ar": "العرباه",
    "countdown": 90,
    "lat": 29.70837,
    "lng": 34.98564,
    "value": "באר אורה"
  },
  {
    "id": 362,
    "name": "באר גנים",
    "name_en": "Be'er Ganim",
    "name_ru": "Беэр Ганим",
    "name_ar": "بئير جانيم",
    "zone": "מערב לכיש",
    "zone_en": "West Lachish",
    "zone_ru": "Западный Лахиш",
    "zone_ar": "غرب لاخيش",
    "countdown": 30,
    "lat": 31.69941,
    "lng": 34.60739,
    "value": "באר גנים"
  },
  {
    "id": 382,
    "name": "באר טוביה",
    "name_en": "Be'er Tuvia",
    "name_ru": "Беэр Тувья",
    "name_ar": "بئير طوبيا",
    "zone": "לכיש",
    "zone_en": "Lachish",
    "zone_ru": "Лахиш",
    "zone_ar": "لخيش",
    "countdown": 45,
    "lat": 31.73364,
    "lng": 34.72009,
    "value": "באר טוביה"
  },
  {
    "id": 1809,
    "name": "באר יעקב",
    "name_en": "Be'er Yacov",
    "name_ru": "Беэр Яаков",
    "name_ar": "بئير يعقوب",
    "zone": "השפלה",
    "zone_en": "HaShfela",
    "zone_ru": "Ха-Шфела",
    "zone_ar": "هشفيلاه",
    "countdown": 90,
    "lat": 31.9443,
    "lng": 34.84484,
    "value": "באר יעקב"
  },
  {
    "id": 1771,
    "name": "באר מילכה",
    "name_en": "Be'er Milka",
    "name_ru": "Беэр Милка",
    "name_ar": "بئير ميلخا",
    "zone": "דרום הנגב",
    "zone_en": "South Negev",
    "zone_ru": "Южный Негев",
    "zone_ar": "جنوب النقب",
    "countdown": 60,
    "lat": 30.93289,
    "lng": 34.40734,
    "value": "באר מילכה"
  },
  {
    "id": 1749,
    "name": "באר שבע - דרום",
    "name_en": "Beer Sheva - South",
    "name_ru": "Беэр шева - Южная часть",
    "name_ar": "بئر السبع -جنوب",
    "zone": "מרכז הנגב",
    "zone_en": "Center Negev",
    "zone_ru": "Центральный Негев",
    "zone_ar": "مركز النقب",
    "countdown": 60,
    "lat": 31.24145,
    "lng": 34.77619,
    "value": "באר שבע - דרום"
  },
  {
    "id": 124,
    "name": "באר שבע - מזרח",
    "name_en": "Beer Sheva - East",
    "name_ru": "Беэр Шева - восток",
    "name_ar": "بئر السبع - شرق",
    "zone": "מרכז הנגב",
    "zone_en": "Center Negev",
    "zone_ru": "Центральный Негев",
    "zone_ar": "مركز النقب",
    "countdown": 60,
    "lat": 31.23453,
    "lng": 34.82015,
    "value": "באר שבע - מזרח"
  },
  {
    "id": 141,
    "name": "באר שבע - מערב",
    "name_en": "Beer Sheva - West",
    "name_ru": "Беэр Шева - запад",
    "name_ar": "بئر السبع - غرب",
    "zone": "מרכז הנגב",
    "zone_en": "Center Negev",
    "zone_ru": "Центральный Негев",
    "zone_ar": "مركز النقب",
    "countdown": 60,
    "lat": 31.26126,
    "lng": 34.77945,
    "value": "באר שבע - מערב"
  },
  {
    "id": 1748,
    "name": "באר שבע - צפון",
    "name_en": "Beer Sheva - North",
    "name_ru": "Беэр Шева - север",
    "name_ar": "بئر السبع - شمال",
    "zone": "מרכז הנגב",
    "zone_en": "Center Negev",
    "zone_ru": "Центральный Негев",
    "zone_ar": "مركز النقب",
    "countdown": 60,
    "lat": 31.26988,
    "lng": 34.81496,
    "value": "באר שבע - צפון"
  },
  {
    "id": 727,
    "name": "בארות יצחק",
    "name_en": "Be'erot Itzhak",
    "name_ru": "Беэрот Ицхак",
    "name_ar": "بئروت يتسحاق",
    "zone": "ירקון",
    "zone_en": "Yarkon",
    "zone_ru": "Яркон",
    "zone_ar": "اليركون",
    "countdown": 90,
    "lat": 32.04175,
    "lng": 34.91019,
    "value": "בארות יצחק"
  },
  {
    "id": 923,
    "name": "בארותיים",
    "name_en": "Be'erotaim",
    "name_ru": "Беэротаим",
    "name_ar": "بئروتايم",
    "zone": "שרון",
    "zone_en": "Sharon",
    "zone_ru": "Шарон",
    "zone_ar": "شارون",
    "countdown": 90,
    "lat": 32.3229,
    "lng": 34.98566,
    "value": "בארותיים"
  },
  {
    "id": 212,
    "name": "בארי",
    "name_en": "Be'eri",
    "name_ru": "Беэри",
    "name_ar": "بئيري",
    "zone": "עוטף עזה",
    "zone_en": "Gaza Envelope",
    "zone_ru": "Граница с Газой",
    "zone_ar": "غلاف غزة",
    "countdown": 15,
    "lat": 31.42449,
    "lng": 34.49141,
    "value": "בארי",
    "shelters": 2
  },
  {
    "id": 1458,
    "name": "בוסתן הגליל",
    "name_en": "Bustan HaGalil",
    "name_ru": "Бустан ха-Галиль",
    "name_ar": "بستان الجليل",
    "zone": "גליל עליון",
    "zone_en": "Upper Galilee",
    "zone_ru": "Верхняя Галилея",
    "zone_ar": "الجليل الأعلى",
    "countdown": 30,
    "lat": 32.951,
    "lng": 35.08195,
    "value": "בוסתן הגליל",
    "shelters": 1
  },
  {
    "id": 1328,
    "name": "בועיינה-נוג'ידאת",
    "name_en": "Bu'eine Nujeidat",
    "name_ru": "Буэйне-Нуджейдат",
    "name_ar": "البعنة النجيدات",
    "zone": "מרכז הגליל",
    "zone_en": "Center Galilee",
    "zone_ru": "Центральная Галилея",
    "zone_ar": "مركز الجليل",
    "countdown": 60,
    "lat": 32.80808,
    "lng": 35.36656,
    "value": "בועיינה-נוג'ידאת"
  },
  {
    "id": 1641,
    "name": "בוקעתא",
    "name_en": "Buq'ata",
    "name_ru": "Буката",
    "name_ar": "بقعاثا",
    "zone": "גולן צפון",
    "zone_en": "North Golan",
    "zone_ru": "Северный Голан",
    "zone_ar": "الجولان الشمالي",
    "countdown": 0,
    "lat": 33.20422,
    "lng": 35.78029,
    "value": "בוקעתא"
  },
  {
    "id": 927,
    "name": "בורגתה",
    "name_en": "Burgata",
    "name_ru": "Бургата",
    "name_ar": "بورجاتا",
    "zone": "שרון",
    "zone_en": "Sharon",
    "zone_ru": "Шарон",
    "zone_ar": "شارون",
    "countdown": 90,
    "lat": 32.32477,
    "lng": 34.96219,
    "value": "בורגתה"
  },
  {
    "id": 944,
    "name": "בחן",
    "name_en": "Bahan",
    "name_ru": "Бахан",
    "name_ar": "بلدة بوحن",
    "zone": "שרון",
    "zone_en": "Sharon",
    "zone_ru": "Шарон",
    "zone_ar": "شارون",
    "countdown": 90,
    "lat": 32.35069,
    "lng": 35.01881,
    "value": "בחן"
  },
  {
    "id": 173,
    "name": "בטחה",
    "name_en": "Bitha",
    "name_ru": "Битха",
    "name_ar": "بطحا",
    "zone": "מערב הנגב",
    "zone_en": "West Negev",
    "zone_ru": "Западный Негев",
    "zone_ar": "غرب النقب",
    "countdown": 45,
    "lat": 31.3431,
    "lng": 34.63209,
    "value": "בטחה"
  },
  {
    "id": 470,
    "name": "ביצרון",
    "name_en": "Bitzaron",
    "name_ru": "Бицарон",
    "name_ar": "بيتسرون",
    "zone": "לכיש",
    "zone_en": "Lachish",
    "zone_ru": "Лахиш",
    "zone_ar": "لخيش",
    "countdown": 60,
    "lat": 31.79605,
    "lng": 34.72858,
    "value": "ביצרון"
  },
  {
    "id": 1285,
    "name": "ביר אלמכסור",
    "name_en": "Bir Al-Maksur",
    "name_ru": "Бир аль-Максур",
    "name_ar": "بئر المكسور",
    "zone": "מרכז הגליל",
    "zone_en": "Center Galilee",
    "zone_ru": "Центральная Галилея",
    "zone_ar": "مركز الجليل",
    "countdown": 60,
    "lat": 32.78516,
    "lng": 35.22438,
    "value": "ביר אלמכסור"
  },
  {
    "id": 78,
    "name": "ביר הדאג'",
    "name_en": "Bir Hadaj",
    "name_ru": "Бир Хададж",
    "name_ar": "بئر هداج",
    "zone": "דרום הנגב",
    "zone_en": "South Negev",
    "zone_ru": "Южный Негев",
    "zone_ar": "جنوب النقب",
    "countdown": 90,
    "lat": 31.03024,
    "lng": 34.71692,
    "value": "ביר הדאג'"
  },
  {
    "id": 1503,
    "name": "ביריה",
    "name_en": "Biriyeh",
    "name_ru": "Бирия",
    "name_ar": "بيريه",
    "zone": "גליל עליון",
    "zone_en": "Upper Galilee",
    "zone_ru": "Верхняя Галилея",
    "zone_ar": "الجليل الأعلى",
    "countdown": 30,
    "lat": 32.98154,
    "lng": 35.49982,
    "value": "ביריה"
  },
  {
    "id": 1240,
    "name": "בית אורן",
    "name_en": "Beit Oren",
    "name_ru": "Бейт Орен",
    "name_ar": "بيت أورن",
    "zone": "הכרמל",
    "zone_en": "HaCarmel",
    "zone_ru": "Ха-Кармель",
    "zone_ar": "الكرمل",
    "countdown": 60,
    "lat": 32.73168,
    "lng": 35.00498,
    "value": "בית אורן"
  },
  {
    "id": 1822,
    "name": "בית אל",
    "name_en": "Beit El",
    "name_ru": "Бейт Эль",
    "name_ar": "بيت إيلا",
    "zone": "שומרון",
    "zone_en": "Shomron",
    "zone_ru": "Самария",
    "zone_ar": "سامره",
    "countdown": 90,
    "lat": 31.94075,
    "lng": 35.22212,
    "value": "בית אל"
  },
  {
    "id": 544,
    "name": "בית אלעזרי",
    "name_en": "Beit Elazari",
    "name_ru": "Бейт Эльазари",
    "name_ar": "بيت اليعزري",
    "zone": "לכיש",
    "zone_en": "Lachish",
    "zone_ru": "Лахиш",
    "zone_ar": "لخيش",
    "countdown": 60,
    "lat": 31.84465,
    "lng": 34.80482,
    "value": "בית אלעזרי"
  },
  {
    "id": 1062,
    "name": "בית אלפא וחפציבה",
    "name_en": "Beit Alfa And Heftziba",
    "name_ru": "Бейт Альфа и Хефциба",
    "name_ar": "بيت ألفا وحفتسفا",
    "zone": "בקעת בית שאן",
    "zone_en": "Beit She'an Valley",
    "zone_ru": "Долина Бейт-Шеана",
    "zone_ar": "غور بيت شان",
    "countdown": 60,
    "lat": 32.5158,
    "lng": 35.43148,
    "value": "בית אלפא וחפציבה"
  },
  {
    "id": 728,
    "name": "בית אריה",
    "name_en": "Beit Arie",
    "name_ru": "Бейт Арье",
    "name_ar": "بيت أريه",
    "zone": "שומרון",
    "zone_en": "Shomron",
    "zone_ru": "Самария",
    "zone_ar": "سامره",
    "countdown": 90,
    "lat": 32.03709,
    "lng": 35.05007,
    "value": "בית אריה"
  },
  {
    "id": 858,
    "name": "בית ברל",
    "name_en": "Beit Berl",
    "name_ru": "Бейт Берл",
    "name_ar": "بيت بيرل",
    "zone": "שרון",
    "zone_en": "Sharon",
    "zone_ru": "Шарон",
    "zone_ar": "شارون",
    "countdown": 90,
    "lat": 32.20127,
    "lng": 34.9242,
    "value": "בית ברל"
  },
  {
    "id": 1474,
    "name": "בית ג'אן",
    "name_en": "Beit Jann",
    "name_ru": "Бейт Джан",
    "name_ar": "بيت جن",
    "zone": "גליל עליון",
    "zone_en": "Upper Galilee",
    "zone_ru": "Верхняя Галилея",
    "zone_ar": "الجليل الأعلى",
    "countdown": 30,
    "lat": 32.96547,
    "lng": 35.37137,
    "value": "בית ג'אן"
  },
  {
    "id": 301,
    "name": "בית גוברין",
    "name_en": "Beit Guvrin",
    "name_ru": "Бейт Говрин",
    "name_ar": "بيت جوبرين",
    "zone": "שפלת יהודה",
    "zone_en": "Shfelat Yehuda",
    "zone_ru": "Шфелат Йегуда",
    "zone_ar": "شيفلات يهودا",
    "countdown": 60,
    "lat": 31.61096,
    "lng": 34.89455,
    "value": "בית גוברין"
  },
  {
    "id": 558,
    "name": "בית גמליאל",
    "name_en": "Beit Gamliel",
    "name_ru": "Бейт Гамлиэль",
    "name_ar": "بيت جمليئل",
    "zone": "לכיש",
    "zone_en": "Lachish",
    "zone_ru": "Лахиш",
    "zone_ar": "لخيش",
    "countdown": 60,
    "lat": 31.8581,
    "lng": 34.76162,
    "value": "בית גמליאל"
  },
  {
    "id": 1860,
    "name": "בית דגן",
    "name_en": "Beit Dagan",
    "name_ru": "Бейт Даган",
    "name_ar": "بيت دجان",
    "zone": "השפלה",
    "zone_en": "HaShfela",
    "zone_ru": "Ха-Шфела",
    "zone_ar": "هشفيلاه",
    "countdown": 90,
    "lat": 31.99707,
    "lng": 34.82762,
    "value": "בית דגן"
  },
  {
    "id": 1760,
    "name": "בית הגדי",
    "name_en": "Beit HaGdi",
    "name_ru": "Бейт ха-Гди",
    "name_ar": "وبيت هجدي",
    "zone": "מערב הנגב",
    "zone_en": "West Negev",
    "zone_ru": "Западный Негев",
    "zone_ar": "غرب النقب",
    "countdown": 30,
    "lat": 31.42987,
    "lng": 34.60624,
    "value": "בית הגדי"
  },
  {
    "id": 943,
    "name": "בית הלוי",
    "name_en": "Beit HaLevi",
    "name_ru": "Бейт ха-Леви",
    "name_ar": "بيت هليفي",
    "zone": "שרון",
    "zone_en": "Sharon",
    "zone_ru": "Шарон",
    "zone_ar": "شارون",
    "countdown": 90,
    "lat": 32.35386,
    "lng": 34.93214,
    "value": "בית הלוי"
  },
  {
    "id": 1640,
    "name": "בית הלל",
    "name_en": "Beit Hillel",
    "name_ru": "Бейт Хилель",
    "name_ar": "بيت هيلل",
    "zone": "קו העימות",
    "zone_en": "Confrontation Line",
    "zone_ru": "Линия противостояния",
    "zone_ar": "خط المواجهة",
    "countdown": 0,
    "lat": 33.20812,
    "lng": 35.60485,
    "value": "בית הלל"
  },
  {
    "id": 2007,
    "name": "בית העלמין החדש נהריה",
    "name_en": "Nahariya Cemetery",
    "name_ru": "Кладбище Нагария",
    "name_ar": "مقبرة نهريا",
    "zone": "קו העימות",
    "zone_en": "Confrontation Line",
    "zone_ru": "Кав Ха-Имут",
    "zone_ar": "خط المواجهة",
    "countdown": 30,
    "lat": 33.00509,
    "lng": 35.14635,
    "value": "בית העלמין החדש נהריה"
  },
  {
    "id": 2192,
    "name": "בית העלמין החדש עכו",
    "name_en": "Akko New Cemetery",
    "name_ru": "Новое Кладбище Акко",
    "name_ar": "المقبرة الجديدة عكا",
    "zone": "גליל עליון",
    "zone_en": "Upper Galilee",
    "zone_ru": "Верхняя Галилея",
    "zone_ar": "الجليل الأعلى",
    "countdown": 30,
    "lat": 32.91468,
    "lng": 35.13587,
    "value": "בית העלמין החדש עכו"
  },
  {
    "id": 1481,
    "name": "בית העמק",
    "name_en": "Beit HaEmek",
    "name_ru": "Бейт ха-Эмек",
    "name_ar": "بيت هعيمك",
    "zone": "גליל עליון",
    "zone_en": "Upper Galilee",
    "zone_ru": "Верхняя Галилея",
    "zone_ar": "الجليل الأعلى",
    "countdown": 30,
    "lat": 32.97023,
    "lng": 35.14471,
    "value": "בית העמק"
  },
  {
    "id": 529,
    "name": "בית הערבה",
    "name_en": "Beit HaArava",
    "name_ru": "Бейт ха-Арава",
    "name_ar": "بيت هعاربا",
    "zone": "ים המלח",
    "zone_en": "Dead Sea",
    "zone_ru": "Мёртвое море",
    "zone_ar": "البحر الميت",
    "countdown": 90,
    "lat": 31.80837,
    "lng": 35.47771,
    "value": "בית הערבה"
  },
  {
    "id": 1087,
    "name": "בית השיטה",
    "name_en": "Beit HaShita",
    "name_ru": "Бейт ха-Шита",
    "name_ar": "بيت هشيتا",
    "zone": "בקעת בית שאן",
    "zone_en": "Beit She'an Valley",
    "zone_ru": "Долина Бейт-Шеана",
    "zone_ar": "غور بيت شان",
    "countdown": 60,
    "lat": 32.55017,
    "lng": 35.4384,
    "value": "בית השיטה"
  },
  {
    "id": 466,
    "name": "בית זית",
    "name_en": "Beit Zayit",
    "name_ru": "Бейт Зайт",
    "name_ar": "بيت زيت",
    "zone": "ירושלים",
    "zone_en": "Jerusalem",
    "zone_ru": "Иерусалим",
    "zone_ar": "أورشليمالقدس",
    "countdown": 90,
    "lat": 31.78209,
    "lng": 35.16137,
    "value": "בית זית"
  },
  {
    "id": 1196,
    "name": "בית זרע",
    "name_en": "Beit Zera",
    "name_ru": "Бейт Зера",
    "name_ar": "بيت زيرع",
    "zone": "גליל תחתון",
    "zone_en": "Lower Galilee",
    "zone_ru": "Нижняя Галилея",
    "zone_ar": "الجليل الأسفل",
    "countdown": 60,
    "lat": 32.68783,
    "lng": 35.5739,
    "value": "בית זרע"
  },
  {
    "id": 247,
    "name": "בית חג\"י",
    "name_en": "Beit Hagai",
    "name_ru": "Бейт Хагай",
    "name_ar": "بيت حاجاي",
    "zone": "יהודה",
    "zone_en": "Yehuda",
    "zone_ru": "Йегуда",
    "zone_ar": "يهودا",
    "countdown": 90,
    "lat": 31.49177,
    "lng": 35.07918,
    "value": "בית חג\"י"
  },
  {
    "id": 596,
    "name": "בית חורון",
    "name_en": "Beit Horon",
    "name_ru": "Бейт Хорон",
    "name_ar": "بيت حورون",
    "zone": "שומרון",
    "zone_en": "Shomron",
    "zone_ru": "Самария",
    "zone_ar": "سامره",
    "countdown": 90,
    "lat": 31.87662,
    "lng": 35.1277,
    "value": "בית חורון"
  },
  {
    "id": 965,
    "name": "בית חזון",
    "name_en": "Beit Hazon",
    "name_ru": "Бейт Хазон",
    "name_ar": "بيت حزون",
    "zone": "שרון",
    "zone_en": "Sharon",
    "zone_ru": "Шарон",
    "zone_ar": "شارون",
    "countdown": 90,
    "lat": 32.38744,
    "lng": 34.91369,
    "value": "בית חזון"
  },
  {
    "id": 471,
    "name": "בית חלקיה",
    "name_en": "Beit Hilkia",
    "name_ru": "Бейт Хилькия",
    "name_ar": "بيت حلقية",
    "zone": "לכיש",
    "zone_en": "Lachish",
    "zone_ru": "Лахиш",
    "zone_ar": "لخيش",
    "countdown": 60,
    "lat": 31.79262,
    "lng": 34.81204,
    "value": "בית חלקיה"
  },
  {
    "id": 1806,
    "name": "בית חנן",
    "name_en": "Beit Hanan",
    "name_ru": "Бейт Ханан",
    "name_ar": "بيت حنان",
    "zone": "השפלה",
    "zone_en": "HaShfela",
    "zone_ru": "Ха-Шфела",
    "zone_ar": "هشفيلاه",
    "countdown": 90,
    "lat": 31.93617,
    "lng": 34.77636,
    "value": "בית חנן"
  },
  {
    "id": 1064,
    "name": "בית חנניה",
    "name_en": "Beit Hanania",
    "name_ru": "Бейт Ханания",
    "name_ar": "بيت حنانيه",
    "zone": "מנשה",
    "zone_en": "Menashe",
    "zone_ru": "Менаше",
    "zone_ar": "مناشيه",
    "countdown": 90,
    "lat": 32.52908,
    "lng": 34.92572,
    "value": "בית חנניה"
  },
  {
    "id": 958,
    "name": "בית חרות",
    "name_en": "Beit Herut",
    "name_ru": "Бейт Херут",
    "name_ar": "بيت حيروت",
    "zone": "שרון",
    "zone_en": "Sharon",
    "zone_ru": "Шарон",
    "zone_ar": "شارون",
    "countdown": 90,
    "lat": 32.37923,
    "lng": 34.86713,
    "value": "בית חרות"
  },
  {
    "id": 1780,
    "name": "בית חשמונאי",
    "name_en": "Beit Hashmonai",
    "name_ru": "Бейт Хашмонаи",
    "name_ar": "بيت حشمونائي",
    "zone": "השפלה",
    "zone_en": "HaShfela",
    "zone_ru": "Ха-Шфела",
    "zone_ar": "هشفيلاه",
    "countdown": 90,
    "lat": 31.88884,
    "lng": 34.91986,
    "value": "בית חשמונאי"
  },
  {
    "id": 890,
    "name": "בית יהושע",
    "name_en": "Beit Yehoshua",
    "name_ru": "Бейт Иешуа",
    "name_ar": "بيت يهوشاع",
    "zone": "שרון",
    "zone_en": "Sharon",
    "zone_ru": "Шарон",
    "zone_ar": "شارون",
    "countdown": 90,
    "lat": 32.26072,
    "lng": 34.86307,
    "value": "בית יהושע"
  },
  {
    "id": 1094,
    "name": "בית יוסף",
    "name_en": "Beit Yossef",
    "name_ru": "Бейт Йосеф",
    "name_ar": "بيت يوسف",
    "zone": "בקעת בית שאן",
    "zone_en": "Beit She'an Valley",
    "zone_ru": "Долина Бейт-Шеана",
    "zone_ar": "غور بيت شان",
    "countdown": 60,
    "lat": 32.55964,
    "lng": 35.55354,
    "value": "בית יוסף"
  },
  {
    "id": 959,
    "name": "בית ינאי",
    "name_en": "Beit Yannai",
    "name_ru": "Бейт Яннай",
    "name_ar": "بيت يناي",
    "zone": "שרון",
    "zone_en": "Sharon",
    "zone_ru": "Шарон",
    "zone_ar": "شارون",
    "countdown": 90,
    "lat": 32.3825,
    "lng": 34.86389,
    "value": "בית ינאי"
  },
  {
    "id": 925,
    "name": "בית יצחק - שער חפר",
    "name_en": "Beit Yithak - Sha'ar Hefer",
    "name_ru": "Бейт Ицхак - Щаар Хефер",
    "name_ar": "بيت يتسحاق- شاعار حيفر",
    "zone": "שרון",
    "zone_en": "Sharon",
    "zone_ru": "Шарон",
    "zone_ar": "شارون",
    "countdown": 90,
    "lat": 32.335,
    "lng": 34.89158,
    "value": "בית יצחק - שער חפר"
  },
  {
    "id": 1239,
    "name": "בית ירח",
    "name_en": "Beit Yerach",
    "name_ru": "Бейт Йерах",
    "name_ar": "وبيت يريح",
    "zone": "גליל תחתון",
    "zone_en": "Lower Galilee",
    "zone_ru": "Нижняя Галилея",
    "zone_ar": "الجليل الأسفل",
    "countdown": 60,
    "lat": 32.71434,
    "lng": 35.57435,
    "value": "בית ירח"
  },
  {
    "id": 193,
    "name": "בית יתיר",
    "name_en": "Beit Yatir",
    "name_ru": "Бейт Ятир",
    "name_ar": "بيت يتير",
    "zone": "יהודה",
    "zone_en": "Yehuda",
    "zone_ru": "Йегуда",
    "zone_ar": "يهودا",
    "countdown": 90,
    "lat": 31.36566,
    "lng": 35.11117,
    "value": "בית יתיר"
  },
  {
    "id": 1245,
    "name": "בית לחם הגלילית",
    "name_en": "Bethlehem of Galilee",
    "name_ru": "Бейт Лехем ха-Глилит",
    "name_ar": "بيت ليحم هجليليت",
    "zone": "העמקים",
    "zone_en": "HaAmakim",
    "zone_ru": "Ха-Амаким",
    "zone_ar": "هعماكيم",
    "countdown": 60,
    "lat": 32.73438,
    "lng": 35.19026,
    "value": "בית לחם הגלילית"
  },
  {
    "id": 490,
    "name": "בית מאיר",
    "name_en": "Beit Meir",
    "name_ru": "Бейт Меир",
    "name_ar": "بيت مئير",
    "zone": "שפלת יהודה",
    "zone_en": "Shfelat Yehuda",
    "zone_ru": "Шфелат Йегуда",
    "zone_ar": "شيفلات يهودا",
    "countdown": 90,
    "lat": 31.79421,
    "lng": 35.03737,
    "value": "בית מאיר"
  },
  {
    "id": 1852,
    "name": "בית נחמיה",
    "name_en": "Beit Nechemia",
    "name_ru": "Беит Нехемия",
    "name_ar": "بيت نحميا",
    "zone": "ירקון",
    "zone_en": "Yarkon",
    "zone_ru": "Яркон",
    "zone_ar": "اليركون",
    "countdown": 90,
    "lat": 31.97532,
    "lng": 34.9549,
    "value": "בית נחמיה"
  },
  {
    "id": 325,
    "name": "בית ניר",
    "name_en": "Beit Nir",
    "name_ru": "Бейт Нир",
    "name_ar": "بيت نير",
    "zone": "שפלת יהודה",
    "zone_en": "Shfelat Yehuda",
    "zone_ru": "Шфелат Йегуда",
    "zone_ar": "شيفلات يهودا",
    "countdown": 60,
    "lat": 31.64838,
    "lng": 34.87347,
    "value": "בית ניר"
  },
  {
    "id": 512,
    "name": "בית נקופה",
    "name_en": "Beit Nekofa",
    "name_ru": "Бейт Некофа",
    "name_ar": "بيت نقوبا",
    "zone": "שפלת יהודה",
    "zone_en": "Shfelat Yehuda",
    "zone_ru": "Шфелат Йегуда",
    "zone_ar": "شيفلات يهودا",
    "countdown": 90,
    "lat": 31.80377,
    "lng": 35.1267,
    "value": "בית נקופה"
  },
  {
    "id": 1756,
    "name": "בית סוהר השרון",
    "name_en": "HaSharon Prison",
    "name_ru": "Тюрма а- Шарон",
    "name_ar": "سجن هشرون",
    "zone": "שרון",
    "zone_en": "Sharon",
    "zone_ru": "Шарон",
    "zone_ar": "شارون",
    "countdown": 90,
    "lat": 32.24069,
    "lng": 34.88439,
    "value": "בית סוהר השרון"
  },
  {
    "id": 1755,
    "name": "בית סוהר מגידו",
    "name_en": "Megiddo Prison",
    "name_ru": "Тюрма Магидо",
    "name_ar": "سجن مجدو",
    "zone": "ואדי ערה",
    "zone_en": "Wadi Ara",
    "zone_ru": "Вади Ара",
    "zone_ar": "وادي عارة",
    "countdown": 90,
    "lat": 32.57058,
    "lng": 35.19026,
    "value": "בית סוהר מגידו"
  },
  {
    "id": 1757,
    "name": "בית סוהר נפחא",
    "name_en": "Nafha Prison",
    "name_ru": "Тюрма Нефха",
    "name_ar": "سجن نفحة",
    "zone": "דרום הנגב",
    "zone_en": "South Negev",
    "zone_ru": "Южный Негев",
    "zone_ar": "جنوب النقب",
    "countdown": 90,
    "lat": 30.72854,
    "lng": 34.77211,
    "value": "בית סוהר נפחא"
  },
  {
    "id": 1931,
    "name": "בית סוהר צלמון",
    "name_en": "Tsalmon Detention Center",
    "name_ru": "Бейт Сохар Цалмон",
    "name_ar": "سجن تصلمون",
    "zone": "מרכז הגליל",
    "zone_en": "Center Galilee",
    "zone_ru": "Центральная Галилея",
    "zone_ar": "مركز الجليل",
    "countdown": 60,
    "lat": 32.87171,
    "lng": 35.4476,
    "value": "בית סוהר צלמון"
  },
  {
    "id": 1928,
    "name": "בית סוהר קישון",
    "name_en": "Kishon Detention Center",
    "name_ru": "Бейт Сохар Кишон",
    "name_ar": "سجن كيشون",
    "zone": "הכרמל",
    "zone_en": "HaCarmel",
    "zone_ru": "Ха-Кармель",
    "zone_ar": "الكرمل",
    "countdown": 60,
    "lat": 32.72679,
    "lng": 35.09173,
    "value": "בית סוהר קישון"
  },
  {
    "id": 1754,
    "name": "בית סוהר שיטה וגלבוע",
    "name_en": "Shita And Gilboa Prison",
    "name_ru": "Тюрьма Шита и Гильбоа",
    "name_ar": "سجن شطا هجلبوع",
    "zone": "העמקים",
    "zone_en": "HaAmakim",
    "zone_ru": "Ха-Амаким",
    "zone_ar": "هعماكيم",
    "countdown": 60,
    "lat": 32.54694,
    "lng": 35.41661,
    "value": "בית סוהר שיטה וגלבוע"
  },
  {
    "id": 1073,
    "name": "בית ספר אורט בנימינה",
    "name_en": "Ort Binyamina",
    "name_ru": "Орт Биньямина",
    "name_ar": "مدرسة أورط بنيامينا",
    "zone": "מנשה",
    "zone_en": "Menashe",
    "zone_ru": "Менаше",
    "zone_ar": "مناشيه",
    "countdown": 90,
    "lat": 32.54632,
    "lng": 34.95654,
    "value": "בית ספר אורט בנימינה"
  },
  {
    "id": 1722,
    "name": "בית ספר שדה מירון",
    "name_en": "Sdeh Meron School",
    "name_ru": "Школа Сде Мирон",
    "name_ar": "مدرسة سده ميرون",
    "zone": "קו העימות",
    "zone_en": "Confrontation Line",
    "zone_ru": "Линия противостояния",
    "zone_ar": "خط المواجهة",
    "countdown": 0,
    "lat": 33.00955,
    "lng": 35.39346,
    "value": "בית ספר שדה מירון"
  },
  {
    "id": 1794,
    "name": "בית עובד",
    "name_en": "Beit Oved",
    "name_ru": "Бейт Овед",
    "name_ar": "بيت عوفيد",
    "zone": "השפלה",
    "zone_en": "HaShfela",
    "zone_ru": "Ха-Шфела",
    "zone_ar": "هشفيلاه",
    "countdown": 90,
    "lat": 31.92429,
    "lng": 34.76679,
    "value": "בית עובד"
  },
  {
    "id": 578,
    "name": "בית עוזיאל",
    "name_en": "Beit Uziel",
    "name_ru": "Бейт Узиэль",
    "name_ar": "بيت عوزيئيل",
    "zone": "השפלה",
    "zone_en": "HaShfela",
    "zone_ru": "Ха-Шфела",
    "zone_ar": "هشفيلاه",
    "countdown": 90,
    "lat": 31.87084,
    "lng": 34.90536,
    "value": "בית עוזיאל"
  },
  {
    "id": 394,
    "name": "בית עזרא",
    "name_en": "Beit Ezra",
    "name_ru": "Бейт Эзра",
    "name_ar": "بيت عزرا",
    "zone": "לכיש",
    "zone_en": "Lachish",
    "zone_ru": "Лахиш",
    "zone_ar": "لخيش",
    "countdown": 45,
    "lat": 31.73691,
    "lng": 34.65478,
    "value": "בית עזרא"
  },
  {
    "id": 2200,
    "name": "בית עלמין מורשה",
    "name_en": "Morasha Cemetery",
    "name_ru": "Кладбище Мораша",
    "name_ar": "مقبرة موراشاه",
    "zone": "דן",
    "zone_en": "Dan",
    "zone_ru": "Дан",
    "zone_ar": "دان",
    "countdown": 90,
    "lat": 32.12069,
    "lng": 34.85496,
    "value": "בית עלמין מורשה"
  },
  {
    "id": 1871,
    "name": "בית עלמין תל רגב",
    "name_en": "Tel Regev Cemetary",
    "name_ru": "Бет Альмин Тель Регев",
    "name_ar": "مقبرة تل ريجيف",
    "zone": "המפרץ",
    "zone_en": "HaMifratz",
    "zone_ru": "Ха-Мифрац",
    "zone_ar": "همفراتس",
    "countdown": 60,
    "lat": 32.76879,
    "lng": 35.12516,
    "value": "בית עלמין תל רגב"
  },
  {
    "id": 1864,
    "name": "בית עריף",
    "name_en": "Beit Arif",
    "name_ru": "Бейт Ариф",
    "name_ar": "بيت عريف",
    "zone": "ירקון",
    "zone_en": "Yarkon",
    "zone_ru": "Яркон",
    "zone_ar": "اليركون",
    "countdown": 90,
    "lat": 31.99539,
    "lng": 34.93586,
    "value": "בית עריף"
  },
  {
    "id": 1214,
    "name": "בית צבי",
    "name_en": "Beit Zvi",
    "name_ru": "Бейт Цви",
    "name_ar": "بيت تسفي",
    "zone": "הכרמל",
    "zone_en": "HaCarmel",
    "zone_ru": "Ха-Кармель",
    "zone_ar": "الكرمل",
    "countdown": 60,
    "lat": 32.71816,
    "lng": 34.9697,
    "value": "בית צבי"
  },
  {
    "id": 227,
    "name": "בית קמה",
    "name_en": "Beit Kama",
    "name_ru": "Бейт Кама",
    "name_ar": "بيت كاما",
    "zone": "מרכז הנגב",
    "zone_en": "Center Negev",
    "zone_ru": "Центральный Негев",
    "zone_ar": "مركز النقب",
    "countdown": 45,
    "lat": 31.4428,
    "lng": 34.76122,
    "value": "בית קמה"
  },
  {
    "id": 1234,
    "name": "בית קשת",
    "name_en": "Beit Keshet",
    "name_ru": "Бейт Кешет",
    "name_ar": "بيت كيشت",
    "zone": "העמקים",
    "zone_en": "HaAmakim",
    "zone_ru": "Ха-Амаким",
    "zone_ar": "هعماكيم",
    "countdown": 60,
    "lat": 32.71802,
    "lng": 35.39451,
    "value": "בית קשת"
  },
  {
    "id": 1310,
    "name": "בית רימון",
    "name_en": "Beit Rimon",
    "name_ru": "Бейт Римон",
    "name_ar": "بيت ريمون",
    "zone": "מרכז הגליל",
    "zone_en": "Center Galilee",
    "zone_ru": "Центральная Галилея",
    "zone_ar": "مركز الجليل",
    "countdown": 60,
    "lat": 32.78127,
    "lng": 35.3285,
    "value": "בית רימון"
  },
  {
    "id": 1042,
    "name": "בית שאן",
    "name_en": "Beit She'an",
    "name_ru": "Бейт Шеан",
    "name_ar": "بيسان",
    "zone": "בקעת בית שאן",
    "zone_en": "Beit She'an Valley",
    "zone_ru": "Долина Бейт-Шеана",
    "zone_ar": "غور بيت شان",
    "countdown": 60,
    "lat": 32.49944,
    "lng": 35.50057,
    "value": "בית שאן"
  },
  {
    "id": 412,
    "name": "בית שמש",
    "name_en": "Beit Shemesh",
    "name_ru": "Бейт Шемеш",
    "name_ar": "بيت شيمش",
    "zone": "שפלת יהודה",
    "zone_en": "Shfelat Yehuda",
    "zone_ru": "Шфелат Йегуда",
    "zone_ar": "شيفلات يهودا",
    "countdown": 90,
    "lat": 31.72752,
    "lng": 34.99042,
    "value": "בית שמש"
  },
  {
    "id": 1185,
    "name": "בית שערים",
    "name_en": "Beit Shea'rim",
    "name_ru": "Бейт Шеарим",
    "name_ar": "بيت شعاريم",
    "zone": "העמקים",
    "zone_en": "HaAmakim",
    "zone_ru": "Ха-Амаким",
    "zone_ar": "هعماكيم",
    "countdown": 60,
    "lat": 32.69461,
    "lng": 35.17708,
    "value": "בית שערים"
  },
  {
    "id": 311,
    "name": "בית שקמה",
    "name_en": "Beit Shikma",
    "name_ru": "Бейт Шикма",
    "name_ar": "بيت شيكما",
    "zone": "מערב לכיש",
    "zone_en": "West Lachish",
    "zone_ru": "Западный Лахиш",
    "zone_ar": "غرب لاخيش",
    "countdown": 30,
    "lat": 31.63787,
    "lng": 34.61124,
    "value": "בית שקמה"
  },
  {
    "id": 950,
    "name": "ביתן אהרן",
    "name_en": "Bitan Aharon",
    "name_ru": "Бейт Аарон",
    "name_ar": "بيت أهرون",
    "zone": "שרון",
    "zone_en": "Sharon",
    "zone_ru": "Шарон",
    "zone_ar": "شارون",
    "countdown": 90,
    "lat": 32.36456,
    "lng": 34.86967,
    "value": "ביתן אהרן"
  },
  {
    "id": 371,
    "name": "ביתר עילית",
    "name_en": "Beitar Illit",
    "name_ru": "Бейтар Илит",
    "name_ar": "بيتار عيليت",
    "zone": "יהודה",
    "zone_en": "Yehuda",
    "zone_ru": "Йегуда",
    "zone_ar": "يهودا",
    "countdown": 90,
    "lat": 31.70135,
    "lng": 35.11622,
    "value": "ביתר עילית"
  },
  {
    "id": 1139,
    "name": "בלפוריה",
    "name_en": "Balfuria",
    "name_ru": "Бальфурия",
    "name_ar": "بلفوريا",
    "zone": "העמקים",
    "zone_en": "HaAmakim",
    "zone_ru": "Ха-Амаким",
    "zone_ar": "هعماكيم",
    "countdown": 60,
    "lat": 32.62972,
    "lng": 35.29693,
    "value": "בלפוריה"
  },
  {
    "id": 557,
    "name": "בן זכאי",
    "name_en": "Ben Zakai",
    "name_ru": "Бен Закай",
    "name_ar": "بن زكاي",
    "zone": "לכיש",
    "zone_en": "Lachish",
    "zone_ru": "Лахиш",
    "zone_ar": "لخيش",
    "countdown": 60,
    "lat": 31.85652,
    "lng": 34.72702,
    "value": "בן זכאי"
  },
  {
    "id": 1520,
    "name": "בן עמי",
    "name_en": "Ben Ami",
    "name_ru": "Бен Ами",
    "name_ar": "بن عامي",
    "zone": "קו העימות",
    "zone_en": "Confrontation Line",
    "zone_ru": "Линия противостояния",
    "zone_ar": "خط المواجهة",
    "countdown": 0,
    "lat": 33.0063,
    "lng": 35.12453,
    "value": "בן עמי"
  },
  {
    "id": 1831,
    "name": "בן שמן",
    "name_en": "Ben Shemen",
    "name_ru": "Бен Шемен",
    "name_ar": "بن شيمن",
    "zone": "השפלה",
    "zone_en": "HaShfela",
    "zone_ru": "Ха-Шфела",
    "zone_ar": "هشفيلاه",
    "countdown": 90,
    "lat": 31.95137,
    "lng": 34.92001,
    "value": "בן שמן"
  },
  {
    "id": 754,
    "name": "בני ברק",
    "name_en": "Bnei Brak",
    "name_ru": "Бней Брак",
    "name_ar": "بني براك",
    "zone": "דן",
    "zone_en": "Dan",
    "zone_ru": "Дан",
    "zone_ar": "دان",
    "countdown": 90,
    "lat": 32.08874,
    "lng": 34.83419,
    "value": "בני ברק"
  },
  {
    "id": 254,
    "name": "בני דקלים",
    "name_en": "Bnei Dkalim",
    "name_ru": "Бней Дкалим",
    "name_ar": "بني دكاليم",
    "zone": "יהודה",
    "zone_en": "Yehuda",
    "zone_ru": "Йегуда",
    "zone_ar": "يهودا",
    "countdown": 60,
    "lat": 31.51908,
    "lng": 34.91592,
    "value": "בני דקלים"
  },
  {
    "id": 500,
    "name": "בני דרום",
    "name_en": "Bnei Darom",
    "name_ru": "Бней Даром",
    "name_ar": "بني دروم",
    "zone": "לכיש",
    "zone_en": "Lachish",
    "zone_ru": "Лахиш",
    "zone_ar": "لخيش",
    "countdown": 45,
    "lat": 31.81978,
    "lng": 34.69134,
    "value": "בני דרום"
  },
  {
    "id": 892,
    "name": "בני דרור",
    "name_en": "Bnei Dror",
    "name_ru": "Бней Дрор",
    "name_ar": "بني درور",
    "zone": "שרון",
    "zone_en": "Sharon",
    "zone_ru": "Шарон",
    "zone_ar": "شارون",
    "countdown": 90,
    "lat": 32.26205,
    "lng": 34.89911,
    "value": "בני דרור"
  },
  {
    "id": 1331,
    "name": "בני יהודה וגבעת יואב",
    "name_en": "Bnei Yehuda And Givat Yoav",
    "name_ru": "Бней Иеуда и Гиват Йоав",
    "name_ar": "بني يهودا وجفعات يوئاف",
    "zone": "גולן דרום",
    "zone_en": "South Golan",
    "zone_ru": "Южный Голан",
    "zone_ar": "الجولان الجنوبي",
    "countdown": 15,
    "lat": 32.79884,
    "lng": 35.68438,
    "value": "בני יהודה וגבעת יואב"
  },
  {
    "id": 95,
    "name": "בני נצרים",
    "name_en": "Bnei Netzarim",
    "name_ru": "Бней Нецарим",
    "name_ar": "بني نتسريم",
    "zone": "עוטף עזה",
    "zone_en": "Gaza Envelope",
    "zone_ru": "Граница с Газой",
    "zone_ar": "غلاف غزة",
    "countdown": 30,
    "lat": 31.14525,
    "lng": 34.31794,
    "value": "בני נצרים"
  },
  {
    "id": 712,
    "name": "בני עטרות",
    "name_en": "Bnei Atarot",
    "name_ru": "Бней Атарот",
    "name_ar": "بني عطاروت",
    "zone": "ירקון",
    "zone_en": "Yarkon",
    "zone_ru": "Яркон",
    "zone_ar": "اليركون",
    "countdown": 90,
    "lat": 32.02374,
    "lng": 34.91124,
    "value": "בני עטרות"
  },
  {
    "id": 456,
    "name": "בני עי'ש",
    "name_en": "Bnei Ayish",
    "name_ru": "Бней Аиш",
    "name_ar": "بني عايش",
    "zone": "לכיש",
    "zone_en": "Lachish",
    "zone_ru": "Лахиш",
    "zone_ar": "لخيش",
    "countdown": 60,
    "lat": 31.79127,
    "lng": 34.75754,
    "value": "בני עי'ש"
  },
  {
    "id": 867,
    "name": "בני ציון",
    "name_en": "Bnei Zion",
    "name_ru": "Бней Цион",
    "name_ar": "بني تسيون",
    "zone": "שרון",
    "zone_en": "Sharon",
    "zone_ru": "Шарон",
    "zone_ar": "شارون",
    "countdown": 90,
    "lat": 32.21886,
    "lng": 34.86462,
    "value": "בני ציון"
  },
  {
    "id": 438,
    "name": "בני ראם",
    "name_en": "Bnei Re'em",
    "name_ru": "Бней Рам",
    "name_ar": "بني رام",
    "zone": "לכיש",
    "zone_en": "Lachish",
    "zone_ru": "Лахиш",
    "zone_ar": "لخيش",
    "countdown": 60,
    "lat": 31.76861,
    "lng": 34.79115,
    "value": "בני ראם"
  },
  {
    "id": 543,
    "name": "בניה",
    "name_en": "Bnaya",
    "name_ru": "Бнайя",
    "name_ar": "بنيه",
    "zone": "לכיש",
    "zone_en": "Lachish",
    "zone_ru": "Лахиш",
    "zone_ar": "لخيش",
    "countdown": 60,
    "lat": 31.8436,
    "lng": 34.75048,
    "value": "בניה"
  },
  {
    "id": 1053,
    "name": "בנימינה",
    "name_en": "Binyamina",
    "name_ru": "Биньямина",
    "name_ar": "بنيامينا",
    "zone": "מנשה",
    "zone_en": "Menashe",
    "zone_ru": "Менаше",
    "zone_ar": "مناشيه",
    "countdown": 90,
    "lat": 32.52133,
    "lng": 34.94528,
    "value": "בנימינה"
  },
  {
    "id": 1244,
    "name": "בסמת טבעון",
    "name_en": "Basmat Tab'un",
    "name_ru": "Басмат Тивон",
    "name_ar": "بسمة طبعون",
    "zone": "העמקים",
    "zone_en": "HaAmakim",
    "zone_ru": "Ха-Амаким",
    "zone_ar": "هعماكيم",
    "countdown": 60,
    "lat": 32.74122,
    "lng": 35.15215,
    "value": "בסמת טבעון"
  },
  {
    "id": 1434,
    "name": "בענה",
    "name_en": "Bi'ina",
    "name_ru": "Биина",
    "name_ar": "البعنة",
    "zone": "גליל עליון",
    "zone_en": "Upper Galilee",
    "zone_ru": "Верхняя Галилея",
    "zone_ar": "الجليل الأعلى",
    "countdown": 30,
    "lat": 32.92792,
    "lng": 35.27319,
    "value": "בענה"
  },
  {
    "id": 863,
    "name": "בצרה",
    "name_en": "Batzra",
    "name_ru": "Бацра",
    "name_ar": "بصرة",
    "zone": "שרון",
    "zone_en": "Sharon",
    "zone_ru": "Шарон",
    "zone_ar": "شارون",
    "countdown": 90,
    "lat": 32.21326,
    "lng": 34.8796,
    "value": "בצרה"
  },
  {
    "id": 1581,
    "name": "בצת",
    "name_en": "Betzet",
    "name_ru": "Бецет",
    "name_ar": "بتست",
    "zone": "קו העימות",
    "zone_en": "Confrontation Line",
    "zone_ru": "Линия противостояния",
    "zone_ar": "خط المواجهة",
    "countdown": 0,
    "lat": 33.07109,
    "lng": 35.13199,
    "value": "בצת"
  },
  {
    "id": 536,
    "name": "בקוע",
    "name_en": "Beko'a",
    "name_ru": "Бкоа",
    "name_ar": "بكوع",
    "zone": "שפלת יהודה",
    "zone_en": "Shfelat Yehuda",
    "zone_ru": "Шфелат Йегуда",
    "zone_ar": "شيفلات يهودا",
    "countdown": 90,
    "lat": 31.82881,
    "lng": 34.92444,
    "value": "בקוע"
  },
  {
    "id": 887,
    "name": "בקעות",
    "name_en": "Beka'ot",
    "name_ru": "Бкаот",
    "name_ar": "بكعوت",
    "zone": "בקעה",
    "zone_en": "Bika'a",
    "zone_ru": "Бикъа",
    "zone_ar": "بيكعا",
    "countdown": 90,
    "lat": 32.24315,
    "lng": 35.45284,
    "value": "בקעות"
  },
  {
    "id": 400,
    "name": "בר גיורא",
    "name_en": "Bar Giora",
    "name_ru": "Бар Гиора",
    "name_ar": "بار جيورا",
    "zone": "שפלת יהודה",
    "zone_en": "Shfelat Yehuda",
    "zone_ru": "Шфелат Йегуда",
    "zone_ar": "شيفلات يهودا",
    "countdown": 90,
    "lat": 31.73068,
    "lng": 35.07119,
    "value": "בר גיורא"
  },
  {
    "id": 1526,
    "name": "בר יוחאי",
    "name_en": "Bar Yochai",
    "name_ru": "Бар Йохай",
    "name_ar": "بار يوحاي",
    "zone": "גליל עליון",
    "zone_en": "Upper Galilee",
    "zone_ru": "Верхняя Галилея",
    "zone_ar": "الجليل الأعلى",
    "countdown": 30,
    "lat": 32.99777,
    "lng": 35.44828,
    "value": "בר יוחאי"
  },